[{"id":"JDQ4MTAxMiM1MSMkMSMkMCMkODkkMzgxMzUxIzExIyQxIyQzIyQ3OSQyNjE4MzIjODEjJDEjJDYjJDgz","name":"고신대학교복음병원","clCd":"01","clCdNm":"상급종합","sidoCd":"210000","sidoCdNm":"부산","sgguCd":"210006","sgguCdNm":"부산서구","addr":"부산광역시 서구 감천로 262, (암남동)","phone":"990-6114","hospUrl":"http://www.kosinmed.or.kr/","estbDd":"19740226","drTotCnt":292,"mdeptSdrCnt":196,"lat":35.0809636,"lng":129.0139595},{"id":"JDQ4MTAxMiM1MSMkMSMkMCMkODkkMzgxMzUxIzExIyQyIyQzIyQwMCQ0NjEwMDIjNDEjJDEjJDQjJDgz","name":"동아대학교병원","clCd":"01","clCdNm":"상급종합","sidoCd":"210000","sidoCdNm":"부산","sgguCd":"210006","sgguCdNm":"부산서구","addr":"부산광역시 서구 대신공원로 26, (동대신동3가)","phone":"051-240-2400","hospUrl":"http://www.damc.or.kr","estbDd":"19900303","drTotCnt":308,"mdeptSdrCnt":182,"lat":35.1201682,"lng":129.0175391},{"id":"JDQ4MTAxMiM1MSMkMSMkMCMkODkkMzgxMzUxIzExIyQxIyQzIyQ3OSQyNjEyMjIjNDEjJDEjJDgjJDgz","name":"부산대학교병원","clCd":"01","clCdNm":"상급종합","sidoCd":"210000","sidoCdNm":"부산","sgguCd":"210006","sgguCdNm":"부산서구","addr":"부산광역시 서구 구덕로 179, (아미동1가)","phone":"240-7000","hospUrl":"","estbDd":"19810827","drTotCnt":507,"mdeptSdrCnt":276,"lat":35.1008477,"lng":129.0188032},{"id":"JDQ4MTAxMiM1MSMkMSMkMCMkODkkMzgxMzUxIzExIyQxIyQzIyQ3OSQzNjEyMjIjNTEjJDEjJDYjJDgz","name":"인제대학교부산백병원","clCd":"01","clCdNm":"상급종합","sidoCd":"210000","sidoCdNm":"부산","sgguCd":"210004","sgguCdNm":"부산진구","addr":"부산광역시 부산진구 복지로 75, 진사로83번길 75, 진사로83번길 81, 1층(일부), 3층 (개금동)","phone":"051-890-6114","hospUrl":"","estbDd":"19790601","drTotCnt":350,"mdeptSdrCnt":197,"lat":35.1461809,"lng":129.0208925},{"id":"JDQ4MTAxMiM1MSMkMSMkMCMkODkkMzgxMzUxIzExIyQxIyQzIyQ4MiQzNjEyMjIjNzEjJDEjJDgjJDgz","name":"구포성심병원","clCd":"11","clCdNm":"종합병원","sidoCd":"210000","sidoCdNm":"부산","sgguCd":"210005","sgguCdNm":"부산북구","addr":"부산광역시 북구 낙동대로 1786, (구포동)","phone":"051-330-2001","hospUrl":"","estbDd":"19830419","drTotCnt":31,"mdeptSdrCnt":30,"lat":35.2097133,"lng":129.0047235},{"id":"JDQ4MTAxMiM1MSMkMSMkMCMkODkkMzgxMzUxIzExIyQxIyQzIyQ3OSQ0NjE0ODEjNDEjJDEjJDQjJDgz","name":"대동병원","clCd":"11","clCdNm":"종합병원","sidoCd":"210000","sidoCdNm":"부산","sgguCd":"210003","sgguCdNm":"부산동래구","addr":"부산광역시 동래구 충렬대로 187, (명륜동)","phone":"051-554-1233","hospUrl":"http://www.ddh.co.kr/","estbDd":"19800221","drTotCnt":66,"mdeptSdrCnt":64,"lat":35.2042538,"lng":129.0802033},{"id":"JDQ4MTAxMiM1MSMkMSMkMCMkODkkMzgxMzUxIzExIyQxIyQzIyQ4MiQyNjEyMjIjNjEjJDEjJDAjJDgz","name":"동남권원자력의학원원자력병원","clCd":"11","clCdNm":"종합병원","sidoCd":"210000","sidoCdNm":"부산","sgguCd":"210100","sgguCdNm":"부산기장군","addr":"부산광역시 기장군 장안읍 좌동길 40, (장안읍)","phone":"051-720-5114","hospUrl":"http://www.dirams.re.kr","estbDd":"20100414","drTotCnt":64,"mdeptSdrCnt":60,"lat":35.3214002,"lng":129.2435492},{"id":"JDQ4MTAxMiM1MSMkMSMkMCMkODkkMzgxMzUxIzExIyQxIyQzIyQ3MiQyNjEwMDIjODEjJDEjJDYjJDgz","name":"동래봉생병원","clCd":"11","clCdNm":"종합병원","sidoCd":"210000","sidoCdNm":"부산","sgguCd":"210003","sgguCdNm":"부산동래구","addr":"부산광역시 동래구 안연로109번길 27, (안락동)","phone":"051-520-5500","hospUrl":"http://www.drbs.or.kr","estbDd":"19900601","drTotCnt":41,"mdeptSdrCnt":41,"lat":35.1969224,"lng":129.0961355},{"id":"JDQ4MTAxMiM1MSMkMSMkMCMkODkkMzgxMzUxIzExIyQxIyQzIyQ5OSQyNjE0ODEjODEjJDEjJDYjJDgz","name":"부산광역시의료원","clCd":"11","clCdNm":"종합병원","sidoCd":"210000","sidoCdNm":"부산","sgguCd":"210013","sgguCdNm":"부산연제구","addr":"부산광역시 연제구 월드컵대로 359, (거제동, 1동, 5동일부)","phone":"051-507-3000","hospUrl":"http://www.busanmc.or.kr","estbDd":"19820630","drTotCnt":72,"mdeptSdrCnt":57,"lat":35.1872821,"lng":129.0592351},{"id":"JDQ4MTAxMiM1MSMkMSMkMCMkODkkMzgxMzUxIzExIyQxIyQzIyQ3OSQzNjEwMDIjNjEjJDEjJDQjJDgz","name":"부산성모병원(재단법인 천주교부산교구유지재단)","clCd":"11","clCdNm":"종합병원","sidoCd":"210000","sidoCdNm":"부산","sgguCd":"210001","sgguCdNm":"부산남구","addr":"부산광역시 남구 용호로232번길 25-14, (용호동)","phone":"051-933-7114","hospUrl":"http://bsm.or.kr","estbDd":"20060602","drTotCnt":80,"mdeptSdrCnt":65,"lat":35.1104571,"lng":129.109125},{"id":"JDQ4MTAxMiM1MSMkMSMkMCMkODkkMzgxMzUxIzExIyQxIyQzIyQ3MiQzNjEwMDIjNDEjJDEjJDgjJDgz","name":"비에이치에스한서병원","clCd":"11","clCdNm":"종합병원","sidoCd":"210000","sidoCdNm":"부산","sgguCd":"210014","sgguCdNm":"부산수영구","addr":"부산광역시 수영구 수영로 615, (광안동)","phone":"051-756-0081","hospUrl":"http://www.hanseohospital.or.kr","estbDd":"19871102","drTotCnt":53,"mdeptSdrCnt":50,"lat":35.16088,"lng":129.1131037},{"id":"JDQ4MTAxMiM1MSMkMSMkMCMkODkkMzgxMzUxIzExIyQxIyQzIyQ4MiQ0NjEwMDIjNDEjJDEjJDgjJDgz","name":"빌리브세웅병원","clCd":"11","clCdNm":"종합병원","sidoCd":"210000","sidoCdNm":"부산","sgguCd":"210003","sgguCdNm":"부산동래구","addr":"부산광역시 동래구 충렬대로 455, (안락동)","phone":"051-500-1100","hospUrl":"https://believesewoong.co.kr/","estbDd":"20240318","drTotCnt":24,"mdeptSdrCnt":23,"lat":35.1960144,"lng":129.1082196},{"id":"JDQ4MTAxMiM1MSMkMSMkMCMkODkkMzgxMzUxIzExIyQxIyQzIyQ5OSQyNjEyMjIjNjEjJDEjJDQjJDgz","name":"삼육부산병원","clCd":"11","clCdNm":"종합병원","sidoCd":"210000","sidoCdNm":"부산","sgguCd":"210006","sgguCdNm":"부산서구","addr":"부산광역시 서구 대티로 170, (서대신동2가)","phone":"242-9751","hospUrl":"http://www.bah.kr","estbDd":"19740307","drTotCnt":54,"mdeptSdrCnt":47,"lat":35.1127675,"lng":129.0110653},{"id":"JDQ4MTAxMiM1MSMkMSMkMCMkODkkMzgxMzUxIzExIyQxIyQzIyQ3MiQyNjE4MzIjNjEjJDEjJDQjJDgz","name":"영도병원","clCd":"11","clCdNm":"종합병원","sidoCd":"210000","sidoCdNm":"부산","sgguCd":"210007","sgguCdNm":"부산영도구","addr":"부산광역시 영도구 태종로 85, (대교동2가)","phone":"051-414-8101","hospUrl":"http://www.ydh.co.kr","estbDd":"19960629","drTotCnt":31,"mdeptSdrCnt":30,"lat":35.0922416,"lng":129.0405236},{"id":"JDQ4MTAxMiM1MSMkMSMkMCMkODkkMzgxMzUxIzExIyQxIyQzIyQ2MiQzNjEwMDIjNjEjJDEjJDAjJDgz","name":"의료법인 광혜의료재단 광혜병원","clCd":"11","clCdNm":"종합병원","sidoCd":"210000","sidoCdNm":"부산","sgguCd":"210003","sgguCdNm":"부산동래구","addr":"부산광역시 동래구 충렬대로 96, (온천동, 광혜병원)","phone":"051-503-2111","hospUrl":"http://www.gwanghyehospital.com","estbDd":"19831207","drTotCnt":25,"mdeptSdrCnt":24,"lat":35.2070104,"lng":129.0711482},{"id":"JDQ4MTAxMiM1MSMkMSMkMCMkODkkMzgxMzUxIzExIyQxIyQzIyQ4MiQ0NjE0ODEjNTEjJDEjJDYjJDgz","name":"의료법인 센텀의료재단 센텀종합병원","clCd":"11","clCdNm":"종합병원","sidoCd":"210000","sidoCdNm":"부산","sgguCd":"210014","sgguCdNm":"부산수영구","addr":"부산광역시 수영구 수영로679번길 8, (광안동)","phone":"051-750-5000","hospUrl":"","estbDd":"20021202","drTotCnt":63,"mdeptSdrCnt":61,"lat":35.1668299,"lng":129.1144194},{"id":"JDQ4MTAxMiM1MSMkMSMkMCMkODkkMzgxMzUxIzExIyQxIyQzIyQ4MiQyNjEwMDIjNjEjJDEjJDgjJDgz","name":"의료법인 온그룹의료재단 온병원","clCd":"11","clCdNm":"종합병원","sidoCd":"210000","sidoCdNm":"부산","sgguCd":"210004","sgguCdNm":"부산진구","addr":"부산광역시 부산진구 가야대로 719, ,767,721,본관 지하3~11층 전부,12층 일부,13~14층 전부,15층 일부,신관 1층, 9층 일부 (당감동)","phone":"051-607-0114","hospUrl":"http://www.onhospital.org","estbDd":"20100226","drTotCnt":75,"mdeptSdrCnt":72,"lat":35.1574359,"lng":129.0504284},{"id":"JDQ4MTAxMiM1MSMkMSMkMCMkODkkMzgxMzUxIzExIyQxIyQzIyQ3MiQ0NjE0ODEjNjEjJDEjJDgjJDgz","name":"의료법인 은성의료재단 좋은강안병원","clCd":"11","clCdNm":"종합병원","sidoCd":"210000","sidoCdNm":"부산","sgguCd":"210014","sgguCdNm":"부산수영구","addr":"부산광역시 수영구 수영로 493, (남천동)","phone":"051-625-0900","hospUrl":"http://gang-an.or.kr/index.php","estbDd":"20050223","drTotCnt":94,"mdeptSdrCnt":91,"lat":35.1500685,"lng":129.1106218},{"id":"JDQ4MTAxMiM1MSMkMSMkMCMkODkkMzgxMzUxIzExIyQxIyQzIyQ3MiQyNjE0ODEjNDEjJDEjJDgjJDgz","name":"의료법인 은성의료재단 좋은삼선병원","clCd":"11","clCdNm":"종합병원","sidoCd":"210000","sidoCdNm":"부산","sgguCd":"210015","sgguCdNm":"부산사상구","addr":"부산광역시 사상구 가야대로 326, 좋은삼선병원 (주례동)","phone":"051-322-0900","hospUrl":"http://www.samsun.or.kr","estbDd":"19950330","drTotCnt":80,"mdeptSdrCnt":71,"lat":35.150416,"lng":129.0082463},{"id":"JDQ4MTAxMiM1MSMkMSMkMCMkODkkMzgxMzUxIzExIyQxIyQzIyQ4MiQyNjE4MzIjNTEjJDEjJDIjJDgz","name":"의료법인 인당의료재단 부민병원","clCd":"11","clCdNm":"종합병원","sidoCd":"210000","sidoCdNm":"부산","sgguCd":"210005","sgguCdNm":"부산북구","addr":"부산광역시 북구 만덕대로 59, (덕천동)","phone":"051-330-3000","hospUrl":"www.bumin.co.kr/busan/","estbDd":"20030102","drTotCnt":70,"mdeptSdrCnt":64,"lat":35.2119276,"lng":129.0112115},{"id":"JDQ4MTAxMiM1MSMkMSMkMCMkODkkMzgxMzUxIzExIyQxIyQzIyQ4MiQzNjE0ODEjNDEjJDEjJDgjJDgz","name":"의료법인 인당의료재단 해운대부민병원","clCd":"11","clCdNm":"종합병원","sidoCd":"210000","sidoCdNm":"부산","sgguCd":"210009","sgguCdNm":"부산해운대구","addr":"부산광역시 해운대구 해운대로 584, 해운대 부민병원 지하4~지상13층 (우동)","phone":"602-8000","hospUrl":"","estbDd":"20150709","drTotCnt":64,"mdeptSdrCnt":63,"lat":35.1614208,"lng":129.1556545},{"id":"JDQ4MTAxMiM1MSMkMSMkMCMkODkkMzgxMzUxIzExIyQxIyQzIyQ4MiQzNjE4MzIjNjEjJDEjJDQjJDgz","name":"의료법인 행도의료재단 해동병원","clCd":"11","clCdNm":"종합병원","sidoCd":"210000","sidoCdNm":"부산","sgguCd":"210007","sgguCdNm":"부산영도구","addr":"부산광역시 영도구 태종로 133, (봉래동3가)","phone":"051-412-6161","hospUrl":"","estbDd":"19840705","drTotCnt":22,"mdeptSdrCnt":22,"lat":35.0919442,"lng":129.043866},{"id":"JDQ4MTAxMiM1MSMkMSMkMCMkODkkMzgxMzUxIzExIyQxIyQzIyQ2MiQzNjEyMjIjNTEjJDEjJDIjJDgz","name":"의료법인정화의료재단 봉생기념병원","clCd":"11","clCdNm":"종합병원","sidoCd":"210000","sidoCdNm":"부산","sgguCd":"210002","sgguCdNm":"부산동구","addr":"부산광역시 동구 중앙대로 401, (좌천동, 봉생병원)","phone":"051-664-4000","hospUrl":"http://www.bongseng.co.kr/index.asp","estbDd":"19850105","drTotCnt":66,"mdeptSdrCnt":58,"lat":35.1310265,"lng":129.0501907},{"id":"JDQ4MTAxMiM1MSMkMSMkMCMkODkkMzgxMzUxIzExIyQxIyQzIyQ4MiQyNjE0ODEjODEjJDEjJDIjJDgz","name":"인제대학교 해운대백병원","clCd":"11","clCdNm":"종합병원","sidoCd":"210000","sidoCdNm":"부산","sgguCd":"210009","sgguCdNm":"부산해운대구","addr":"부산광역시 해운대구 해운대로 875, (좌동)","phone":"051-797-0100","hospUrl":"http://www.paik.ac.kr/haeundae/","estbDd":"20100210","drTotCnt":366,"mdeptSdrCnt":245,"lat":35.173443,"lng":129.182013},{"id":"JDQ4MTAxMiM1MSMkMSMkMCMkODkkMzgxMzUxIzExIyQyIyQzIyQwMCQyNjE0ODEjNjEjJDEjJDgjJDgz","name":"재단법인일신기독교선교회 일신기독병원","clCd":"11","clCdNm":"종합병원","sidoCd":"210000","sidoCdNm":"부산","sgguCd":"210002","sgguCdNm":"부산동구","addr":"부산광역시 동구 정공단로 27, (좌천동)","phone":"051-630-0300","hospUrl":"http://www.ilsin.or.kr","estbDd":"19840702","drTotCnt":31,"mdeptSdrCnt":31,"lat":35.135783,"lng":129.0543811},{"id":"JDQ4MTAxMiM1MSMkMSMkMCMkODkkMzgxMzUxIzExIyQxIyQzIyQ3OSQyNjEwMDIjNTEjJDEjJDIjJDgz","name":"재단법인천주교부산교구유지재단 메리놀병원","clCd":"11","clCdNm":"종합병원","sidoCd":"210000","sidoCdNm":"부산","sgguCd":"210008","sgguCdNm":"부산중구","addr":"부산광역시 중구 중구로 121, (대청동4가)","phone":"051-465-8801","hospUrl":"http://www.maryknoll.co.kr","estbDd":"19740430","drTotCnt":78,"mdeptSdrCnt":58,"lat":35.1076838,"lng":129.0324148},{"id":"JDQ4MTAxMiM1MSMkMSMkMCMkODkkMzgxMzUxIzExIyQxIyQzIyQ3MiQzNjE0ODEjNTEjJDEjJDYjJDgz","name":"좋은문화병원","clCd":"11","clCdNm":"종합병원","sidoCd":"210000","sidoCdNm":"부산","sgguCd":"210002","sgguCdNm":"부산동구","addr":"부산광역시 동구 범일로 119, (범일동)","phone":"051-644-2002","hospUrl":"http://www.moonhwa.or.kr/","estbDd":"19861101","drTotCnt":75,"mdeptSdrCnt":73,"lat":35.1408881,"lng":129.0590919},{"id":"JDQ4MTAxMiM1MSMkMSMkMCMkODkkMzgxMzUxIzExIyQxIyQzIyQ5OSQzNjEyMjIjODEjJDEjJDIjJDgz","name":"학교법인 춘해병원","clCd":"11","clCdNm":"종합병원","sidoCd":"210000","sidoCdNm":"부산","sgguCd":"210004","sgguCdNm":"부산진구","addr":"부산광역시 부산진구 중앙대로 605, 지상1층~지상9층 (범천동)","phone":"051-638-8000","hospUrl":"http://www.choonhae.or.kr/","estbDd":"19740226","drTotCnt":24,"mdeptSdrCnt":24,"lat":35.1469602,"lng":129.0583786},{"id":"JDQ4MTAxMiM1MSMkMSMkMCMkODkkMzgxMzUxIzExIyQxIyQzIyQ2MiQyNjEwMDIjNDEjJDEjJDgjJDgz","name":"학교법인)동의병원","clCd":"11","clCdNm":"종합병원","sidoCd":"210000","sidoCdNm":"부산","sgguCd":"210004","sgguCdNm":"부산진구","addr":"부산광역시 부산진구 양정로 62, 지상2ㆍ3ㆍ10층 각 일부/ 지하1ㆍ지상1ㆍ지상4~지상8층 전층 (양정동)","phone":"051-867-5101","hospUrl":"http://www.demc.kr/","estbDd":"19900421","drTotCnt":73,"mdeptSdrCnt":64,"lat":35.1698202,"lng":129.076514},{"id":"JDQ4MTAxMiM1MSMkMSMkMCMkODkkMzgxMzUxIzExIyQxIyQzIyQ5OSQ0NjEwMDIjNTEjJDEjJDIjJDgz","name":"한국보훈복지의료공단 부산보훈병원","clCd":"11","clCdNm":"종합병원","sidoCd":"210000","sidoCdNm":"부산","sgguCd":"210015","sgguCdNm":"부산사상구","addr":"부산광역시 사상구 백양대로 420, (주례동)","phone":"051-601-6000","hospUrl":"http://busan.bohun.or.kr","estbDd":"19920511","drTotCnt":70,"mdeptSdrCnt":54,"lat":35.1533821,"lng":129.006575},{"id":"JDQ4MTAxMiM1MSMkMSMkMCMkOTkkMzgxMzUxIzExIyQxIyQ3IyQ3MiQzNjEyMjIjNDEjJDEjJDgjJDgz","name":"(의)서일의료재단기장병원","clCd":"21","clCdNm":"병원","sidoCd":"210000","sidoCdNm":"부산","sgguCd":"210100","sgguCdNm":"부산기장군","addr":"부산광역시 기장군 기장읍 대청로72번길 6-6, 6","phone":"051-723-0171","hospUrl":"http://www.gjhp.kr/","estbDd":"19970503","drTotCnt":15,"mdeptSdrCnt":13,"lat":35.2357991,"lng":129.2169211},{"id":"JDQ4MTAxMiM1MSMkMSMkMCMkOTkkMzgxMzUxIzIxIyQxIyQ5IyQ4OSQzNjEyMjIjNDEjJDEjJDgjJDgz","name":"(재)일신기독교선교회 정관일신기독병원","clCd":"21","clCdNm":"병원","sidoCd":"210000","sidoCdNm":"부산","sgguCd":"210100","sgguCdNm":"부산기장군","addr":"부산광역시 기장군 정관읍 정관6로 31, 3-8, 10층","phone":"051-780-0600","hospUrl":"","estbDd":"20180329","drTotCnt":14,"mdeptSdrCnt":13,"lat":35.3197034,"lng":129.1774513},{"id":"JDQ4MTAxMiM1MSMkMSMkMCMkOTkkMzgxMzUxIzIxIyQxIyQ1IyQxMyQyNjE4MzIjODEjJDEjJDIjJDgz","name":"365엠씨병원","clCd":"21","clCdNm":"병원","sidoCd":"210000","sidoCdNm":"부산","sgguCd":"210004","sgguCdNm":"부산진구","addr":"부산광역시 부산진구 서면로 74, (부전동, 아이온시티빌딩)","phone":"051-809-3655","hospUrl":"","estbDd":"20161005","drTotCnt":9,"mdeptSdrCnt":6,"lat":35.1570677,"lng":129.0581339},{"id":"JDQ4MTAxMiM1MSMkMSMkMCMkOTkkMzgxMzUxIzExIyQxIyQ3IyQ3OSQzNjEwMDIjNjEjJDEjJDgjJDgz","name":"강동병원","clCd":"21","clCdNm":"병원","sidoCd":"210000","sidoCdNm":"부산","sgguCd":"210010","sgguCdNm":"부산사하구","addr":"부산광역시 사하구 다대로 145, (신평동)","phone":"051-292-1940","hospUrl":"","estbDd":"19930430","drTotCnt":6,"mdeptSdrCnt":6,"lat":35.0896572,"lng":128.9782847},{"id":"JDQ4MTAxMiM1MSMkMSMkMCMkOTkkMzgxMzUxIzIxIyQxIyQ1IyQ3OSQzNjEyMjIjNzEjJDEjJDgjJDgz","name":"개나리소아청소년과병원","clCd":"21","clCdNm":"병원","sidoCd":"210000","sidoCdNm":"부산","sgguCd":"210012","sgguCdNm":"부산강서구","addr":"부산광역시 강서구 명지국제8로 269, 유당빌딩 4~5층 (명지동)","phone":"051-202-1113","hospUrl":"http://www.gaenari.co.kr/","estbDd":"20190919","drTotCnt":1,"mdeptSdrCnt":1,"lat":35.0981159,"lng":128.92243},{"id":"JDQ4MTAxMiM1MSMkMSMkMCMkOTkkMzgxMzUxIzIxIyQxIyQ5IyQ4MiQzNjEwMDIjODEjJDEjJDYjJDgz","name":"거인병원","clCd":"21","clCdNm":"병원","sidoCd":"210000","sidoCdNm":"부산","sgguCd":"210003","sgguCdNm":"부산동래구","addr":"부산광역시 동래구 여고로 12, 거인병원 지하1,지상2~10층 (사직동)","phone":"996-7000","hospUrl":"","estbDd":"20221104","drTotCnt":10,"mdeptSdrCnt":10,"lat":35.1946237,"lng":129.0653569},{"id":"JDQ4MTAxMiM1MSMkMSMkMCMkOTkkMzgxMzUxIzIxIyQxIyQ5IyQwMyQzNjEwMDIjNTEjJDEjJDYjJDgz","name":"건강만세365병원","clCd":"21","clCdNm":"병원","sidoCd":"210000","sidoCdNm":"부산","sgguCd":"210008","sgguCdNm":"부산중구","addr":"부산광역시 중구 대청로 105, 건강만세365병원 -1,1~9층 (대청동2가)","phone":"051-711-0365","hospUrl":"","estbDd":"20200103","drTotCnt":10,"mdeptSdrCnt":9,"lat":35.1031753,"lng":129.0313991},{"id":"JDQ4MTAxMiM1MSMkMSMkMCMkOTkkMzgxMzUxIzExIyQxIyQ3IyQ5OSQzNjE0ODEjNTEjJDEjJDIjJDgz","name":"경희병원","clCd":"21","clCdNm":"병원","sidoCd":"210000","sidoCdNm":"부산","sgguCd":"210010","sgguCdNm":"부산사하구","addr":"부산광역시 사하구 다대로 321, (장림동)","phone":"051-265-7575","hospUrl":"","estbDd":"19940630","drTotCnt":6,"mdeptSdrCnt":6,"lat":35.0735355,"lng":128.9768377},{"id":"JDQ4MTAxMiM1MSMkMSMkMCMkOTkkMzgxMzUxIzIxIyQxIyQ5IyQ5OSQzNjEwMDIjNDEjJDEjJDQjJDgz","name":"광안자모병원","clCd":"21","clCdNm":"병원","sidoCd":"210000","sidoCdNm":"부산","sgguCd":"210014","sgguCdNm":"부산수영구","addr":"부산광역시 수영구 수영로 555, (광안동)","phone":"051-760-0600","hospUrl":"","estbDd":"19950313","drTotCnt":14,"mdeptSdrCnt":14,"lat":35.1553451,"lng":129.1121443},{"id":"JDQ4MTAxMiM1MSMkMSMkMCMkOTkkMzgxMzUxIzIxIyQxIyQ5IyQwMyQzNjE0ODEjNjEjJDEjJDQjJDgz","name":"굳건병원","clCd":"21","clCdNm":"병원","sidoCd":"210000","sidoCdNm":"부산","sgguCd":"210010","sgguCdNm":"부산사하구","addr":"부산광역시 사하구 낙동대로 446, 지하2층 일부, 1층 일부, 2~4층 전부, 6층 일부 (당리동)","phone":"051-991-1119","hospUrl":"","estbDd":"20241018","drTotCnt":6,"mdeptSdrCnt":6,"lat":35.1051957,"lng":128.9700969},{"id":"JDQ4MTAxMiM1MSMkMSMkMCMkOTkkMzgxMzUxIzIxIyQxIyQ1IyQ3OSQyNjEwMDIjNjEjJDEjJDgjJDgz","name":"김&정해운대병원","clCd":"21","clCdNm":"병원","sidoCd":"210000","sidoCdNm":"부산","sgguCd":"210009","sgguCdNm":"부산해운대구","addr":"부산광역시 해운대구 좌동로 88, 8층 (좌동, 울트라타워)","phone":"051-702-7017","hospUrl":"","estbDd":"20110105","drTotCnt":2,"mdeptSdrCnt":2,"lat":35.1719523,"lng":129.174951},{"id":"JDQ4MTAxMiM1MSMkMSMkMCMkOTkkMzgxMzUxIzIxIyQxIyQ5IyQ5OSQzNjEyMjIjODEjJDEjJDIjJDgz","name":"나르샤병원","clCd":"21","clCdNm":"병원","sidoCd":"210000","sidoCdNm":"부산","sgguCd":"210003","sgguCdNm":"부산동래구","addr":"부산광역시 동래구 중앙대로1493번길 6, (온천동)","phone":"051-715-7878","hospUrl":"","estbDd":"20181001","drTotCnt":5,"mdeptSdrCnt":5,"lat":35.2190565,"lng":129.0845992},{"id":"JDQ4MTAxMiM1MSMkMSMkMCMkOTkkMzgxMzUxIzIxIyQyIyQ5IyQwMCQzNjEyMjIjNjEjJDEjJDQjJDgz","name":"단골병원","clCd":"21","clCdNm":"병원","sidoCd":"210000","sidoCdNm":"부산","sgguCd":"210011","sgguCdNm":"부산금정구","addr":"부산광역시 금정구 중앙대로 1829, 5~10, 14층 12~13층 일부호 (구서동)","phone":"051-582-0100","hospUrl":"","estbDd":"20191119","drTotCnt":6,"mdeptSdrCnt":6,"lat":35.2476664,"lng":129.0919619},{"id":"JDQ4MTAxMiM1MSMkMSMkMCMkOTkkMzgxMzUxIzIxIyQxIyQ5IyQxMyQzNjEyMjIjODEjJDEjJDYjJDgz","name":"더케이부산병원","clCd":"21","clCdNm":"병원","sidoCd":"210000","sidoCdNm":"부산","sgguCd":"210011","sgguCdNm":"부산금정구","addr":"부산광역시 금정구 금정로 244, 2~5층 (구서동)","phone":"051-967-5225","hospUrl":"","estbDd":"20210329","drTotCnt":3,"mdeptSdrCnt":3,"lat":35.2451279,"lng":129.0922156},{"id":"JDQ4MTAxMiM1MSMkMSMkMCMkOTkkMzgxMzUxIzIxIyQxIyQ5IyQ4MiQyNjE0ODEjODEjJDEjJDIjJDgz","name":"더탄탄병원","clCd":"21","clCdNm":"병원","sidoCd":"210000","sidoCdNm":"부산","sgguCd":"210010","sgguCdNm":"부산사하구","addr":"부산광역시 사하구 사하로 189, 1층(일부),2~4층 (괴정동, 괴정어반푸르지오)","phone":"051-961-1000","hospUrl":"","estbDd":"20220617","drTotCnt":7,"mdeptSdrCnt":7,"lat":35.0984657,"lng":128.9933657},{"id":"JDQ4MTAxMiM1MSMkMSMkMCMkOTkkMzgxMzUxIzIxIyQyIyQ5IyQwMCQzNjEwMDIjNzEjJDEjJDgjJDgz","name":"더희망찬병원","clCd":"21","clCdNm":"병원","sidoCd":"210000","sidoCdNm":"부산","sgguCd":"210011","sgguCdNm":"부산금정구","addr":"부산광역시 금정구 부곡로 130, (부곡동)","phone":"051-255-0200","hospUrl":"","estbDd":"20160415","drTotCnt":3,"mdeptSdrCnt":3,"lat":35.2274554,"lng":129.0923006},{"id":"JDQ4MTAxMiM1MSMkMSMkMCMkOTkkMzgxMzUxIzIxIyQyIyQ1IyQwMCQ0NjE0ODEjNjEjJDEjJDQjJDgz","name":"동래성모병원","clCd":"21","clCdNm":"병원","sidoCd":"210000","sidoCdNm":"부산","sgguCd":"210003","sgguCdNm":"부산동래구","addr":"부산광역시 동래구 충렬대로 188, (명륜동)","phone":"051-559-8888","hospUrl":"","estbDd":"20121011","drTotCnt":2,"mdeptSdrCnt":2,"lat":35.2032587,"lng":129.0801814},{"id":"JDQ4MTAxMiM1MSMkMSMkMCMkOTkkMzgxMzUxIzIxIyQxIyQ5IyQ3OSQzNjE0ODEjNzEjJDEjJDgjJDgz","name":"동래아동병원","clCd":"21","clCdNm":"병원","sidoCd":"210000","sidoCdNm":"부산","sgguCd":"210003","sgguCdNm":"부산동래구","addr":"부산광역시 동래구 충렬대로 384, (안락동)","phone":"715-0500","hospUrl":"","estbDd":"20130904","drTotCnt":3,"mdeptSdrCnt":3,"lat":35.1970495,"lng":129.1002145},{"id":"JDQ4MTAxMiM1MSMkMSMkMCMkOTkkMzgxMzUxIzIxIyQxIyQ5IyQ5MiQyNjE0ODEjNjEjJDEjJDQjJDgz","name":"동아대학교대신병원","clCd":"21","clCdNm":"병원","sidoCd":"210000","sidoCdNm":"부산","sgguCd":"210006","sgguCdNm":"부산서구","addr":"부산광역시 서구 대신공원로 26, 동아대학교병원 (동대신동3가)","phone":"051-960-0100","hospUrl":"http://www.daudh.or.kr/","estbDd":"20190327","drTotCnt":7,"mdeptSdrCnt":7,"lat":35.1201682,"lng":129.0175391},{"id":"JDQ4MTAxMiM1MSMkMSMkMCMkOTkkMzgxMzUxIzIxIyQyIyQ5IyQwMCQyNjE4MzIjNDEjJDEjJDgjJDgz","name":"리스본병원","clCd":"21","clCdNm":"병원","sidoCd":"210000","sidoCdNm":"부산","sgguCd":"210013","sgguCdNm":"부산연제구","addr":"부산광역시 연제구 중앙대로 1090, 프라임시티 9~11, 13층 일부호 (연산동)","phone":"051-710-1900","hospUrl":"","estbDd":"20140828","drTotCnt":3,"mdeptSdrCnt":3,"lat":35.184791,"lng":129.0810539},{"id":"JDQ4MTAxMiM1MSMkMSMkMCMkOTkkMzgxMzUxIzExIyQxIyQ3IyQ3OSQyNjEyMjIjNDEjJDEjJDgjJDgz","name":"메드윌병원","clCd":"21","clCdNm":"병원","sidoCd":"210000","sidoCdNm":"부산","sgguCd":"210011","sgguCdNm":"부산금정구","addr":"부산광역시 금정구 중앙대로 1951, (구서동, 메드월병원)","phone":"051-519-8000","hospUrl":"http://www.medwill.co.kr","estbDd":"20090827","drTotCnt":5,"mdeptSdrCnt":5,"lat":35.2585111,"lng":129.0909617},{"id":"JDQ4MTAxMiM1MSMkMSMkMCMkOTkkMzgxMzUxIzIxIyQxIyQxIyQ5MiQyNjE0ODEjNTEjJDEjJDIjJDgz","name":"메트로적추병원","clCd":"21","clCdNm":"병원","sidoCd":"210000","sidoCdNm":"부산","sgguCd":"210014","sgguCdNm":"부산수영구","addr":"부산광역시 수영구 수영로 390-1, (남천동)","phone":"051-626-0250","hospUrl":"http://www.disc-korea.com/","estbDd":"20090519","drTotCnt":4,"mdeptSdrCnt":4,"lat":35.141148,"lng":129.1075375},{"id":"JDQ4MTAxMiM1MSMkMSMkMCMkOTkkMzgxMzUxIzIxIyQxIyQ5IyQ4MiQ0NjE0ODEjNTEjJDEjJDYjJDgz","name":"명지아동병원","clCd":"21","clCdNm":"병원","sidoCd":"210000","sidoCdNm":"부산","sgguCd":"210012","sgguCdNm":"부산강서구","addr":"부산광역시 강서구 명지국제8로 240, 402,501,601호 (명지동, 국제메디칼빌딩)","phone":"051-717-0230","hospUrl":"","estbDd":"20160627","drTotCnt":4,"mdeptSdrCnt":4,"lat":35.0978297,"lng":128.9188877},{"id":"JDQ4MTAxMiM1MSMkMSMkMCMkOTkkMzgxMzUxIzIxIyQxIyQ5IyQxMyQzNjE0ODEjNTEjJDEjJDIjJDgz","name":"명지오션척병원","clCd":"21","clCdNm":"병원","sidoCd":"210000","sidoCdNm":"부산","sgguCd":"210012","sgguCdNm":"부산강서구","addr":"부산광역시 강서구 명지오션시티4로 88, 3~7층 (명지동)","phone":"051-710-8899","hospUrl":"","estbDd":"20200716","drTotCnt":5,"mdeptSdrCnt":4,"lat":35.0811721,"lng":128.9032539},{"id":"JDQ4MTAxMiM1MSMkMSMkMCMkOTkkMzgxMzUxIzIxIyQxIyQ5IyQwMyQyNjEyMjIjODEjJDEjJDYjJDgz","name":"목화병원","clCd":"21","clCdNm":"병원","sidoCd":"210000","sidoCdNm":"부산","sgguCd":"210004","sgguCdNm":"부산진구","addr":"부산광역시 부산진구 거제대로36번길 27, 1층(일부), 2~6층, 7층(일부) (양정동)","phone":"051-865-1221","hospUrl":"","estbDd":"20120404","drTotCnt":4,"mdeptSdrCnt":4,"lat":35.1719361,"lng":129.0691505},{"id":"JDQ4MTAxMiM1MSMkMSMkMCMkOTkkMzgxMzUxIzIxIyQxIyQxIyQ4OSQyNjE4MzIjNTEjJDEjJDYjJDgz","name":"미래로병원","clCd":"21","clCdNm":"병원","sidoCd":"210000","sidoCdNm":"부산","sgguCd":"210005","sgguCdNm":"부산북구","addr":"부산광역시 북구 금곡대로 15, (덕천동)","phone":"051-330-5000","hospUrl":"http://www.mrro.co.kr","estbDd":"20060601","drTotCnt":17,"mdeptSdrCnt":17,"lat":35.2113115,"lng":129.004449},{"id":"JDQ4MTAxMiM1MSMkMSMkMCMkOTkkMzgxMzUxIzIxIyQxIyQxIyQ4MiQyNjEyMjIjNDEjJDEjJDgjJDgz","name":"미래병원","clCd":"21","clCdNm":"병원","sidoCd":"210000","sidoCdNm":"부산","sgguCd":"210003","sgguCdNm":"부산동래구","addr":"부산광역시 동래구 충렬대로 358, (안락동)","phone":"051-523-3200","hospUrl":"http://www.miraehos.co.kr","estbDd":"20090114","drTotCnt":8,"mdeptSdrCnt":8,"lat":35.1977612,"lng":129.0975758},{"id":"JDQ4MTAxMiM1MSMkMSMkMCMkOTkkMzgxMzUxIzIxIyQxIyQxIyQ4MiQzNjEyMjIjNjEjJDEjJDAjJDgz","name":"미래아이병원","clCd":"21","clCdNm":"병원","sidoCd":"210000","sidoCdNm":"부산","sgguCd":"210010","sgguCdNm":"부산사하구","addr":"부산광역시 사하구 낙동남로 1388, (하단동)","phone":"051-200-9999","hospUrl":"www.miraeihospital.kr/","estbDd":"20090212","drTotCnt":10,"mdeptSdrCnt":10,"lat":35.1058718,"lng":128.9634824},{"id":"JDQ4MTAxMiM1MSMkMSMkMCMkOTkkMzgxMzUxIzIxIyQxIyQ5IyQ5OSQzNjE0ODEjNDEjJDEjJDgjJDgz","name":"미래어린이병원","clCd":"21","clCdNm":"병원","sidoCd":"210000","sidoCdNm":"부산","sgguCd":"210015","sgguCdNm":"부산사상구","addr":"부산광역시 사상구 낙동대로 790, 3,4,7층(엄궁동,신우프라자) (엄궁동)","phone":"051-313-1717","hospUrl":"","estbDd":"20110302","drTotCnt":2,"mdeptSdrCnt":1,"lat":35.1310308,"lng":128.972435},{"id":"JDQ4MTAxMiM1MSMkMSMkMCMkOTkkMzgxMzUxIzIxIyQxIyQ1IyQ3MiQyNjEyMjIjNDEjJDEjJDgjJDgz","name":"미래여성병원","clCd":"21","clCdNm":"병원","sidoCd":"210000","sidoCdNm":"부산","sgguCd":"210004","sgguCdNm":"부산진구","addr":"부산광역시 부산진구 가야대로 459, 지하2~지상10층 (개금동)","phone":"051-890-9999","hospUrl":"","estbDd":"20140210","drTotCnt":11,"mdeptSdrCnt":11,"lat":35.153604,"lng":129.0223781},{"id":"JDQ4MTAxMiM1MSMkMSMkMCMkOTkkMzgxMzUxIzIxIyQxIyQ5IyQ5MiQyNjE4MzIjNDEjJDEjJDQjJDgz","name":"바로서면병원","clCd":"21","clCdNm":"병원","sidoCd":"210000","sidoCdNm":"부산","sgguCd":"210004","sgguCdNm":"부산진구","addr":"부산광역시 부산진구 중앙대로 777, 4, 5, 6, 7층 (부전동)","phone":"051-711-8540","hospUrl":"","estbDd":"20230605","drTotCnt":7,"mdeptSdrCnt":7,"lat":35.1618574,"lng":129.0618849},{"id":"JDQ4MTAxMiM1MSMkMSMkMCMkOTkkMzgxMzUxIzIxIyQxIyQ5IyQxMyQyNjE4MzIjNjEjJDEjJDAjJDgz","name":"바른길병원","clCd":"21","clCdNm":"병원","sidoCd":"210000","sidoCdNm":"부산","sgguCd":"210009","sgguCdNm":"부산해운대구","addr":"부산광역시 해운대구 선수촌로 144, (반여동)","phone":"051-525-0058","hospUrl":"","estbDd":"20080717","drTotCnt":4,"mdeptSdrCnt":4,"lat":35.2059254,"lng":129.1217477},{"id":"JDQ4MTAxMiM1MSMkMSMkMCMkOTkkMzgxMzUxIzIxIyQxIyQ5IyQ4OSQzNjEwMDIjNTEjJDEjJDIjJDgz","name":"바른병원","clCd":"21","clCdNm":"병원","sidoCd":"210000","sidoCdNm":"부산","sgguCd":"210006","sgguCdNm":"부산서구","addr":"부산광역시 서구 보수대로 9, 4~12층 (충무동1가)","phone":"247-0119","hospUrl":"","estbDd":"20150908","drTotCnt":10,"mdeptSdrCnt":10,"lat":35.0976617,"lng":129.0249139},{"id":"JDQ4MTAxMiM1MSMkMSMkMCMkOTkkMzgxMzUxIzIxIyQxIyQ1IyQ5OSQzNjE4MzIjNDEjJDEjJDQjJDgz","name":"박원욱병원","clCd":"21","clCdNm":"병원","sidoCd":"210000","sidoCdNm":"부산","sgguCd":"210014","sgguCdNm":"부산수영구","addr":"부산광역시 수영구 광안로 4, 지하1층,지상5~8층 (광안동, 에스케이뷰상가)","phone":"1544-7582","hospUrl":"http://www.parkspine.co.kr","estbDd":"20111214","drTotCnt":6,"mdeptSdrCnt":6,"lat":35.1569388,"lng":129.1133756},{"id":"JDQ4MTAxMiM1MSMkMSMkMCMkOTkkMzgxMzUxIzIxIyQxIyQ5IyQ3OSQyNjE0ODEjNjEjJDEjJDAjJDgz","name":"밝은눈안과병원","clCd":"21","clCdNm":"병원","sidoCd":"210000","sidoCdNm":"부산","sgguCd":"210004","sgguCdNm":"부산진구","addr":"부산광역시 부산진구 가야대로 729, (부암동)","phone":"051-1670-3993","hospUrl":"","estbDd":"20170403","drTotCnt":9,"mdeptSdrCnt":9,"lat":35.1579106,"lng":129.0513538},{"id":"JDQ4MTAxMiM1MSMkMSMkMCMkOTkkMzgxMzUxIzIxIyQxIyQ5IyQ5MiQzNjE4MzIjNTEjJDEjJDIjJDgz","name":"베테랑병원","clCd":"21","clCdNm":"병원","sidoCd":"210000","sidoCdNm":"부산","sgguCd":"210013","sgguCdNm":"부산연제구","addr":"부산광역시 연제구 중앙대로 1098, 7~11층 (연산동)","phone":"051-989-7575","hospUrl":"","estbDd":"20240202","drTotCnt":6,"mdeptSdrCnt":6,"lat":35.1852745,"lng":129.0815241},{"id":"JDQ4MTAxMiM1MSMkMSMkMCMkOTkkMzgxMzUxIzIxIyQxIyQ1IyQwMyQ0NjE0ODEjNDEjJDEjJDgjJDgz","name":"부산더키즈병원","clCd":"21","clCdNm":"병원","sidoCd":"210000","sidoCdNm":"부산","sgguCd":"210010","sgguCdNm":"부산사하구","addr":"부산광역시 사하구 다대로 234, 5,6,8,9층 (장림동)","phone":"051-711-6000","hospUrl":"","estbDd":"20230220","drTotCnt":5,"mdeptSdrCnt":5,"lat":35.0815768,"lng":128.9769323},{"id":"JDQ4MTAxMiM1MSMkMSMkMCMkOTkkMzgxMzUxIzIxIyQxIyQ1IyQ2MiQyNjE0ODEjNzEjJDEjJDgjJDgz","name":"부산마이크로병원","clCd":"21","clCdNm":"병원","sidoCd":"210000","sidoCdNm":"부산","sgguCd":"210011","sgguCdNm":"부산금정구","addr":"부산광역시 금정구 중앙대로 1875, (구서동)","phone":"051-514-1400","hospUrl":"","estbDd":"20130125","drTotCnt":4,"mdeptSdrCnt":4,"lat":35.251732,"lng":129.0910163},{"id":"JDQ4MTAxMiM1MSMkMSMkMCMkOTkkMzgxMzUxIzIxIyQxIyQxIyQxMyQyNjE0ODEjNzEjJDEjJDgjJDgz","name":"부산맘아동병원","clCd":"21","clCdNm":"병원","sidoCd":"210000","sidoCdNm":"부산","sgguCd":"210010","sgguCdNm":"부산사하구","addr":"부산광역시 사하구 낙동대로 451, 금동빌딩 2,4,5-8층 (하단동)","phone":"051-271-8275","hospUrl":"","estbDd":"20100604","drTotCnt":5,"mdeptSdrCnt":5,"lat":35.1050515,"lng":128.9689973},{"id":"JDQ4MTAxMiM1MSMkMSMkMCMkOTkkMzgxMzUxIzIxIyQyIyQ1IyQwMCQzNjE4MzIjNzEjJDEjJDgjJDgz","name":"부산미남병원","clCd":"21","clCdNm":"병원","sidoCd":"210000","sidoCdNm":"부산","sgguCd":"210003","sgguCdNm":"부산동래구","addr":"부산광역시 동래구 아시아드대로 213, 류엔미즈메디컬 (온천동)","phone":"051-501-8288","hospUrl":"https://minamhospital.com/","estbDd":"20220819","drTotCnt":9,"mdeptSdrCnt":9,"lat":35.203321,"lng":129.0661443},{"id":"JDQ4MTAxMiM1MSMkMSMkMCMkOTkkMzgxMzUxIzIxIyQxIyQxIyQ3MiQ0NjEwMDIjNDEjJDEjJDgjJDgz","name":"부산본병원","clCd":"21","clCdNm":"병원","sidoCd":"210000","sidoCdNm":"부산","sgguCd":"210010","sgguCdNm":"부산사하구","addr":"부산광역시 사하구 승학로 8, (당리동)","phone":"051-1599-8275","hospUrl":"http://www.bonhospital.co.kr/","estbDd":"20081126","drTotCnt":16,"mdeptSdrCnt":16,"lat":35.1062804,"lng":128.9698235},{"id":"JDQ4MTAxMiM1MSMkMSMkMCMkOTkkMzgxMzUxIzExIyQxIyQzIyQxMyQ0NjE0ODEjNDEjJDEjJDQjJDgz","name":"부산성모안과병원","clCd":"21","clCdNm":"병원","sidoCd":"210000","sidoCdNm":"부산","sgguCd":"210009","sgguCdNm":"부산해운대구","addr":"부산광역시 해운대구 해운대로 409, (우동)","phone":"051-743-0775","hospUrl":"http://www.sungmo.co.kr","estbDd":"19920930","drTotCnt":22,"mdeptSdrCnt":19,"lat":35.1675364,"lng":129.1409696},{"id":"JDQ4MTAxMiM1MSMkMSMkMCMkOTkkMzgxMzUxIzIxIyQyIyQ1IyQwMCQyNjE4MzIjNjEjJDEjJDAjJDgz","name":"부산성소병원","clCd":"21","clCdNm":"병원","sidoCd":"210000","sidoCdNm":"부산","sgguCd":"210001","sgguCdNm":"부산남구","addr":"부산광역시 남구 수영로 175, (대연동, SMG빌딩)","phone":"051-633-1123","hospUrl":"www.seongso.co.kr/","estbDd":"20120620","drTotCnt":9,"mdeptSdrCnt":9,"lat":35.1351066,"lng":129.0858015},{"id":"JDQ4MTAxMiM1MSMkMSMkMCMkOTkkMzgxMzUxIzIxIyQxIyQ1IyQ4MiQyNjEyMjIjODEjJDEjJDIjJDgz","name":"부산아동병원","clCd":"21","clCdNm":"병원","sidoCd":"210000","sidoCdNm":"부산","sgguCd":"210001","sgguCdNm":"부산남구","addr":"부산광역시 남구 수영로 228, 3-7층 (대연동)","phone":"051-612-7582","hospUrl":"","estbDd":"20111114","drTotCnt":4,"mdeptSdrCnt":4,"lat":35.1348542,"lng":129.0914604},{"id":"JDQ4MTAxMiM1MSMkMSMkMCMkOTkkMzgxMzUxIzIxIyQxIyQ5IyQ2MiQzNjEwMDIjNjEjJDEjJDAjJDgz","name":"부산큰병원","clCd":"21","clCdNm":"병원","sidoCd":"210000","sidoCdNm":"부산","sgguCd":"210004","sgguCdNm":"부산진구","addr":"부산광역시 부산진구 가야대로 494, 지하1층~지상1층 각 일부, 지상2층~4층 전부 (개금동)","phone":"051-991-0123","hospUrl":"","estbDd":"20200410","drTotCnt":9,"mdeptSdrCnt":9,"lat":35.1528239,"lng":129.0261687},{"id":"JDQ4MTAxMiM1MSMkMSMkMCMkOTkkMzgxMzUxIzIxIyQxIyQ5IyQ2MiQzNjE0ODEjNjEjJDEjJDgjJDgz","name":"부영병원","clCd":"21","clCdNm":"병원","sidoCd":"210000","sidoCdNm":"부산","sgguCd":"210015","sgguCdNm":"부산사상구","addr":"부산광역시 사상구 학감대로123번길 76, (학장동)","phone":"051-320-6800","hospUrl":"","estbDd":"20080707","drTotCnt":2,"mdeptSdrCnt":2,"lat":35.1412205,"lng":128.9840178},{"id":"JDQ4MTAxMiM1MSMkMSMkMCMkOTkkMzgxMzUxIzIxIyQxIyQxIyQ5MiQyNjEwMDIjNDEjJDEjJDgjJDgz","name":"사단법인 부산의료선교회 세계로병원","clCd":"21","clCdNm":"병원","sidoCd":"210000","sidoCdNm":"부산","sgguCd":"210003","sgguCdNm":"부산동래구","addr":"부산광역시 동래구 종합운동장로 42, 세계로병원 (사직동)","phone":"051-500-6000","hospUrl":"www.sgrh.org/","estbDd":"20040126","drTotCnt":16,"mdeptSdrCnt":16,"lat":35.1944931,"lng":129.0647391},{"id":"JDQ4MTAxMiM1MSMkMSMkMCMkOTkkMzgxMzUxIzIxIyQxIyQ5IyQ2MiQ0NjEwMDIjNzEjJDEjJDgjJDgz","name":"사상스마트병원","clCd":"21","clCdNm":"병원","sidoCd":"210000","sidoCdNm":"부산","sgguCd":"210015","sgguCdNm":"부산사상구","addr":"부산광역시 사상구 학감대로 269, 지하2~지상10층 (감전동)","phone":"051-322-3000","hospUrl":"","estbDd":"20200803","drTotCnt":4,"mdeptSdrCnt":4,"lat":35.1550682,"lng":128.9905151},{"id":"JDQ4MTAxMiM1MSMkMSMkMCMkOTkkMzgxMzUxIzIxIyQxIyQ1IyQ2MiQ0NjE0ODEjNTEjJDEjJDIjJDgz","name":"사직부산아동병원","clCd":"21","clCdNm":"병원","sidoCd":"210000","sidoCdNm":"부산","sgguCd":"210003","sgguCdNm":"부산동래구","addr":"부산광역시 동래구 아시아드대로 186, (사직동)","phone":"051-503-0075","hospUrl":"","estbDd":"20150114","drTotCnt":3,"mdeptSdrCnt":3,"lat":35.2009008,"lng":129.0652494},{"id":"JDQ4MTAxMiM1MSMkMSMkMCMkOTkkMzgxMzUxIzIxIyQxIyQ1IyQ3OSQyNjE4MzIjNTEjJDEjJDIjJDgz","name":"상쾌한병원","clCd":"21","clCdNm":"병원","sidoCd":"210000","sidoCdNm":"부산","sgguCd":"210014","sgguCdNm":"부산수영구","addr":"부산광역시 수영구 연수로 406, (광안동)","phone":"051-751-9775","hospUrl":"http://anorectum.com/main/main.php","estbDd":"20110201","drTotCnt":5,"mdeptSdrCnt":5,"lat":35.1682093,"lng":129.1134692},{"id":"JDQ4MTAxMiM1MSMkMSMkMCMkOTkkMzgxMzUxIzIxIyQxIyQ5IyQ4MiQyNjE4MzIjNTEjJDEjJDIjJDgz","name":"새봄병원","clCd":"21","clCdNm":"병원","sidoCd":"210000","sidoCdNm":"부산","sgguCd":"210003","sgguCdNm":"부산동래구","addr":"부산광역시 동래구 충렬대로 152, 3층일부,7~10층 (온천동)","phone":"051-503-8288","hospUrl":"","estbDd":"20220902","drTotCnt":4,"mdeptSdrCnt":4,"lat":35.2046475,"lng":129.0766381},{"id":"JDQ4MTAxMiM1MSMkMSMkMCMkOTkkMzgxMzUxIzIxIyQxIyQxIyQ5OSQyNjE4MzIjNDEjJDEjJDgjJDgz","name":"새부산병원","clCd":"21","clCdNm":"병원","sidoCd":"210000","sidoCdNm":"부산","sgguCd":"210002","sgguCdNm":"부산동구","addr":"부산광역시 동구 초량중로 74, (초량동, 새부산병원)","phone":"051-711-1000","hospUrl":"","estbDd":"20051122","drTotCnt":3,"mdeptSdrCnt":3,"lat":35.1183022,"lng":129.0391841},{"id":"JDQ4MTAxMiM1MSMkMSMkMCMkOTkkMzgxMzUxIzIxIyQxIyQxIyQ2MiQzNjE0ODEjNTEjJDEjJDYjJDgz","name":"새우리병원","clCd":"21","clCdNm":"병원","sidoCd":"210000","sidoCdNm":"부산","sgguCd":"210011","sgguCdNm":"부산금정구","addr":"부산광역시 금정구 중앙대로 2025, (남산동)","phone":"051-516-9999","hospUrl":"http://www.newoori.com","estbDd":"20080506","drTotCnt":8,"mdeptSdrCnt":6,"lat":35.2652794,"lng":129.09212},{"id":"JDQ4MTAxMiM1MSMkMSMkMCMkOTkkMzgxMzUxIzExIyQyIyQ3IyQwMCQzNjEwMDIjODEjJDEjJDIjJDgz","name":"새항운병원","clCd":"21","clCdNm":"병원","sidoCd":"210000","sidoCdNm":"부산","sgguCd":"210013","sgguCdNm":"부산연제구","addr":"부산광역시 연제구 중앙대로 1064, (연산동)","phone":"051-866-2800","hospUrl":"http://www.saehangun.com/","estbDd":"20100222","drTotCnt":5,"mdeptSdrCnt":5,"lat":35.1829112,"lng":129.079581},{"id":"JDQ4MTAxMiM1MSMkMSMkMCMkOTkkMzgxMzUxIzIxIyQyIyQ5IyQwMCQzNjE4MzIjNTEjJDEjJDYjJDgz","name":"새힘병원","clCd":"21","clCdNm":"병원","sidoCd":"210000","sidoCdNm":"부산","sgguCd":"210003","sgguCdNm":"부산동래구","addr":"부산광역시 동래구 아시아드대로 261, 지하1~지상6층 (온천동)","phone":"1522-4854","hospUrl":"","estbDd":"20191125","drTotCnt":2,"mdeptSdrCnt":1,"lat":35.2070108,"lng":129.0687456},{"id":"JDQ4MTAxMiM1MSMkMSMkMCMkOTkkMzgxMzUxIzIxIyQxIyQ5IyQ3MiQyNjE0ODEjNDEjJDEjJDgjJDgz","name":"서호하단병원","clCd":"21","clCdNm":"병원","sidoCd":"210000","sidoCdNm":"부산","sgguCd":"210010","sgguCdNm":"부산사하구","addr":"부산광역시 사하구 낙동대로 446, 7~15층 (당리동)","phone":"051-201-6666","hospUrl":"","estbDd":"20201207","drTotCnt":3,"mdeptSdrCnt":3,"lat":35.1051957,"lng":128.9700969},{"id":"JDQ4MTAxMiM1MSMkMSMkMCMkOTkkMzgxMzUxIzIxIyQxIyQ5IyQ4MiQzNjE4MzIjNjEjJDEjJDQjJDgz","name":"선함앤밝은봄병원","clCd":"21","clCdNm":"병원","sidoCd":"210000","sidoCdNm":"부산","sgguCd":"210004","sgguCdNm":"부산진구","addr":"부산광역시 부산진구 서면로 22, 태양빌딩 3, 4, 7층 (부전동)","phone":"051-948-1000","hospUrl":"","estbDd":"20090525","drTotCnt":4,"mdeptSdrCnt":4,"lat":35.1526069,"lng":129.0581756},{"id":"JDQ4MTAxMiM1MSMkMSMkMCMkOTkkMzgxMzUxIzIxIyQxIyQ5IyQ5OSQyNjEwMDIjNzEjJDEjJDgjJDgz","name":"성가병원","clCd":"21","clCdNm":"병원","sidoCd":"210000","sidoCdNm":"부산","sgguCd":"210004","sgguCdNm":"부산진구","addr":"부산광역시 부산진구 범일로 133, 135, 3층 일부, 4층 전부, 5층 일부 (범천동)","phone":"051-645-9771","hospUrl":"","estbDd":"19810414","drTotCnt":3,"mdeptSdrCnt":3,"lat":35.1420664,"lng":129.0590278},{"id":"JDQ4MTAxMiM1MSMkMSMkMCMkOTkkMzgxMzUxIzIxIyQxIyQ5IyQxMyQyNjEyMjIjNjEjJDEjJDgjJDgz","name":"세움병원","clCd":"21","clCdNm":"병원","sidoCd":"210000","sidoCdNm":"부산","sgguCd":"210013","sgguCdNm":"부산연제구","addr":"부산광역시 연제구 고분로13번길 15, (연산동)","phone":"051-989-5000","hospUrl":"","estbDd":"20250610","drTotCnt":4,"mdeptSdrCnt":4,"lat":35.186752,"lng":129.084186},{"id":"JDQ4MTAxMiM1MSMkMSMkMCMkOTkkMzgxMzUxIzIxIyQxIyQ1IyQ4OSQyNjEyMjIjNDEjJDEjJDgjJDgz","name":"세웅병원","clCd":"21","clCdNm":"병원","sidoCd":"210000","sidoCdNm":"부산","sgguCd":"210011","sgguCdNm":"부산금정구","addr":"부산광역시 금정구 서동로 162, (서동)","phone":"051-500-9700","hospUrl":"www.sewoongh.co.kr/","estbDd":"19940409","drTotCnt":21,"mdeptSdrCnt":20,"lat":35.2145413,"lng":129.1040334},{"id":"JDQ4MTAxMiM1MSMkMSMkMCMkOTkkMzgxMzUxIzIxIyQxIyQ5IyQ4OSQ0NjE0ODEjNzEjJDEjJDgjJDgz","name":"세일병원","clCd":"21","clCdNm":"병원","sidoCd":"210000","sidoCdNm":"부산","sgguCd":"210002","sgguCdNm":"부산동구","addr":"부산광역시 동구 중앙대로 317, (초량동, 세일병원)","phone":"051-464-8110","hospUrl":"","estbDd":"19830910","drTotCnt":9,"mdeptSdrCnt":9,"lat":35.1249181,"lng":129.0446395},{"id":"JDQ4MTAxMiM1MSMkMSMkMCMkOTkkMzgxMzUxIzExIyQxIyQ3IyQwMyQyNjE4MzIjODEjJDEjJDIjJDgz","name":"세화병원","clCd":"21","clCdNm":"병원","sidoCd":"210000","sidoCdNm":"부산","sgguCd":"210003","sgguCdNm":"부산동래구","addr":"부산광역시 동래구 미남로132번길 28, (온천동)","phone":"051-505-1333","hospUrl":"http://www.swmedi.com","estbDd":"20030811","drTotCnt":8,"mdeptSdrCnt":7,"lat":35.2059213,"lng":129.0711844},{"id":"JDQ4MTAxMiM1MSMkMSMkMCMkOTkkMzgxMzUxIzExIyQyIyQ3IyQwMCQzNjE4MzIjNjEjJDEjJDAjJDgz","name":"세흥병원","clCd":"21","clCdNm":"병원","sidoCd":"210000","sidoCdNm":"부산","sgguCd":"210004","sgguCdNm":"부산진구","addr":"부산광역시 부산진구 중앙대로 805, 지하2~지상10 층 (부전동)","phone":"051-819-0173","hospUrl":"http://www.sehunghospital.co.kr","estbDd":"20090226","drTotCnt":16,"mdeptSdrCnt":16,"lat":35.1637714,"lng":129.0632074},{"id":"JDQ4MTAxMiM1MSMkMSMkMCMkOTkkMzgxMzUxIzIxIyQxIyQ5IyQwMyQ0NjEwMDIjNjEjJDEjJDgjJDgz","name":"센텀상쾌한병원","clCd":"21","clCdNm":"병원","sidoCd":"210000","sidoCdNm":"부산","sgguCd":"210009","sgguCdNm":"부산해운대구","addr":"부산광역시 해운대구 재반로 169, (재송동)","phone":"051-784-8276","hospUrl":"","estbDd":"20250418","drTotCnt":2,"mdeptSdrCnt":2,"lat":35.1930266,"lng":129.1288947},{"id":"JDQ4MTAxMiM1MSMkMSMkMCMkOTkkMzgxMzUxIzIxIyQyIyQ1IyQwMCQ0NjEwMDIjNTEjJDEjJDYjJDgz","name":"센텀아동병원","clCd":"21","clCdNm":"병원","sidoCd":"210000","sidoCdNm":"부산","sgguCd":"210009","sgguCdNm":"부산해운대구","addr":"부산광역시 해운대구 해운대로 407, 6층 (우동, 신세계프라자)","phone":"743-1588","hospUrl":"","estbDd":"20130110","drTotCnt":4,"mdeptSdrCnt":4,"lat":35.1678259,"lng":129.1406828},{"id":"JDQ4MTAxMiM1MSMkMSMkMCMkOTkkMzgxMzUxIzIxIyQxIyQ5IyQwMyQzNjEyMjIjNDEjJDEjJDgjJDgz","name":"소나무병원","clCd":"21","clCdNm":"병원","sidoCd":"210000","sidoCdNm":"부산","sgguCd":"210010","sgguCdNm":"부산사하구","addr":"부산광역시 사하구 까치고개로 79-2, 지하1~2층 전부, 1층 일부, 2~4층 전부 (괴정동)","phone":"051-791-2727","hospUrl":"","estbDd":"20241223","drTotCnt":3,"mdeptSdrCnt":3,"lat":35.1057295,"lng":129.0095508},{"id":"JDQ4MTAxMiM1MSMkMSMkMCMkOTkkMzgxMzUxIzIxIyQxIyQ1IyQxMyQyNjEwMDIjNDEjJDEjJDgjJDgz","name":"수영어린이병원","clCd":"21","clCdNm":"병원","sidoCd":"210000","sidoCdNm":"부산","sgguCd":"210014","sgguCdNm":"부산수영구","addr":"부산광역시 수영구 수영로 671, 2층~3층 (광안동)","phone":"051-753-3579","hospUrl":"","estbDd":"20160913","drTotCnt":3,"mdeptSdrCnt":3,"lat":35.1657592,"lng":129.1144799},{"id":"JDQ4MTAxMiM1MSMkMSMkMCMkOTkkMzgxMzUxIzIxIyQxIyQ1IyQ4OSQyNjE4MzIjNDEjJDEjJDQjJDgz","name":"순병원","clCd":"21","clCdNm":"병원","sidoCd":"210000","sidoCdNm":"부산","sgguCd":"210011","sgguCdNm":"부산금정구","addr":"부산광역시 금정구 중앙대로 1701, (부곡동)","phone":"051-515-0005","hospUrl":"http://www.soon-soon.com","estbDd":"20110620","drTotCnt":18,"mdeptSdrCnt":18,"lat":35.2364803,"lng":129.0916903},{"id":"JDQ4MTAxMiM1MSMkMSMkMCMkOTkkMzgxMzUxIzIxIyQxIyQ5IyQ5OSQyNjEyMjIjNjEjJDEjJDQjJDgz","name":"시원항병원","clCd":"21","clCdNm":"병원","sidoCd":"210000","sidoCdNm":"부산","sgguCd":"210005","sgguCdNm":"부산북구","addr":"부산광역시 북구 금곡대로 27, 더청명빌딩 5~10층 (덕천동)","phone":"331-7275","hospUrl":"http://xn--vv4bi6ex9p.com/","estbDd":"20180705","drTotCnt":4,"mdeptSdrCnt":4,"lat":35.2123249,"lng":129.0041452},{"id":"JDQ4MTAxMiM1MSMkMSMkMCMkOTkkMzgxMzUxIzIxIyQxIyQ1IyQ4OSQzNjE4MzIjNTEjJDEjJDIjJDgz","name":"아이(i)서울병원","clCd":"21","clCdNm":"병원","sidoCd":"210000","sidoCdNm":"부산","sgguCd":"210007","sgguCdNm":"부산영도구","addr":"부산광역시 영도구 영선대로 75, 삼호빌딩 (영선동2가)","phone":"730-8300","hospUrl":"","estbDd":"20161010","drTotCnt":5,"mdeptSdrCnt":4,"lat":35.0877774,"lng":129.0417146},{"id":"JDQ4MTAxMiM1MSMkMSMkMCMkOTkkMzgxMzUxIzIxIyQxIyQ5IyQ3MiQ0NjE0ODEjNjEjJDEjJDgjJDgz","name":"에덴어린이병원","clCd":"21","clCdNm":"병원","sidoCd":"210000","sidoCdNm":"부산","sgguCd":"210004","sgguCdNm":"부산진구","addr":"부산광역시 부산진구 가야대로 649, 6~15층 (가야동)","phone":"051-710-3181","hospUrl":"","estbDd":"20211224","drTotCnt":4,"mdeptSdrCnt":4,"lat":35.1561758,"lng":129.0426109},{"id":"JDQ4MTAxMiM1MSMkMSMkMCMkOTkkMzgxMzUxIzIxIyQyIyQxIyQwMCQzNjEyMjIjNTEjJDEjJDIjJDgz","name":"에디스여성병원","clCd":"21","clCdNm":"병원","sidoCd":"210000","sidoCdNm":"부산","sgguCd":"210010","sgguCdNm":"부산사하구","addr":"부산광역시 사하구 낙동대로 361, (당리동)","phone":"051-206-0999","hospUrl":"","estbDd":"20071001","drTotCnt":4,"mdeptSdrCnt":4,"lat":35.1015033,"lng":128.9778658},{"id":"JDQ4MTAxMiM1MSMkMSMkMCMkOTkkMzgxMzUxIzIxIyQxIyQ5IyQ2MiQyNjEwMDIjNDEjJDEjJDgjJDgz","name":"에스병원(S병원)","clCd":"21","clCdNm":"병원","sidoCd":"210000","sidoCdNm":"부산","sgguCd":"210007","sgguCdNm":"부산영도구","addr":"부산광역시 영도구 동삼로 55-1, 지하2층, 2층~8층, 9층 일부 (동삼동)","phone":"051-412-7000","hospUrl":"","estbDd":"20200110","drTotCnt":0,"mdeptSdrCnt":0,"lat":35.0783081,"lng":129.0700426},{"id":"JDQ4MTAxMiM1MSMkMSMkMCMkOTkkMzgxMzUxIzIxIyQxIyQ1IyQ2MiQzNjE0ODEjNDEjJDEjJDQjJDgz","name":"엘리움병원","clCd":"21","clCdNm":"병원","sidoCd":"210000","sidoCdNm":"부산","sgguCd":"210009","sgguCdNm":"부산해운대구","addr":"부산광역시 해운대구 해운대로 794, 7~8층 (좌동, 삼정엘리움)","phone":"051-791-1006","hospUrl":"","estbDd":"20110819","drTotCnt":3,"mdeptSdrCnt":3,"lat":35.168815,"lng":129.1757451},{"id":"JDQ4MTAxMiM1MSMkMSMkMCMkOTkkMzgxMzUxIzIxIyQxIyQ5IyQ4OSQ0NjEwMDIjNjEjJDEjJDQjJDgz","name":"엘앤더슨병원","clCd":"21","clCdNm":"병원","sidoCd":"210000","sidoCdNm":"부산","sgguCd":"210006","sgguCdNm":"부산서구","addr":"부산광역시 서구 대신공원로 39, (서대신동3가)","phone":"051-291-0707","hospUrl":"","estbDd":"20180612","drTotCnt":1,"mdeptSdrCnt":1,"lat":35.1213821,"lng":129.0167399},{"id":"JDQ4MTAxMiM1MSMkMSMkMCMkOTkkMzgxMzUxIzIxIyQxIyQ1IyQ5MiQzNjEwMDIjNDEjJDEjJDQjJDgz","name":"연세척병원","clCd":"21","clCdNm":"병원","sidoCd":"210000","sidoCdNm":"부산","sgguCd":"210004","sgguCdNm":"부산진구","addr":"부산광역시 부산진구 가야대로 715, 1층 일부, 2~4층 전부 (당감동)","phone":"1544-7750","hospUrl":"","estbDd":"20140922","drTotCnt":6,"mdeptSdrCnt":6,"lat":35.1576313,"lng":129.0498099},{"id":"JDQ4MTAxMiM1MSMkMSMkMCMkOTkkMzgxMzUxIzIxIyQxIyQ5IyQ4MiQyNjEyMjIjNjEjJDEjJDAjJDgz","name":"연제일신병원","clCd":"21","clCdNm":"병원","sidoCd":"210000","sidoCdNm":"부산","sgguCd":"210013","sgguCdNm":"부산연제구","addr":"부산광역시 연제구 고분로 6, (연산동)","phone":"051-862-2002","hospUrl":"","estbDd":"20020306","drTotCnt":17,"mdeptSdrCnt":17,"lat":35.1856693,"lng":129.0828772},{"id":"JDQ4MTAxMiM1MSMkMSMkMCMkOTkkMzgxMzUxIzExIyQxIyQzIyQxMyQ0NjEwMDIjODEjJDEjJDIjJDgz","name":"우리들병원","clCd":"21","clCdNm":"병원","sidoCd":"210000","sidoCdNm":"부산","sgguCd":"210003","sgguCdNm":"부산동래구","addr":"부산광역시 동래구 중앙대로 1523, (온천동, SKHUBSKY)","phone":"051-559-2000","hospUrl":"","estbDd":"20061114","drTotCnt":15,"mdeptSdrCnt":15,"lat":35.2208431,"lng":129.0855308},{"id":"JDQ4MTAxMiM1MSMkMSMkMCMkOTkkMzgxMzUxIzIxIyQxIyQ1IyQxMyQzNjE4MzIjNDEjJDEjJDgjJDgz","name":"워크재활병원","clCd":"21","clCdNm":"병원","sidoCd":"210000","sidoCdNm":"부산","sgguCd":"210003","sgguCdNm":"부산동래구","addr":"부산광역시 동래구 충렬대로 379, (안락동)","phone":"051-714-4119","hospUrl":"","estbDd":"20140827","drTotCnt":8,"mdeptSdrCnt":8,"lat":35.1976876,"lng":129.1000578},{"id":"JDQ4MTAxMiM1MSMkMSMkMCMkOTkkMzgxMzUxIzExIyQxIyQ3IyQxMyQyNjE4MzIjNjEjJDEjJDQjJDgz","name":"웰니스병원","clCd":"21","clCdNm":"병원","sidoCd":"210000","sidoCdNm":"부산","sgguCd":"210013","sgguCdNm":"부산연제구","addr":"부산광역시 연제구 반송로 52, (연산동)","phone":"051-850-0500","hospUrl":"www.uwellness.co.kr/","estbDd":"20041117","drTotCnt":9,"mdeptSdrCnt":8,"lat":35.1890247,"lng":129.0858962},{"id":"JDQ4MTAxMiM1MSMkMSMkMCMkOTkkMzgxMzUxIzIxIyQxIyQxIyQ3OSQyNjEwMDIjNDEjJDEjJDQjJDgz","name":"웰하이여성아동병원","clCd":"21","clCdNm":"병원","sidoCd":"210000","sidoCdNm":"부산","sgguCd":"210012","sgguCdNm":"부산강서구","addr":"부산광역시 강서구 명지오션시티4로 95, 2~8, 10층 일부호 (명지동)","phone":"051-201-8854","hospUrl":"http://www.okmiso.co.kr","estbDd":"20190102","drTotCnt":6,"mdeptSdrCnt":6,"lat":35.0804516,"lng":128.9039488},{"id":"JDQ4MTAxMiM1MSMkMSMkMCMkOTkkMzgxMzUxIzIxIyQxIyQ5IyQwMyQzNjE4MzIjNDEjJDEjJDQjJDgz","name":"위대한탄생여성병원","clCd":"21","clCdNm":"병원","sidoCd":"210000","sidoCdNm":"부산","sgguCd":"210013","sgguCdNm":"부산연제구","addr":"부산광역시 연제구 중앙대로 1083, (연산동, 3~7층, 12층)","phone":"051-862-0010","hospUrl":"http://www.great-birth.com/","estbDd":"20130221","drTotCnt":7,"mdeptSdrCnt":7,"lat":35.1848624,"lng":129.0801387},{"id":"JDQ4MTAxMiM1MSMkMSMkMCMkOTkkMzgxMzUxIzIxIyQxIyQ1IyQ2MiQzNjEyMjIjNjEjJDEjJDgjJDgz","name":"위대항병원","clCd":"21","clCdNm":"병원","sidoCd":"210000","sidoCdNm":"부산","sgguCd":"210001","sgguCdNm":"부산남구","addr":"부산광역시 남구 수영로 241, (대연동)","phone":"051-928-9000","hospUrl":"","estbDd":"20130719","drTotCnt":2,"mdeptSdrCnt":2,"lat":35.1353763,"lng":129.0929573},{"id":"JDQ4MTAxMiM1MSMkMSMkMCMkOTkkMzgxMzUxIzIxIyQyIyQxIyQwMCQ0NjEwMDIjNzEjJDEjJDgjJDgz","name":"의)청십자의료재단 행복한병원","clCd":"21","clCdNm":"병원","sidoCd":"210000","sidoCdNm":"부산","sgguCd":"210004","sgguCdNm":"부산진구","addr":"부산광역시 부산진구 봉수로 18, 지상 1층 일부, 2층 일부, 3층 일부 (전포동)","phone":"051-757-5119","hospUrl":"happymc.co.kr/","estbDd":"20080101","drTotCnt":3,"mdeptSdrCnt":3,"lat":35.1497852,"lng":129.0700475},{"id":"JDQ4MTAxMiM1MSMkMSMkMCMkOTkkMzgxMzUxIzIxIyQyIyQ1IyQwMCQyNjEwMDIjODEjJDEjJDIjJDgz","name":"의료법인 갑을의료재단 갑을녹산병원","clCd":"21","clCdNm":"병원","sidoCd":"210000","sidoCdNm":"부산","sgguCd":"210012","sgguCdNm":"부산강서구","addr":"부산광역시 강서구 녹산산단321로 24-8, (송정동)","phone":"051-974-8300","hospUrl":"www.bigmind.co.kr/bigmind.php","estbDd":"20090227","drTotCnt":17,"mdeptSdrCnt":14,"lat":35.0905661,"lng":128.8533125},{"id":"JDQ4MTAxMiM1MSMkMSMkMCMkOTkkMzgxMzUxIzIxIyQxIyQ1IyQ3MiQyNjEwMDIjNTEjJDEjJDIjJDgz","name":"의료법인 상원의료재단 부산힘찬병원","clCd":"21","clCdNm":"병원","sidoCd":"210000","sidoCdNm":"부산","sgguCd":"210003","sgguCdNm":"부산동래구","addr":"부산광역시 동래구 충렬대로 255, (수안동)","phone":"1899-2555","hospUrl":"","estbDd":"20120914","drTotCnt":8,"mdeptSdrCnt":8,"lat":35.2014289,"lng":129.0871869},{"id":"JDQ4MTAxMiM1MSMkMSMkMCMkOTkkMzgxMzUxIzIxIyQxIyQ5IyQ5OSQ0NjE0ODEjNjEjJDEjJDAjJDgz","name":"의료법인 신생의료재단 센트럴병원","clCd":"21","clCdNm":"병원","sidoCd":"210000","sidoCdNm":"부산","sgguCd":"210005","sgguCdNm":"부산북구","addr":"부산광역시 북구 만덕대로 37, (덕천동)","phone":"1899-0058","hospUrl":"","estbDd":"20190321","drTotCnt":19,"mdeptSdrCnt":19,"lat":35.2113366,"lng":129.0090811},{"id":"JDQ4MTAxMiM1MSMkMSMkMCMkOTkkMzgxMzUxIzIxIyQxIyQ5IyQ5OSQ0NjEwMDIjNTEjJDEjJDIjJDgz","name":"의료법인 영재의료재단 큰솔2병원","clCd":"21","clCdNm":"병원","sidoCd":"210000","sidoCdNm":"부산","sgguCd":"210015","sgguCdNm":"부산사상구","addr":"부산광역시 사상구 학장로 189, (학장동)","phone":"051-322-0050","hospUrl":"","estbDd":"20190401","drTotCnt":4,"mdeptSdrCnt":4,"lat":35.1436636,"lng":128.987223},{"id":"JDQ4MTAxMiM1MSMkMSMkMCMkOTkkMzgxMzUxIzIxIyQxIyQ5IyQ5MiQyNjEwMDIjNTEjJDEjJDYjJDgz","name":"의료법인 은빛의료재단 세하병원","clCd":"21","clCdNm":"병원","sidoCd":"210000","sidoCdNm":"부산","sgguCd":"210003","sgguCdNm":"부산동래구","addr":"부산광역시 동래구 충렬대로 258, 4-5층,12-13층 (낙민동)","phone":"051-751-1515","hospUrl":"http://se-ha.co.kr/","estbDd":"20100331","drTotCnt":3,"mdeptSdrCnt":3,"lat":35.2007335,"lng":129.0873078},{"id":"JDQ4MTAxMiM1MSMkMSMkMCMkOTkkMzgxMzUxIzIxIyQxIyQxIyQ3MiQzNjE4MzIjNjEjJDEjJDQjJDgz","name":"의료법인 인당의료재단 구포부민병원","clCd":"21","clCdNm":"병원","sidoCd":"210000","sidoCdNm":"부산","sgguCd":"210005","sgguCdNm":"부산북구","addr":"부산광역시 북구 사상로 607, (구포동)","phone":"051-366-7000","hospUrl":"www.bumin.co.kr/gupo","estbDd":"20081030","drTotCnt":7,"mdeptSdrCnt":7,"lat":35.1983115,"lng":128.9904573},{"id":"JDQ4MTAxMiM1MSMkMSMkMCMkOTkkMzgxMzUxIzIxIyQxIyQ5IyQ4OSQyNjE4MzIjNjEjJDEjJDgjJDgz","name":"의료법인 파란시티의료재단 부산항운병원","clCd":"21","clCdNm":"병원","sidoCd":"210000","sidoCdNm":"부산","sgguCd":"210003","sgguCdNm":"부산동래구","addr":"부산광역시 동래구 충렬대로348번길 1, (안락동)","phone":"051-580-2700","hospUrl":"","estbDd":"20000801","drTotCnt":9,"mdeptSdrCnt":9,"lat":35.1975299,"lng":129.0963755},{"id":"JDQ4MTAxMiM1MSMkMSMkMCMkOTkkMzgxMzUxIzIxIyQxIyQ5IyQ3MiQzNjEyMjIjNDEjJDEjJDQjJDgz","name":"의료법인 한세의료재단 한세병원","clCd":"21","clCdNm":"병원","sidoCd":"210000","sidoCdNm":"부산","sgguCd":"210009","sgguCdNm":"부산해운대구","addr":"부산광역시 해운대구 세실로 31, 대승프라임 6층 (좌동)","phone":"051-702-6000","hospUrl":"","estbDd":"20111230","drTotCnt":2,"mdeptSdrCnt":2,"lat":35.1678345,"lng":129.179072},{"id":"JDQ4MTAxMiM1MSMkMSMkMCMkOTkkMzgxMzUxIzIxIyQxIyQ5IyQxMyQyNjEwMDIjODEjJDEjJDIjJDgz","name":"의료법인 해올의료재단 힐마루병원","clCd":"21","clCdNm":"병원","sidoCd":"210000","sidoCdNm":"부산","sgguCd":"210009","sgguCdNm":"부산해운대구","addr":"부산광역시 해운대구 달맞이길117번나길 174, 힐마루병원 (중동)","phone":"051-715-6000","hospUrl":"","estbDd":"20160818","drTotCnt":5,"mdeptSdrCnt":3,"lat":35.1640935,"lng":129.1852253},{"id":"JDQ4MTAxMiM1MSMkMSMkMCMkOTkkMzgxMzUxIzIxIyQxIyQxIyQ3OSQzNjE4MzIjODEjJDEjJDYjJDgz","name":"의료법인고려의료재단부산고려병원","clCd":"21","clCdNm":"병원","sidoCd":"210000","sidoCdNm":"부산","sgguCd":"210001","sgguCdNm":"부산남구","addr":"부산광역시 남구 수영로 238, (대연동)","phone":"051-930-3000","hospUrl":"http://www.koreah.co.kr","estbDd":"20020422","drTotCnt":18,"mdeptSdrCnt":18,"lat":35.1348734,"lng":129.092639},{"id":"JDQ4MTAxMiM1MSMkMSMkMCMkOTkkMzgxMzUxIzIxIyQxIyQ5IyQ4MiQzNjE0ODEjNDEjJDEjJDgjJDgz","name":"의료법인나라의료재단 드림나라병원","clCd":"21","clCdNm":"병원","sidoCd":"210000","sidoCdNm":"부산","sgguCd":"210013","sgguCdNm":"부산연제구","addr":"부산광역시 연제구 중앙대로 1175, (거제동)","phone":"051-853-3636","hospUrl":"","estbDd":"20121107","drTotCnt":1,"mdeptSdrCnt":1,"lat":35.1924743,"lng":129.0796919},{"id":"JDQ4MTAxMiM1MSMkMSMkMCMkOTkkMzgxMzUxIzIxIyQxIyQ1IyQ5MiQ0NjE0ODEjNjEjJDEjJDAjJDgz","name":"의료법인명은의료재단 명은병원","clCd":"21","clCdNm":"병원","sidoCd":"210000","sidoCdNm":"부산","sgguCd":"210013","sgguCdNm":"부산연제구","addr":"부산광역시 연제구 월드컵대로 184, 명은 병원 (거제동)","phone":"051-852-0788","hospUrl":"http://www.myungeun.co.kr/","estbDd":"20130523","drTotCnt":3,"mdeptSdrCnt":3,"lat":35.1881454,"lng":129.0766915},{"id":"JDQ4MTAxMiM1MSMkMSMkMCMkOTkkMzgxMzUxIzIxIyQxIyQ1IyQ3MiQ0NjEwMDIjODEjJDEjJDIjJDgz","name":"의료법인성신의료재단 다대수병원","clCd":"21","clCdNm":"병원","sidoCd":"210000","sidoCdNm":"부산","sgguCd":"210010","sgguCdNm":"부산사하구","addr":"부산광역시 사하구 다대로 565, (다대동)","phone":"051-260-1000","hospUrl":"","estbDd":"20140822","drTotCnt":4,"mdeptSdrCnt":4,"lat":35.0559349,"lng":128.9708752},{"id":"JDQ4MTAxMiM1MSMkMSMkMCMkOTkkMzgxMzUxIzIxIyQxIyQxIyQ4MiQzNjE0ODEjODEjJDEjJDIjJDgz","name":"의료법인센텀의료재단 서부산센텀병원","clCd":"21","clCdNm":"병원","sidoCd":"210000","sidoCdNm":"부산","sgguCd":"210015","sgguCdNm":"부산사상구","addr":"부산광역시 사상구 새벽로 226, (괘법동)","phone":"051-329-3000","hospUrl":"http://www.centumhospital.com","estbDd":"20090204","drTotCnt":11,"mdeptSdrCnt":11,"lat":35.1612103,"lng":128.9845613},{"id":"JDQ4MTAxMiM1MSMkMSMkMCMkOTkkMzgxMzUxIzIxIyQxIyQ1IyQwMyQzNjE4MzIjNTEjJDEjJDYjJDgz","name":"의료법인송산의료재단 해양병원","clCd":"21","clCdNm":"병원","sidoCd":"210000","sidoCdNm":"부산","sgguCd":"210008","sgguCdNm":"부산중구","addr":"부산광역시 중구 광복로97번길 26-2, (동광동2가)","phone":"051-466-0008","hospUrl":"","estbDd":"20110526","drTotCnt":2,"mdeptSdrCnt":2,"lat":35.1009717,"lng":129.0348973},{"id":"JDQ4MTAxMiM1MSMkMSMkMCMkOTkkMzgxMzUxIzIxIyQxIyQ5IyQ3OSQzNjE4MzIjNDEjJDEjJDgjJDgz","name":"의료법인아너의료재단 아름다운강산병원","clCd":"21","clCdNm":"병원","sidoCd":"210000","sidoCdNm":"부산","sgguCd":"210011","sgguCdNm":"부산금정구","addr":"부산광역시 금정구 공단로 7, (금사동)","phone":"051-526-7100","hospUrl":"","estbDd":"20070810","drTotCnt":8,"mdeptSdrCnt":8,"lat":35.2162976,"lng":129.1099198},{"id":"JDQ4MTAxMiM1MSMkMSMkMCMkOTkkMzgxMzUxIzIxIyQxIyQxIyQ5MiQ0NjE0ODEjODEjJDEjJDIjJDgz","name":"의료법인양경의료재단 중앙U병원","clCd":"21","clCdNm":"병원","sidoCd":"210000","sidoCdNm":"부산","sgguCd":"210010","sgguCdNm":"부산사하구","addr":"부산광역시 사하구 감천로 59, (감천동)","phone":"051-293-7766","hospUrl":"http://www.centu.co.kr/","estbDd":"20060929","drTotCnt":6,"mdeptSdrCnt":6,"lat":35.0904003,"lng":128.999001},{"id":"JDQ4MTAxMiM1MSMkMSMkMCMkOTkkMzgxMzUxIzIxIyQxIyQxIyQ3MiQyNjEwMDIjNjEjJDEjJDgjJDgz","name":"의료법인영재의료재단 큰솔병원","clCd":"21","clCdNm":"병원","sidoCd":"210000","sidoCdNm":"부산","sgguCd":"210015","sgguCdNm":"부산사상구","addr":"부산광역시 사상구 대동로 141, (학장동)","phone":"051-325-9700","hospUrl":"","estbDd":"20061017","drTotCnt":8,"mdeptSdrCnt":8,"lat":35.1409207,"lng":128.9822913},{"id":"JDQ4MTAxMiM1MSMkMSMkMCMkOTkkMzgxMzUxIzIxIyQxIyQ5IyQ4MiQ0NjEwMDIjNDEjJDEjJDgjJDgz","name":"의료법인정화의료재단봉생힐링병원","clCd":"21","clCdNm":"병원","sidoCd":"210000","sidoCdNm":"부산","sgguCd":"210001","sgguCdNm":"부산남구","addr":"부산광역시 남구 양지골로 241, (감만동)","phone":"051-668-6000","hospUrl":"","estbDd":"20230321","drTotCnt":5,"mdeptSdrCnt":5,"lat":35.1183874,"lng":129.0839621},{"id":"JDQ4MTAxMiM1MSMkMSMkMCMkOTkkMzgxMzUxIzIxIyQxIyQxIyQ3MiQzNjE0ODEjNDEjJDEjJDgjJDgz","name":"의료법인현백의료재단사상고려병원","clCd":"21","clCdNm":"병원","sidoCd":"210000","sidoCdNm":"부산","sgguCd":"210015","sgguCdNm":"부산사상구","addr":"부산광역시 사상구 사상로 282, 280일부 (덕포동)","phone":"051-301-8275","hospUrl":"","estbDd":"20080826","drTotCnt":2,"mdeptSdrCnt":2,"lat":35.1699298,"lng":128.9827982},{"id":"JDQ4MTAxMiM1MSMkMSMkMCMkOTkkMzgxMzUxIzIxIyQxIyQ1IyQxMyQyNjE0ODEjNTEjJDEjJDYjJDgz","name":"이샘병원","clCd":"21","clCdNm":"병원","sidoCd":"210000","sidoCdNm":"부산","sgguCd":"210004","sgguCdNm":"부산진구","addr":"부산광역시 부산진구 황령대로 12, 지하1층(일부), 1층(일부), 2~4층, 5층(일부), 6~8층, 9층(일부), 10층(일부) (범천동)","phone":"051-631-2110","hospUrl":"","estbDd":"20160816","drTotCnt":36,"mdeptSdrCnt":36,"lat":35.1476285,"lng":129.0611542},{"id":"JDQ4MTAxMiM1MSMkMSMkMCMkOTkkMzgxMzUxIzIxIyQxIyQ5IyQ4MiQyNjEwMDIjNjEjJDEjJDgjJDgz","name":"일광아동병원","clCd":"21","clCdNm":"병원","sidoCd":"210000","sidoCdNm":"부산","sgguCd":"210100","sgguCdNm":"부산기장군","addr":"부산광역시 기장군 일광읍 해빛6로 85-16, 일광청보리더스 6~9층","phone":"051-927-7582","hospUrl":"","estbDd":"20220823","drTotCnt":3,"mdeptSdrCnt":3,"lat":35.2656352,"lng":129.2256459},{"id":"JDQ4MTAxMiM1MSMkMSMkMCMkOTkkMzgxMzUxIzIxIyQxIyQ5IyQ5MiQzNjEyMjIjNjEjJDEjJDAjJDgz","name":"장림한서병원","clCd":"21","clCdNm":"병원","sidoCd":"210000","sidoCdNm":"부산","sgguCd":"210010","sgguCdNm":"부산사하구","addr":"부산광역시 사하구 다대로 315, /다대로317 2층,3층(일부) (장림동)","phone":"051-262-3344","hospUrl":"http://www.janglimhanseo.com","estbDd":"19920116","drTotCnt":8,"mdeptSdrCnt":8,"lat":35.0741258,"lng":128.9769707},{"id":"JDQ4MTAxMiM1MSMkMSMkMCMkOTkkMzgxMzUxIzIxIyQxIyQ1IyQwMyQ0NjEwMDIjNDEjJDEjJDQjJDgz","name":"재단법인 베스티안재단 베스티안부산병원","clCd":"21","clCdNm":"병원","sidoCd":"210000","sidoCdNm":"부산","sgguCd":"210005","sgguCdNm":"부산북구","addr":"부산광역시 북구 화명대로 1, (화명동)","phone":"051-332-7575","hospUrl":"","estbDd":"20100401","drTotCnt":5,"mdeptSdrCnt":5,"lat":35.2355818,"lng":129.0086207},{"id":"JDQ4MTAxMiM1MSMkMSMkMCMkOTkkMzgxMzUxIzIxIyQxIyQ1IyQ5MiQyNjEyMjIjNjEjJDEjJDQjJDgz","name":"재단법인 일신기독교선교회 맥켄지일신재활병원","clCd":"21","clCdNm":"병원","sidoCd":"210000","sidoCdNm":"부산","sgguCd":"210005","sgguCdNm":"부산북구","addr":"부산광역시 북구 금곡대로 133, (덕천동)","phone":"051-363-2331","hospUrl":"","estbDd":"20150327","drTotCnt":6,"mdeptSdrCnt":6,"lat":35.2209901,"lng":129.0077714},{"id":"JDQ4MTAxMiM1MSMkMSMkMCMkOTkkMzgxMzUxIzExIyQxIyQ3IyQ2MiQzNjE0ODEjNzEjJDEjJDgjJDgz","name":"재단법인 일신기독교선교회 화명일신기독병원","clCd":"21","clCdNm":"병원","sidoCd":"210000","sidoCdNm":"부산","sgguCd":"210005","sgguCdNm":"부산북구","addr":"부산광역시 북구 금곡대로 264, (화명동)","phone":"051-363-0331","hospUrl":"","estbDd":"19981224","drTotCnt":21,"mdeptSdrCnt":20,"lat":35.2318295,"lng":129.0136905},{"id":"JDQ4MTAxMiM1MSMkMSMkMCMkOTkkMzgxMzUxIzIxIyQxIyQ1IyQ2MiQzNjE4MzIjNjEjJDEjJDAjJDgz","name":"정관우리아동병원","clCd":"21","clCdNm":"병원","sidoCd":"210000","sidoCdNm":"부산","sgguCd":"210100","sgguCdNm":"부산기장군","addr":"부산광역시 기장군 정관읍 정관중앙로 56, 프라임빌딩","phone":"051-727-7812","hospUrl":"","estbDd":"20101011","drTotCnt":5,"mdeptSdrCnt":5,"lat":35.3217486,"lng":129.179536},{"id":"JDQ4MTAxMiM1MSMkMSMkMCMkOTkkMzgxMzUxIzIxIyQxIyQ1IyQ2MiQyNjEyMjIjNTEjJDEjJDYjJDgz","name":"정근안과병원","clCd":"21","clCdNm":"병원","sidoCd":"210000","sidoCdNm":"부산","sgguCd":"210004","sgguCdNm":"부산진구","addr":"부산광역시 부산진구 가야대로 767, 서면메디칼센터 1~4층(부전동) (부전동)","phone":"051-668-8000","hospUrl":"http://www.jlasik.co.kr","estbDd":"20130207","drTotCnt":6,"mdeptSdrCnt":6,"lat":35.1580587,"lng":129.0555001},{"id":"JDQ4MTAxMiM1MSMkMSMkMCMkOTkkMzgxMzUxIzExIyQxIyQ3IyQxMyQyNjEyMjIjNzEjJDEjJDgjJDgz","name":"제일여성병원","clCd":"21","clCdNm":"병원","sidoCd":"210000","sidoCdNm":"부산","sgguCd":"210009","sgguCdNm":"부산해운대구","addr":"부산광역시 해운대구 좌동로 66, (중동)","phone":"051-743-7431","hospUrl":"http://","estbDd":"20040802","drTotCnt":6,"mdeptSdrCnt":6,"lat":35.17073,"lng":129.173091},{"id":"JDQ4MTAxMiM1MSMkMSMkMCMkOTkkMzgxMzUxIzIxIyQxIyQ5IyQ5MiQzNjEwMDIjNjEjJDEjJDgjJDgz","name":"좋은날에 드라마여성병원","clCd":"21","clCdNm":"병원","sidoCd":"210000","sidoCdNm":"부산","sgguCd":"210003","sgguCdNm":"부산동래구","addr":"부산광역시 동래구 충렬대로 449, (안락동, 좋은날에드라마여성병원)","phone":"051-522-7575","hospUrl":"","estbDd":"20170529","drTotCnt":9,"mdeptSdrCnt":9,"lat":35.1961103,"lng":129.1076027},{"id":"JDQ4MTAxMiM1MSMkMSMkMCMkOTkkMzgxMzUxIzIxIyQxIyQxIyQ4OSQ0NjEwMDIjNTEjJDEjJDIjJDgz","name":"주성산 이진용맘병원","clCd":"21","clCdNm":"병원","sidoCd":"210000","sidoCdNm":"부산","sgguCd":"210013","sgguCdNm":"부산연제구","addr":"부산광역시 연제구 거제대로 295, 8~11층 (거제동)","phone":"051-868-6078","hospUrl":"","estbDd":"20141201","drTotCnt":1,"mdeptSdrCnt":1,"lat":35.1924715,"lng":129.0781372},{"id":"JDQ4MTAxMiM1MSMkMSMkMCMkOTkkMzgxMzUxIzIxIyQxIyQ5IyQwMyQ0NjE0ODEjODEjJDEjJDIjJDgz","name":"지온병원","clCd":"21","clCdNm":"병원","sidoCd":"210000","sidoCdNm":"부산","sgguCd":"210011","sgguCdNm":"부산금정구","addr":"부산광역시 금정구 온천장로 146, 지하1,지상3~11층 (장전동)","phone":"051-714-5770","hospUrl":"","estbDd":"20210331","drTotCnt":6,"mdeptSdrCnt":6,"lat":35.2235566,"lng":129.0857488},{"id":"JDQ4MTAxMiM1MSMkMSMkMCMkOTkkMzgxMzUxIzIxIyQyIyQ1IyQwMCQzNjE0ODEjNTEjJDEjJDIjJDgz","name":"척시원병원","clCd":"21","clCdNm":"병원","sidoCd":"210000","sidoCdNm":"부산","sgguCd":"210002","sgguCdNm":"부산동구","addr":"부산광역시 동구 대영로 261, (초량동, 은성빌딩)","phone":"051-463-9119","hospUrl":"http://www.conehs.co.kr/","estbDd":"20120714","drTotCnt":8,"mdeptSdrCnt":8,"lat":35.1118696,"lng":129.0392584},{"id":"JDQ4MTAxMiM1MSMkMSMkMCMkOTkkMzgxMzUxIzIxIyQxIyQ5IyQ4OSQzNjE4MzIjODEjJDEjJDYjJDgz","name":"청맥병원","clCd":"21","clCdNm":"병원","sidoCd":"210000","sidoCdNm":"부산","sgguCd":"210004","sgguCdNm":"부산진구","addr":"부산광역시 부산진구 중앙대로 716-1, 지하1~지상6층 (부전동)","phone":"051-804-1119","hospUrl":"","estbDd":"20180403","drTotCnt":5,"mdeptSdrCnt":5,"lat":35.1566938,"lng":129.0595252},{"id":"JDQ4MTAxMiM1MSMkMSMkMCMkOTkkMzgxMzUxIzIxIyQyIyQ5IyQwMCQyNjEwMDIjNjEjJDEjJDAjJDgz","name":"퀸즈파크여성병원","clCd":"21","clCdNm":"병원","sidoCd":"210000","sidoCdNm":"부산","sgguCd":"210009","sgguCdNm":"부산해운대구","addr":"부산광역시 해운대구 해운대로 794, 10~11층 (좌동)","phone":"051-715-4100","hospUrl":"","estbDd":"20190612","drTotCnt":6,"mdeptSdrCnt":6,"lat":35.168815,"lng":129.1757451},{"id":"JDQ4MTAxMiM1MSMkMSMkMCMkOTkkMzgxMzUxIzIxIyQxIyQ5IyQ3OSQ0NjEwMDIjODEjJDEjJDIjJDgz","name":"큐병원","clCd":"21","clCdNm":"병원","sidoCd":"210000","sidoCdNm":"부산","sgguCd":"210010","sgguCdNm":"부산사하구","addr":"부산광역시 사하구 낙동대로 408, (당리동)","phone":"051-207-4343","hospUrl":"","estbDd":"19950418","drTotCnt":9,"mdeptSdrCnt":9,"lat":35.1038324,"lng":128.9738822},{"id":"JDQ4MTAxMiM1MSMkMSMkMCMkOTkkMzgxMzUxIzIxIyQxIyQ5IyQ5MiQzNjE0ODEjODEjJDEjJDIjJDgz","name":"큰힘병원","clCd":"21","clCdNm":"병원","sidoCd":"210000","sidoCdNm":"부산","sgguCd":"210004","sgguCdNm":"부산진구","addr":"부산광역시 부산진구 신천대로 246, 2층 (부암동, 메리움아파트)","phone":"051-715-7500","hospUrl":"","estbDd":"20230818","drTotCnt":7,"mdeptSdrCnt":7,"lat":35.1636585,"lng":129.0511694},{"id":"JDQ4MTAxMiM1MSMkMSMkMCMkOTkkMzgxMzUxIzIxIyQxIyQxIyQwMyQzNjE0ODEjNTEjJDEjJDIjJDgz","name":"파란시티병원","clCd":"21","clCdNm":"병원","sidoCd":"210000","sidoCdNm":"부산","sgguCd":"210004","sgguCdNm":"부산진구","addr":"부산광역시 부산진구 범일로 186, 지하1,지상5~12층 (범천동)","phone":"051-607-5300","hospUrl":"http://www.hangun.com","estbDd":"20180131","drTotCnt":9,"mdeptSdrCnt":9,"lat":35.1466816,"lng":129.0596264},{"id":"JDQ4MTAxMiM1MSMkMSMkMCMkOTkkMzgxMzUxIzIxIyQxIyQ5IyQ2MiQyNjE4MzIjODEjJDEjJDIjJDgz","name":"파크병원","clCd":"21","clCdNm":"병원","sidoCd":"210000","sidoCdNm":"부산","sgguCd":"210010","sgguCdNm":"부산사하구","addr":"부산광역시 사하구 까치고개로 79-1, (괴정동)","phone":"051-201-8787","hospUrl":"","estbDd":"20200224","drTotCnt":2,"mdeptSdrCnt":1,"lat":35.1054323,"lng":129.0099353},{"id":"JDQ4MTAxMiM1MSMkMSMkMCMkOTkkMzgxMzUxIzIxIyQxIyQxIyQ4OSQzNjEwMDIjNDEjJDEjJDQjJDgz","name":"파크사이드재활의학병원","clCd":"21","clCdNm":"병원","sidoCd":"210000","sidoCdNm":"부산","sgguCd":"210001","sgguCdNm":"부산남구","addr":"부산광역시 남구 유엔평화로125번길 11-10, (대연동)","phone":"051-629-8000","hospUrl":"","estbDd":"20060925","drTotCnt":5,"mdeptSdrCnt":5,"lat":35.125183,"lng":129.0971432},{"id":"JDQ4MTAxMiM1MSMkMSMkMCMkOTkkMzgxMzUxIzExIyQxIyQ3IyQwMyQyNjEwMDIjNDEjJDEjJDgjJDgz","name":"프라임병원","clCd":"21","clCdNm":"병원","sidoCd":"210000","sidoCdNm":"부산","sgguCd":"210010","sgguCdNm":"부산사하구","addr":"부산광역시 사하구 낙동남로 1410, (하단동)","phone":"051-202-7800","hospUrl":"www.disc21.co.kr/","estbDd":"20021226","drTotCnt":6,"mdeptSdrCnt":6,"lat":35.1058783,"lng":128.9658521},{"id":"JDQ4MTAxMiM1MSMkMSMkMCMkOTkkMzgxMzUxIzExIyQyIyQ3IyQwMCQ0NjE0ODEjNTEjJDEjJDIjJDgz","name":"하나병원","clCd":"21","clCdNm":"병원","sidoCd":"210000","sidoCdNm":"부산","sgguCd":"210010","sgguCdNm":"부산사하구","addr":"부산광역시 사하구 다대로 311, (장림동)","phone":"051-266-2600","hospUrl":"www.pusanhana.co.kr/","estbDd":"20000531","drTotCnt":6,"mdeptSdrCnt":6,"lat":35.0745113,"lng":128.9769411},{"id":"JDQ4MTAxMiM1MSMkMSMkMCMkOTkkMzgxMzUxIzExIyQxIyQ3IyQwMyQ0NjEwMDIjNzEjJDEjJDgjJDgz","name":"한나병원","clCd":"21","clCdNm":"병원","sidoCd":"210000","sidoCdNm":"부산","sgguCd":"210014","sgguCdNm":"부산수영구","addr":"부산광역시 수영구 황령대로481번길 7, (남천동)","phone":"051-625-2300","hospUrl":"","estbDd":"20040612","drTotCnt":4,"mdeptSdrCnt":4,"lat":35.1391953,"lng":129.1070253},{"id":"JDQ4MTAxMiM1MSMkMSMkMCMkOTkkMzgxMzUxIzIxIyQxIyQ5IyQxMyQzNjEwMDIjNDEjJDEjJDgjJDgz","name":"한마음병원","clCd":"21","clCdNm":"병원","sidoCd":"210000","sidoCdNm":"부산","sgguCd":"210009","sgguCdNm":"부산해운대구","addr":"부산광역시 해운대구 달맞이길 30, 포디움동 2층 (중동, 엘시티)","phone":"051-744-1004","hospUrl":"https://www.han1004.co.kr/","estbDd":"20240906","drTotCnt":5,"mdeptSdrCnt":4,"lat":35.1610639,"lng":129.1683764},{"id":"JDQ4MTAxMiM1MSMkMSMkMCMkOTkkMzgxMzUxIzExIyQxIyQ3IyQxMyQzNjE4MzIjODEjJDEjJDIjJDgz","name":"한빛병원","clCd":"21","clCdNm":"병원","sidoCd":"210000","sidoCdNm":"부산","sgguCd":"210013","sgguCdNm":"부산연제구","addr":"부산광역시 연제구 과정로 140, 부산은행 4층~10층 (연산동)","phone":"051-645-2400","hospUrl":"","estbDd":"20161109","drTotCnt":4,"mdeptSdrCnt":3,"lat":35.1838224,"lng":129.1074902},{"id":"JDQ4MTAxMiM1MSMkMSMkMCMkOTkkMzgxMzUxIzExIyQxIyQ3IyQ5OSQ0NjE0ODEjNjEjJDEjJDQjJDgz","name":"한사랑내과병원","clCd":"21","clCdNm":"병원","sidoCd":"210000","sidoCdNm":"부산","sgguCd":"210005","sgguCdNm":"부산북구","addr":"부산광역시 북구 만덕대로 38, (덕천동)","phone":"051-334-1001","hospUrl":"http://www.hsrhos.co.kr","estbDd":"19960624","drTotCnt":8,"mdeptSdrCnt":8,"lat":35.2107623,"lng":129.0090884},{"id":"JDQ4MTAxMiM1MSMkMSMkMCMkOTkkMzgxMzUxIzIxIyQxIyQ1IyQ3MiQzNjE0ODEjNzEjJDEjJDgjJDgz","name":"한양류마디병원","clCd":"21","clCdNm":"병원","sidoCd":"210000","sidoCdNm":"부산","sgguCd":"210013","sgguCdNm":"부산연제구","addr":"부산광역시 연제구 과정로 272, (연산동)","phone":"051-752-1990","hospUrl":"","estbDd":"20140303","drTotCnt":8,"mdeptSdrCnt":8,"lat":35.188271,"lng":129.0977103},{"id":"JDQ4MTAxMiM1MSMkMSMkMCMkOTkkMzgxMzUxIzIxIyQyIyQ5IyQwMCQ0NjEwMDIjNDEjJDEjJDQjJDgz","name":"항스퀘어 병원","clCd":"21","clCdNm":"병원","sidoCd":"210000","sidoCdNm":"부산","sgguCd":"210010","sgguCdNm":"부산사하구","addr":"부산광역시 사하구 다대로 251, (장림동)","phone":"051-715-4242","hospUrl":"","estbDd":"20191227","drTotCnt":1,"mdeptSdrCnt":1,"lat":35.0799238,"lng":128.9776548},{"id":"JDQ4MTAxMiM1MSMkMSMkMCMkOTkkMzgxMzUxIzIxIyQxIyQ1IyQ5OSQyNjE0ODEjNTEjJDEjJDIjJDgz","name":"해운대나눔과행복병원","clCd":"21","clCdNm":"병원","sidoCd":"210000","sidoCdNm":"부산","sgguCd":"210009","sgguCdNm":"부산해운대구","addr":"부산광역시 해운대구 좌동순환로 502, 이룸제이타워 3~9층 (중동)","phone":"051-744-0123","hospUrl":"","estbDd":"20100630","drTotCnt":18,"mdeptSdrCnt":17,"lat":35.1660473,"lng":129.1690227},{"id":"JDQ4MTAxMiM1MSMkMSMkMCMkOTkkMzgxMzUxIzIxIyQxIyQ5IyQ4OSQyNjE0ODEjNDEjJDEjJDgjJDgz","name":"해운대푸른바다병원","clCd":"21","clCdNm":"병원","sidoCd":"210000","sidoCdNm":"부산","sgguCd":"210009","sgguCdNm":"부산해운대구","addr":"부산광역시 해운대구 좌동순환로 505, 센트럴메디타워 (중동)","phone":"051-714-3501","hospUrl":"","estbDd":"20180102","drTotCnt":8,"mdeptSdrCnt":8,"lat":35.165667,"lng":129.1682073},{"id":"JDQ4MTAxMiM1MSMkMSMkMCMkOTkkMzgxMzUxIzIxIyQyIyQ1IyQwMCQzNjEyMjIjODEjJDEjJDYjJDgz","name":"행복한어린이병원","clCd":"21","clCdNm":"병원","sidoCd":"210000","sidoCdNm":"부산","sgguCd":"210012","sgguCdNm":"부산강서구","addr":"부산광역시 강서구 명지국제1로 25, 우진메디컬프라 8~10층 (명지동)","phone":"051-264-9500","hospUrl":"http://www.happykiz.kr/","estbDd":"20120808","drTotCnt":4,"mdeptSdrCnt":4,"lat":35.0912878,"lng":128.9033501},{"id":"JDQ4MTAxMiM1MSMkMSMkMCMkOTkkMzgxMzUxIzIxIyQxIyQ1IyQ4MiQzNjEwMDIjNTEjJDEjJDIjJDgz","name":"화명하나병원","clCd":"21","clCdNm":"병원","sidoCd":"210000","sidoCdNm":"부산","sgguCd":"210005","sgguCdNm":"부산북구","addr":"부산광역시 북구 화명신도시로 120, (화명동)","phone":"051-331-7275","hospUrl":"","estbDd":"20141106","drTotCnt":0,"mdeptSdrCnt":0,"lat":35.2345977,"lng":129.0111527},{"id":"JDQ4MTAxMiM1MSMkMSMkMCMkOTkkMzgxMzUxIzIxIyQxIyQ5IyQ2MiQ0NjE0ODEjODEjJDEjJDYjJDgz","name":"화창한병원","clCd":"21","clCdNm":"병원","sidoCd":"210000","sidoCdNm":"부산","sgguCd":"210011","sgguCdNm":"부산금정구","addr":"부산광역시 금정구 중앙대로1685번길 12, 지하2~6층 (부곡동)","phone":"051-514-9119","hospUrl":"","estbDd":"20200730","drTotCnt":5,"mdeptSdrCnt":5,"lat":35.235235,"lng":129.0910469},{"id":"JDQ4MTAxMiM1MSMkMSMkMCMkOTkkMzgxMzUxIzExIyQxIyQ3IyQ4MiQ0NjEwMDIjNTEjJDEjJDIjJDgz","name":"효성시티병원","clCd":"21","clCdNm":"병원","sidoCd":"210000","sidoCdNm":"부산","sgguCd":"210009","sgguCdNm":"부산해운대구","addr":"부산광역시 해운대구 해운대로 135, (재송동)","phone":"051-709-3000","hospUrl":"http://www.hshos.com/","estbDd":"20070618","drTotCnt":11,"mdeptSdrCnt":11,"lat":35.1852049,"lng":129.1214789},{"id":"JDQ4MTAxMiM1MSMkMSMkMCMkOTkkMzgxMzUxIzIxIyQxIyQxIyQ4OSQ0NjE0ODEjNjEjJDEjJDAjJDgz","name":"휴병원","clCd":"21","clCdNm":"병원","sidoCd":"210000","sidoCdNm":"부산","sgguCd":"210004","sgguCdNm":"부산진구","addr":"부산광역시 부산진구 가야대로 713, 2~8, 10, 11~15층 (당감동)","phone":"051-803-9000","hospUrl":"","estbDd":"20061031","drTotCnt":12,"mdeptSdrCnt":12,"lat":35.1575928,"lng":129.0495013},{"id":"JDQ4MTAxMiM1MSMkMSMkMCMkOTkkMzgxMzUxIzIxIyQxIyQ1IyQ5MiQzNjEyMjIjODEjJDEjJDIjJDgz","name":"힘내라병원","clCd":"21","clCdNm":"병원","sidoCd":"210000","sidoCdNm":"부산","sgguCd":"210002","sgguCdNm":"부산동구","addr":"부산광역시 동구 범일로 85, (범일동, 삼미85 빌딩)","phone":"051-711-9500","hospUrl":"","estbDd":"20150713","drTotCnt":9,"mdeptSdrCnt":9,"lat":35.1377687,"lng":129.0589148},{"id":"JDQ4MTAxMiM1MSMkMSMkMCMkOTkkNTgxMzUxIzIxIyQxIyQxIyQ2MiQyNjEyMjIjNDEjJDEjJDgjJDgz","name":"(의)영님의료재단 개금중앙요양병원","clCd":"28","clCdNm":"요양병원","sidoCd":"210000","sidoCdNm":"부산","sgguCd":"210004","sgguCdNm":"부산진구","addr":"부산광역시 부산진구 개금온정로 5, 지하1,지상3층 (개금동, 성원상떼뷰)","phone":"051-582-7001","hospUrl":"http://www.개금중앙요양병원.kr/","estbDd":"20100816","drTotCnt":6,"mdeptSdrCnt":3,"lat":35.1537626,"lng":129.0247934},{"id":"JDQ4MTAxMiM1MSMkMSMkMCMkOTkkNTgxMzUxIzExIyQxIyQzIyQ4MiQyNjE4MzIjNDEjJDEjJDgjJDgz","name":"(의)피터의료재단새소망요양병원","clCd":"28","clCdNm":"요양병원","sidoCd":"210000","sidoCdNm":"부산","sgguCd":"210100","sgguCdNm":"부산기장군","addr":"부산광역시 기장군 기장읍 기장해안로 552, (기장읍)","phone":"051-722-4848","hospUrl":"","estbDd":"20050317","drTotCnt":4,"mdeptSdrCnt":2,"lat":35.2228262,"lng":129.226905},{"id":"JDQ4MTAxMiM1MSMkMSMkMCMkOTkkNTgxMzUxIzIxIyQxIyQ5IyQ3OSQyNjEwMDIjNjEjJDEjJDgjJDgz","name":"가나안요양병원","clCd":"28","clCdNm":"요양병원","sidoCd":"210000","sidoCdNm":"부산","sgguCd":"210014","sgguCdNm":"부산수영구","addr":"부산광역시 수영구 수영로 563-1, 지하1~10층 (광안동)","phone":"051-752-8000","hospUrl":"","estbDd":"20190520","drTotCnt":5,"mdeptSdrCnt":3,"lat":35.1561769,"lng":129.1124247},{"id":"JDQ4MTAxMiM1MSMkMSMkMCMkOTkkNTgxMzUxIzIxIyQxIyQ1IyQ4OSQzNjEyMjIjODEjJDEjJDIjJDgz","name":"가족사랑 요양병원","clCd":"28","clCdNm":"요양병원","sidoCd":"210000","sidoCdNm":"부산","sgguCd":"210004","sgguCdNm":"부산진구","addr":"부산광역시 부산진구 새싹로 286, 4~9층 (초읍동)","phone":"051-806-1190","hospUrl":"","estbDd":"20051212","drTotCnt":6,"mdeptSdrCnt":4,"lat":35.1816671,"lng":129.0473059},{"id":"JDQ4MTAxMiM1MSMkMSMkMCMkOTkkNTgxMzUxIzIxIyQxIyQ5IyQ4OSQzNjEyMjIjNjEjJDEjJDAjJDgz","name":"강림요양병원","clCd":"28","clCdNm":"요양병원","sidoCd":"210000","sidoCdNm":"부산","sgguCd":"210015","sgguCdNm":"부산사상구","addr":"부산광역시 사상구 낙동대로 792, (엄궁동)","phone":"051-329-9000","hospUrl":"","estbDd":"20100423","drTotCnt":9,"mdeptSdrCnt":5,"lat":35.1312796,"lng":128.9728208},{"id":"JDQ4MTAxMiM1MSMkMSMkMCMkOTkkNTgxMzUxIzIxIyQxIyQ1IyQwMyQzNjEyMjIjODEjJDEjJDYjJDgz","name":"개금길요양병원","clCd":"28","clCdNm":"요양병원","sidoCd":"210000","sidoCdNm":"부산","sgguCd":"210004","sgguCdNm":"부산진구","addr":"부산광역시 부산진구 백양대로 252, 1~7층 (개금동)","phone":"051-711-1279","hospUrl":"","estbDd":"20170908","drTotCnt":5,"mdeptSdrCnt":3,"lat":35.1563937,"lng":129.02322},{"id":"JDQ4MTAxMiM1MSMkMSMkMCMkOTkkNTgxMzUxIzIxIyQyIyQ1IyQwMCQyNjE4MzIjODEjJDEjJDIjJDgz","name":"경희요양병원","clCd":"28","clCdNm":"요양병원","sidoCd":"210000","sidoCdNm":"부산","sgguCd":"210005","sgguCdNm":"부산북구","addr":"부산광역시 북구 만덕대로 106, (덕천동)","phone":"051-333-8135","hospUrl":"","estbDd":"20100908","drTotCnt":4,"mdeptSdrCnt":2,"lat":35.2125989,"lng":129.0164317},{"id":"JDQ4MTAxMiM1MSMkMSMkMCMkOTkkNTgxMzUxIzIxIyQxIyQ1IyQ5MiQzNjEyMjIjNDEjJDEjJDgjJDgz","name":"곽요양병원","clCd":"28","clCdNm":"요양병원","sidoCd":"210000","sidoCdNm":"부산","sgguCd":"210010","sgguCdNm":"부산사하구","addr":"부산광역시 사하구 낙동남로 1361, (하단동)","phone":"051-207-5131","hospUrl":"","estbDd":"20070406","drTotCnt":6,"mdeptSdrCnt":4,"lat":35.1065177,"lng":128.9607182},{"id":"JDQ4MTAxMiM1MSMkMSMkMCMkOTkkNTgxMzUxIzIxIyQxIyQ5IyQ4OSQzNjEwMDIjNjEjJDEjJDgjJDgz","name":"광안더힐요양병원","clCd":"28","clCdNm":"요양병원","sidoCd":"210000","sidoCdNm":"부산","sgguCd":"210014","sgguCdNm":"부산수영구","addr":"부산광역시 수영구 수영로536번길 71, (광안동)","phone":"051-745-5200","hospUrl":"","estbDd":"20091216","drTotCnt":4,"mdeptSdrCnt":2,"lat":35.1527373,"lng":129.1158587},{"id":"JDQ4MTAxMiM1MSMkMSMkMCMkOTkkNTgxMzUxIzExIyQxIyQ3IyQwMyQzNjEwMDIjODEjJDEjJDIjJDgz","name":"광안정다운요양병원","clCd":"28","clCdNm":"요양병원","sidoCd":"210000","sidoCdNm":"부산","sgguCd":"210014","sgguCdNm":"부산수영구","addr":"부산광역시 수영구 광안해변로 292, 3~6층 (민락동)","phone":"051-710-0119","hospUrl":"http://www.xn--sy2btbu0l81m8hbmk.kr","estbDd":"20110208","drTotCnt":6,"mdeptSdrCnt":4,"lat":35.1560537,"lng":129.1255902},{"id":"JDQ4MTAxMiM1MSMkMSMkMCMkOTkkNTgxMzUxIzIxIyQxIyQ1IyQ5OSQ0NjE0ODEjNDEjJDEjJDgjJDgz","name":"그랜드자연요양병원","clCd":"28","clCdNm":"요양병원","sidoCd":"210000","sidoCdNm":"부산","sgguCd":"210001","sgguCdNm":"부산남구","addr":"부산광역시 남구 황령대로 355-14, (대연동)","phone":"051-612-0075","hospUrl":"","estbDd":"20071108","drTotCnt":5,"mdeptSdrCnt":3,"lat":35.1468593,"lng":129.097829},{"id":"JDQ4MTAxMiM1MSMkMSMkMCMkOTkkNTgxMzUxIzIxIyQxIyQxIyQwMyQyNjE0ODEjNTEjJDEjJDYjJDgz","name":"금정의료소비자생활협동조합 금송요양병원","clCd":"28","clCdNm":"요양병원","sidoCd":"210000","sidoCdNm":"부산","sgguCd":"210013","sgguCdNm":"부산연제구","addr":"부산광역시 연제구 중앙대로 1078, (연산동, 4,5층)","phone":"051-581-5481","hospUrl":"","estbDd":"20130502","drTotCnt":5,"mdeptSdrCnt":3,"lat":35.1839834,"lng":129.0805408},{"id":"JDQ4MTAxMiM1MSMkMSMkMCMkOTkkNTgxMzUxIzIxIyQxIyQxIyQ3MiQzNjEwMDIjNTEjJDEjJDIjJDgz","name":"금정형주요양병원","clCd":"28","clCdNm":"요양병원","sidoCd":"210000","sidoCdNm":"부산","sgguCd":"210011","sgguCdNm":"부산금정구","addr":"부산광역시 금정구 금강로 638, (남산동)","phone":"051-532-7533","hospUrl":"www.hjyoyang.co.kr/","estbDd":"20120807","drTotCnt":5,"mdeptSdrCnt":3,"lat":35.2641996,"lng":129.088895},{"id":"JDQ4MTAxMiM1MSMkMSMkMCMkOTkkNTgxMzUxIzIxIyQyIyQxIyQwMCQzNjE4MzIjNjEjJDEjJDAjJDgz","name":"기장연세요양병원","clCd":"28","clCdNm":"요양병원","sidoCd":"210000","sidoCdNm":"부산","sgguCd":"210100","sgguCdNm":"부산기장군","addr":"부산광역시 기장군 기장읍 반송로 1644, (기장읍)","phone":"741-7525","hospUrl":"","estbDd":"20120409","drTotCnt":6,"mdeptSdrCnt":3,"lat":35.2507269,"lng":129.2178113},{"id":"JDQ4MTAxMiM1MSMkMSMkMCMkOTkkNTgxMzUxIzIxIyQxIyQxIyQ4MiQ0NjEwMDIjNTEjJDEjJDIjJDgz","name":"남산정요양병원","clCd":"28","clCdNm":"요양병원","sidoCd":"210000","sidoCdNm":"부산","sgguCd":"210005","sgguCdNm":"부산북구","addr":"부산광역시 북구 만덕대로 158, (덕천동)","phone":"051-332-5060","hospUrl":"http://www.nsj.or.kr","estbDd":"20070904","drTotCnt":5,"mdeptSdrCnt":3,"lat":35.213061,"lng":129.0219608},{"id":"JDQ4MTAxMiM1MSMkMSMkMCMkOTkkNTgxMzUxIzIxIyQxIyQxIyQ5MiQyNjEwMDIjNjEjJDEjJDAjJDgz","name":"노블레스요양병원","clCd":"28","clCdNm":"요양병원","sidoCd":"210000","sidoCdNm":"부산","sgguCd":"210003","sgguCdNm":"부산동래구","addr":"부산광역시 동래구 충렬대로 437, 안락동 요양병원 (안락동)","phone":"051-532-1005","hospUrl":"","estbDd":"20070319","drTotCnt":5,"mdeptSdrCnt":3,"lat":35.196697,"lng":129.1062622},{"id":"JDQ4MTAxMiM1MSMkMSMkMCMkOTkkNTgxMzUxIzExIyQxIyQ3IyQ5OSQyNjEyMjIjNDEjJDEjJDQjJDgz","name":"다사랑요양병원","clCd":"28","clCdNm":"요양병원","sidoCd":"210000","sidoCdNm":"부산","sgguCd":"210005","sgguCdNm":"부산북구","addr":"부산광역시 북구 덕천로 339, (만덕동)","phone":"051-332-7800","hospUrl":"http://cafe.daum.net/dsr.","estbDd":"20061016","drTotCnt":0,"mdeptSdrCnt":0,"lat":35.2091397,"lng":129.0407558},{"id":"JDQ4MTAxMiM1MSMkMSMkMCMkOTkkNTgxMzUxIzIxIyQxIyQ5IyQ4OSQzNjE0ODEjODEjJDEjJDIjJDgz","name":"다시봄요양병원","clCd":"28","clCdNm":"요양병원","sidoCd":"210000","sidoCdNm":"부산","sgguCd":"210009","sgguCdNm":"부산해운대구","addr":"부산광역시 해운대구 해운대로 604, 명성빌딩 5~10층 (우동)","phone":"051-741-5668","hospUrl":"","estbDd":"20070605","drTotCnt":5,"mdeptSdrCnt":3,"lat":35.1624655,"lng":129.157347},{"id":"JDQ4MTAxMiM1MSMkMSMkMCMkOTkkNTgxMzUxIzIxIyQxIyQ1IyQ4MiQzNjE4MzIjNTEjJDEjJDIjJDgz","name":"다온요양병원","clCd":"28","clCdNm":"요양병원","sidoCd":"210000","sidoCdNm":"부산","sgguCd":"210014","sgguCdNm":"부산수영구","addr":"부산광역시 수영구 남천서로20번길 49, (남천동)","phone":"051-935-3000","hospUrl":"","estbDd":"20160223","drTotCnt":5,"mdeptSdrCnt":3,"lat":35.1461179,"lng":129.1069357},{"id":"JDQ4MTAxMiM1MSMkMSMkMCMkOTkkNTgxMzUxIzExIyQxIyQ3IyQ3OSQ0NjE0ODEjNjEjJDEjJDAjJDgz","name":"달맞이요양병원","clCd":"28","clCdNm":"요양병원","sidoCd":"210000","sidoCdNm":"부산","sgguCd":"210009","sgguCdNm":"부산해운대구","addr":"부산광역시 해운대구 달맞이길117번나길 30, (중동)","phone":"051-744-5275","hospUrl":"","estbDd":"20060530","drTotCnt":7,"mdeptSdrCnt":4,"lat":35.1584119,"lng":129.1811843},{"id":"JDQ4MTAxMiM1MSMkMSMkMCMkOTkkNTgxMzUxIzIxIyQxIyQ1IyQ5OSQyNjE4MzIjNDEjJDEjJDgjJDgz","name":"덕천요양병원","clCd":"28","clCdNm":"요양병원","sidoCd":"210000","sidoCdNm":"부산","sgguCd":"210005","sgguCdNm":"부산북구","addr":"부산광역시 북구 기찰로 2-1, (덕천동)","phone":"051-939-8800","hospUrl":"","estbDd":"20140603","drTotCnt":8,"mdeptSdrCnt":6,"lat":35.2111844,"lng":129.0054717},{"id":"JDQ4MTAxMiM1MSMkMSMkMCMkOTkkNTgxMzUxIzExIyQxIyQ3IyQ3MiQzNjEyMjIjNjEjJDEjJDAjJDgz","name":"라파요양병원","clCd":"28","clCdNm":"요양병원","sidoCd":"210000","sidoCdNm":"부산","sgguCd":"210010","sgguCdNm":"부산사하구","addr":"부산광역시 사하구 다대로 544, 3-4층 (다대동, 진요빌딩)","phone":"051-262-3457","hospUrl":"","estbDd":"20100107","drTotCnt":5,"mdeptSdrCnt":3,"lat":35.0578274,"lng":128.9709781},{"id":"JDQ4MTAxMiM1MSMkMSMkMCMkOTkkNTgxMzUxIzExIyQyIyQzIyQwMCQzNjEyMjIjNTEjJDEjJDYjJDgz","name":"미남동의요양병원","clCd":"28","clCdNm":"요양병원","sidoCd":"210000","sidoCdNm":"부산","sgguCd":"210003","sgguCdNm":"부산동래구","addr":"부산광역시 동래구 아시아드대로 239-1, (온천동)","phone":"051-507-7714","hospUrl":"","estbDd":"20140701","drTotCnt":5,"mdeptSdrCnt":3,"lat":35.2054534,"lng":129.0674535},{"id":"JDQ4MTAxMiM1MSMkMSMkMCMkOTkkNTgxMzUxIzIxIyQyIyQ1IyQwMCQyNjE0ODEjNTEjJDEjJDYjJDgz","name":"미소요양병원","clCd":"28","clCdNm":"요양병원","sidoCd":"210000","sidoCdNm":"부산","sgguCd":"210009","sgguCdNm":"부산해운대구","addr":"부산광역시 해운대구 아랫반송로6번길 37, (반송동)","phone":"051-543-9100","hospUrl":"","estbDd":"20070530","drTotCnt":4,"mdeptSdrCnt":2,"lat":35.2246667,"lng":129.1464996},{"id":"JDQ4MTAxMiM1MSMkMSMkMCMkOTkkNTgxMzUxIzExIyQxIyQ3IyQ4OSQyNjE0ODEjNjEjJDEjJDgjJDgz","name":"보람요양병원","clCd":"28","clCdNm":"요양병원","sidoCd":"210000","sidoCdNm":"부산","sgguCd":"210011","sgguCdNm":"부산금정구","addr":"부산광역시 금정구 중앙대로 1961, (구서동)","phone":"051-514-0075","hospUrl":"www.boram-hospital.co.kr/","estbDd":"20050518","drTotCnt":2,"mdeptSdrCnt":2,"lat":35.2593923,"lng":129.0910825},{"id":"JDQ4MTAxMiM1MSMkMSMkMCMkOTkkNTgxMzUxIzExIyQxIyQ3IyQ4MiQzNjEyMjIjNDEjJDEjJDgjJDgz","name":"보생요양병원","clCd":"28","clCdNm":"요양병원","sidoCd":"210000","sidoCdNm":"부산","sgguCd":"210002","sgguCdNm":"부산동구","addr":"부산광역시 동구 범일로 124, (범일동)","phone":"051-634-1121","hospUrl":"","estbDd":"20100519","drTotCnt":3,"mdeptSdrCnt":2,"lat":35.1409626,"lng":129.0596663},{"id":"JDQ4MTAxMiM1MSMkMSMkMCMkOTkkNTgxMzUxIzExIyQxIyQzIyQxMyQ0NjEwMDIjNDEjJDEjJDgjJDgz","name":"부산노인전문제2병원","clCd":"28","clCdNm":"요양병원","sidoCd":"210000","sidoCdNm":"부산","sgguCd":"210013","sgguCdNm":"부산연제구","addr":"부산광역시 연제구 월드컵대로 359, (거제동)","phone":"051-6072-0758","hospUrl":"","estbDd":"20071019","drTotCnt":5,"mdeptSdrCnt":4,"lat":35.1872822,"lng":129.0592351},{"id":"JDQ4MTAxMiM1MSMkMSMkMCMkOTkkNTgxMzUxIzIxIyQxIyQxIyQ4MiQyNjE4MzIjNTEjJDEjJDYjJDgz","name":"부산노인전문제3병원","clCd":"28","clCdNm":"요양병원","sidoCd":"210000","sidoCdNm":"부산","sgguCd":"210009","sgguCdNm":"부산해운대구","addr":"부산광역시 해운대구 해운대로469번가길 77, (우동)","phone":"051-780-5555","hospUrl":"www.busangh.com/","estbDd":"20121002","drTotCnt":7,"mdeptSdrCnt":4,"lat":35.1682538,"lng":129.1473694},{"id":"JDQ4MTAxMiM1MSMkMSMkMCMkOTkkNTgxMzUxIzIxIyQxIyQ1IyQ5OSQzNjEwMDIjNzEjJDEjJDgjJDgz","name":"부산노인전문제4병원","clCd":"28","clCdNm":"요양병원","sidoCd":"210000","sidoCdNm":"부산","sgguCd":"210010","sgguCdNm":"부산사하구","addr":"부산광역시 사하구 동매로44번길 4, (하단동)","phone":"202-1370","hospUrl":"","estbDd":"20140901","drTotCnt":6,"mdeptSdrCnt":4,"lat":35.102443,"lng":128.9631132},{"id":"JDQ4MTAxMiM1MSMkMSMkMCMkOTkkNTgxMzUxIzExIyQxIyQzIyQ3OSQ0NjE0ODEjODEjJDEjJDIjJDgz","name":"부산시노인전문제1병원","clCd":"28","clCdNm":"요양병원","sidoCd":"210000","sidoCdNm":"부산","sgguCd":"210005","sgguCdNm":"부산북구","addr":"부산광역시 북구 함박봉로 98, (만덕동)","phone":"051-342-7272","hospUrl":"http://www.busangh.co.kr","estbDd":"20050124","drTotCnt":5,"mdeptSdrCnt":4,"lat":35.2061222,"lng":129.0281998},{"id":"JDQ4MTAxMiM1MSMkMSMkMCMkOTkkNTgxMzUxIzIxIyQxIyQxIyQ4MiQzNjEwMDIjNDEjJDEjJDQjJDgz","name":"사단법인청색회 연지그린요양병원","clCd":"28","clCdNm":"요양병원","sidoCd":"210000","sidoCdNm":"부산","sgguCd":"210004","sgguCdNm":"부산진구","addr":"부산광역시 부산진구 새싹로 186, (연지동)","phone":"051-928-6000","hospUrl":"","estbDd":"20121022","drTotCnt":4,"mdeptSdrCnt":2,"lat":35.1728103,"lng":129.0496884},{"id":"JDQ4MTAxMiM1MSMkMSMkMCMkOTkkNTgxMzUxIzExIyQxIyQzIyQ5MiQ0NjE0ODEjODEjJDEjJDYjJDgz","name":"사랑요양병원","clCd":"28","clCdNm":"요양병원","sidoCd":"210000","sidoCdNm":"부산","sgguCd":"210011","sgguCdNm":"부산금정구","addr":"부산광역시 금정구 중앙대로 1590, (부곡동)","phone":"051-514-7277","hospUrl":"http://www.sarangmedicare.co.kr","estbDd":"20070522","drTotCnt":4,"mdeptSdrCnt":2,"lat":35.2265843,"lng":129.0896693},{"id":"JDQ4MTAxMiM1MSMkMSMkMCMkOTkkNTgxMzUxIzIxIyQxIyQ1IyQxMyQ0NjE0ODEjNTEjJDEjJDIjJDgz","name":"사직요양병원","clCd":"28","clCdNm":"요양병원","sidoCd":"210000","sidoCdNm":"부산","sgguCd":"210003","sgguCdNm":"부산동래구","addr":"부산광역시 동래구 충렬대로 97, (온천동)","phone":"051-931-7000","hospUrl":"","estbDd":"20140916","drTotCnt":6,"mdeptSdrCnt":3,"lat":35.2073474,"lng":129.0718307},{"id":"JDQ4MTAxMiM1MSMkMSMkMCMkOTkkNTgxMzUxIzExIyQxIyQ3IyQ5OSQyNjE4MzIjODEjJDEjJDIjJDgz","name":"사회복지법인 동남복지재단 부산은빛요양병원","clCd":"28","clCdNm":"요양병원","sidoCd":"210000","sidoCdNm":"부산","sgguCd":"210005","sgguCdNm":"부산북구","addr":"부산광역시 북구 백양대로1048번길 10, (구포동)","phone":"051-333-0707","hospUrl":"","estbDd":"20150424","drTotCnt":5,"mdeptSdrCnt":3,"lat":35.198363,"lng":128.9966153},{"id":"JDQ4MTAxMiM1MSMkMSMkMCMkOTkkNTgxMzUxIzIxIyQxIyQ1IyQ5OSQzNjEyMjIjNjEjJDEjJDQjJDgz","name":"삼인요양병원","clCd":"28","clCdNm":"요양병원","sidoCd":"210000","sidoCdNm":"부산","sgguCd":"210015","sgguCdNm":"부산사상구","addr":"부산광역시 사상구 대동로 95, 5층, 8~10층 (학장동)","phone":"051-327-3333","hospUrl":"","estbDd":"20140904","drTotCnt":6,"mdeptSdrCnt":3,"lat":35.1384964,"lng":128.9779261},{"id":"JDQ4MTAxMiM1MSMkMSMkMCMkOTkkNTgxMzUxIzIxIyQxIyQ1IyQ5OSQzNjE4MzIjNTEjJDEjJDYjJDgz","name":"새라새요양병원","clCd":"28","clCdNm":"요양병원","sidoCd":"210000","sidoCdNm":"부산","sgguCd":"210001","sgguCdNm":"부산남구","addr":"부산광역시 남구 석포로26번길 17, (감만동)","phone":"051-628-6005","hospUrl":"","estbDd":"20140929","drTotCnt":7,"mdeptSdrCnt":6,"lat":35.121835,"lng":129.0845486},{"id":"JDQ4MTAxMiM1MSMkMSMkMCMkOTkkNTgxMzUxIzExIyQxIyQ3IyQ5MiQzNjEyMjIjODEjJDEjJDYjJDgz","name":"서동제일요양병원","clCd":"28","clCdNm":"요양병원","sidoCd":"210000","sidoCdNm":"부산","sgguCd":"210011","sgguCdNm":"부산금정구","addr":"부산광역시 금정구 서동로 172, 지하1,2지상3~9층 (서동)","phone":"051-529-5500","hospUrl":"","estbDd":"20070920","drTotCnt":5,"mdeptSdrCnt":3,"lat":35.2143872,"lng":129.1051966},{"id":"JDQ4MTAxMiM1MSMkMSMkMCMkOTkkNTgxMzUxIzIxIyQxIyQ5IyQ3OSQ0NjE0ODEjNTEjJDEjJDYjJDgz","name":"서울우리요양병원","clCd":"28","clCdNm":"요양병원","sidoCd":"210000","sidoCdNm":"부산","sgguCd":"210005","sgguCdNm":"부산북구","addr":"부산광역시 북구 화명대로 42, (화명동)","phone":"051-361-3500","hospUrl":"http://wooriyoyang.kr","estbDd":"20101217","drTotCnt":6,"mdeptSdrCnt":2,"lat":35.2344122,"lng":129.0126896},{"id":"JDQ4MTAxMiM1MSMkMSMkMCMkOTkkNTgxMzUxIzIxIyQxIyQ1IyQ4MiQzNjEyMjIjNjEjJDEjJDAjJDgz","name":"선안요양병원","clCd":"28","clCdNm":"요양병원","sidoCd":"210000","sidoCdNm":"부산","sgguCd":"210010","sgguCdNm":"부산사하구","addr":"부산광역시 사하구 다대로 616, (다대동)","phone":"051-600-3800","hospUrl":"","estbDd":"20151210","drTotCnt":3,"mdeptSdrCnt":1,"lat":35.0516288,"lng":128.9705052},{"id":"JDQ4MTAxMiM1MSMkMSMkMCMkOTkkNTgxMzUxIzIxIyQxIyQxIyQxMyQ0NjE0ODEjNjEjJDEjJDgjJDgz","name":"선하요양병원","clCd":"28","clCdNm":"요양병원","sidoCd":"210000","sidoCdNm":"부산","sgguCd":"210006","sgguCdNm":"부산서구","addr":"부산광역시 서구 구덕로200번길 8, (부민동1가)","phone":"051-714-1714","hospUrl":"","estbDd":"20131119","drTotCnt":3,"mdeptSdrCnt":2,"lat":35.1023859,"lng":129.020337},{"id":"JDQ4MTAxMiM1MSMkMSMkMCMkOTkkNTgxMzUxIzIxIyQxIyQ1IyQ3MiQyNjEyMjIjNjEjJDEjJDAjJDgz","name":"성산현대요양병원","clCd":"28","clCdNm":"요양병원","sidoCd":"210000","sidoCdNm":"부산","sgguCd":"210003","sgguCdNm":"부산동래구","addr":"부산광역시 동래구 시실로 12, (명륜동)","phone":"051-555-6533","hospUrl":"","estbDd":"20061226","drTotCnt":6,"mdeptSdrCnt":3,"lat":35.2174024,"lng":129.0853661},{"id":"JDQ4MTAxMiM1MSMkMSMkMCMkOTkkNTgxMzUxIzIxIyQxIyQ5IyQ4OSQyNjEwMDIjNTEjJDEjJDYjJDgz","name":"세원요양병원","clCd":"28","clCdNm":"요양병원","sidoCd":"210000","sidoCdNm":"부산","sgguCd":"210006","sgguCdNm":"부산서구","addr":"부산광역시 서구 충무대로 246-246, 101동 2층 203호 (남부민동, 현대타운)","phone":"051-250-3000","hospUrl":"","estbDd":"20101108","drTotCnt":3,"mdeptSdrCnt":2,"lat":35.0925369,"lng":129.0242546},{"id":"JDQ4MTAxMiM1MSMkMSMkMCMkOTkkNTgxMzUxIzIxIyQxIyQ5IyQ4OSQyNjE4MzIjNDEjJDEjJDQjJDgz","name":"세인요양병원","clCd":"28","clCdNm":"요양병원","sidoCd":"210000","sidoCdNm":"부산","sgguCd":"210003","sgguCdNm":"부산동래구","addr":"부산광역시 동래구 여고로 5, (사직동)","phone":"051-501-7500","hospUrl":"","estbDd":"20210827","drTotCnt":8,"mdeptSdrCnt":5,"lat":35.1953494,"lng":129.064576},{"id":"JDQ4MTAxMiM1MSMkMSMkMCMkOTkkNTgxMzUxIzIxIyQxIyQxIyQ5OSQyNjEwMDIjODEjJDEjJDIjJDgz","name":"센텀이루다요양병원","clCd":"28","clCdNm":"요양병원","sidoCd":"210000","sidoCdNm":"부산","sgguCd":"210009","sgguCdNm":"부산해운대구","addr":"부산광역시 해운대구 APEC로 17, 센텀리더스마크, 1.2층일부, 3층, 5~8층 (우동)","phone":"051-608-7000","hospUrl":"","estbDd":"20140701","drTotCnt":9,"mdeptSdrCnt":6,"lat":35.1659261,"lng":129.1324308},{"id":"JDQ4MTAxMiM1MSMkMSMkMCMkOTkkNTgxMzUxIzIxIyQxIyQ5IyQ4OSQ0NjEwMDIjODEjJDEjJDYjJDgz","name":"센텀파크요양병원","clCd":"28","clCdNm":"요양병원","sidoCd":"210000","sidoCdNm":"부산","sgguCd":"210009","sgguCdNm":"부산해운대구","addr":"부산광역시 해운대구 재반로 137, (재송동)","phone":"051-781-2600","hospUrl":"","estbDd":"20231226","drTotCnt":8,"mdeptSdrCnt":5,"lat":35.1905809,"lng":129.1270729},{"id":"JDQ4MTAxMiM1MSMkMSMkMCMkOTkkNTgxMzUxIzIxIyQxIyQ5IyQ4OSQ0NjE0ODEjNDEjJDEjJDgjJDgz","name":"센텀해인요양병원","clCd":"28","clCdNm":"요양병원","sidoCd":"210000","sidoCdNm":"부산","sgguCd":"210014","sgguCdNm":"부산수영구","addr":"부산광역시 수영구 수영로 671, 5층~11층 (광안동)","phone":"051-755-8555","hospUrl":"https://www.centumhaein.com","estbDd":"20160920","drTotCnt":6,"mdeptSdrCnt":5,"lat":35.1657592,"lng":129.1144799},{"id":"JDQ4MTAxMiM1MSMkMSMkMCMkOTkkNTgxMzUxIzExIyQxIyQzIyQxMyQyNjE4MzIjNTEjJDEjJDIjJDgz","name":"송도요양병원","clCd":"28","clCdNm":"요양병원","sidoCd":"210000","sidoCdNm":"부산","sgguCd":"210006","sgguCdNm":"부산서구","addr":"부산광역시 서구 암남공원로 522, (암남동)","phone":"051-244-3315","hospUrl":"www.songdohosp.co.kr/","estbDd":"20051117","drTotCnt":11,"mdeptSdrCnt":7,"lat":35.079737,"lng":129.012138},{"id":"JDQ4MTAxMiM1MSMkMSMkMCMkOTkkNTgxMzUxIzExIyQxIyQ3IyQ3OSQyNjEwMDIjNzEjJDEjJDgjJDgz","name":"심당요양병원","clCd":"28","clCdNm":"요양병원","sidoCd":"210000","sidoCdNm":"부산","sgguCd":"210008","sgguCdNm":"부산중구","addr":"부산광역시 중구 동광길 179, (영주동)","phone":"051-464-1010","hospUrl":"www.simdang.co.kr/","estbDd":"20071205","drTotCnt":6,"mdeptSdrCnt":2,"lat":35.1105954,"lng":129.036887},{"id":"JDQ4MTAxMiM1MSMkMSMkMCMkOTkkNTgxMzUxIzIxIyQxIyQ1IyQ5MiQyNjE4MzIjNzEjJDEjJDgjJDgz","name":"아시아드 요양병원","clCd":"28","clCdNm":"요양병원","sidoCd":"210000","sidoCdNm":"부산","sgguCd":"210013","sgguCdNm":"부산연제구","addr":"부산광역시 연제구 월드컵대로 161, (연산동)","phone":"051-717-0123","hospUrl":"","estbDd":"20160407","drTotCnt":7,"mdeptSdrCnt":5,"lat":35.186775,"lng":129.078628},{"id":"JDQ4MTAxMiM1MSMkMSMkMCMkOTkkNTgxMzUxIzExIyQxIyQzIyQ3MiQ0NjE0ODEjNjEjJDEjJDAjJDgz","name":"아하브요양병원","clCd":"28","clCdNm":"요양병원","sidoCd":"210000","sidoCdNm":"부산","sgguCd":"210005","sgguCdNm":"부산북구","addr":"부산광역시 북구 만덕고개길 84, 아하브병원 6층, 7층일부층 (만덕동)","phone":"051-333-8600","hospUrl":"","estbDd":"20031222","drTotCnt":2,"mdeptSdrCnt":1,"lat":35.2117162,"lng":129.0489295},{"id":"JDQ4MTAxMiM1MSMkMSMkMCMkOTkkNTgxMzUxIzIxIyQxIyQ1IyQ5MiQyNjE0ODEjNTEjJDEjJDIjJDgz","name":"양지요양병원","clCd":"28","clCdNm":"요양병원","sidoCd":"210000","sidoCdNm":"부산","sgguCd":"210011","sgguCdNm":"부산금정구","addr":"부산광역시 금정구 부곡로 56, 양지요양병원 (부곡동)","phone":"051-582-5757","hospUrl":"","estbDd":"20160316","drTotCnt":3,"mdeptSdrCnt":2,"lat":35.2210799,"lng":129.0895673},{"id":"JDQ4MTAxMiM1MSMkMSMkMCMkOTkkNTgxMzUxIzIxIyQxIyQ1IyQ2MiQyNjE0ODEjNDEjJDEjJDgjJDgz","name":"연산관자재요양병원","clCd":"28","clCdNm":"요양병원","sidoCd":"210000","sidoCdNm":"부산","sgguCd":"210013","sgguCdNm":"부산연제구","addr":"부산광역시 연제구 과정로 128, (연산동)","phone":"051-257-9898","hospUrl":"","estbDd":"20150508","drTotCnt":8,"mdeptSdrCnt":5,"lat":35.1828899,"lng":129.1075006},{"id":"JDQ4MTAxMiM1MSMkMSMkMCMkOTkkNTgxMzUxIzIxIyQxIyQ1IyQ2MiQzNjEwMDIjNDEjJDEjJDgjJDgz","name":"연산인제요양병원","clCd":"28","clCdNm":"요양병원","sidoCd":"210000","sidoCdNm":"부산","sgguCd":"210013","sgguCdNm":"부산연제구","addr":"부산광역시 연제구 과정로 152, 4,5층 (연산동)","phone":"051-757-8007","hospUrl":"","estbDd":"20150629","drTotCnt":3,"mdeptSdrCnt":2,"lat":35.1850744,"lng":129.1074492},{"id":"JDQ4MTAxMiM1MSMkMSMkMCMkOTkkNTgxMzUxIzIxIyQxIyQxIyQwMyQ0NjE0ODEjODEjJDEjJDYjJDgz","name":"용당요양병원","clCd":"28","clCdNm":"요양병원","sidoCd":"210000","sidoCdNm":"부산","sgguCd":"210001","sgguCdNm":"부산남구","addr":"부산광역시 남구 신선로 429, (용당동)","phone":"051-625-3001","hospUrl":"","estbDd":"20130702","drTotCnt":4,"mdeptSdrCnt":3,"lat":35.1235447,"lng":129.0991261},{"id":"JDQ4MTAxMiM1MSMkMSMkMCMkOTkkNTgxMzUxIzIxIyQxIyQ1IyQ5OSQyNjEyMjIjNTEjJDEjJDIjJDgz","name":"우리행복요양병원","clCd":"28","clCdNm":"요양병원","sidoCd":"210000","sidoCdNm":"부산","sgguCd":"210013","sgguCdNm":"부산연제구","addr":"부산광역시 연제구 과정로 130, (연산동, 1층(일부제외)∼8층)","phone":"051-759-9119","hospUrl":"","estbDd":"20070313","drTotCnt":5,"mdeptSdrCnt":3,"lat":35.1830486,"lng":129.107458},{"id":"JDQ4MTAxMiM1MSMkMSMkMCMkOTkkNTgxMzUxIzExIyQxIyQzIyQxMyQzNjEyMjIjNzEjJDEjJDgjJDgz","name":"윌리스요양병원","clCd":"28","clCdNm":"요양병원","sidoCd":"210000","sidoCdNm":"부산","sgguCd":"210001","sgguCdNm":"부산남구","addr":"부산광역시 남구 수영로 185-7, (대연동)","phone":"051-638-7575","hospUrl":"www.willishospital.co.kr/","estbDd":"20070409","drTotCnt":5,"mdeptSdrCnt":3,"lat":35.1353207,"lng":129.0865786},{"id":"JDQ4MTAxMiM1MSMkMSMkMCMkOTkkNTgxMzUxIzExIyQxIyQ3IyQ3MiQyNjEwMDIjNTEjJDEjJDYjJDgz","name":"으뜸요양병원","clCd":"28","clCdNm":"요양병원","sidoCd":"210000","sidoCdNm":"부산","sgguCd":"210003","sgguCdNm":"부산동래구","addr":"부산광역시 동래구 충렬대로 120, (온천동)","phone":"051-500-1500","hospUrl":"","estbDd":"20070302","drTotCnt":5,"mdeptSdrCnt":3,"lat":35.206008,"lng":129.0734809},{"id":"JDQ4MTAxMiM1MSMkMSMkMCMkOTkkNTgxMzUxIzExIyQxIyQzIyQ4MiQyNjE0ODEjNjEjJDEjJDgjJDgz","name":"의)은성의료재단 좋은애인요양병원","clCd":"28","clCdNm":"요양병원","sidoCd":"210000","sidoCdNm":"부산","sgguCd":"210003","sgguCdNm":"부산동래구","addr":"부산광역시 동래구 충렬대로359번길 8, 좋은애인요양병원 지하2~지상8층 (안락동)","phone":"051-520-7700","hospUrl":"http://www.aein.or.kr","estbDd":"20061122","drTotCnt":9,"mdeptSdrCnt":6,"lat":35.1982816,"lng":129.0985742},{"id":"JDQ4MTAxMiM1MSMkMSMkMCMkOTkkNTgxMzUxIzIxIyQyIyQxIyQwMCQyNjEyMjIjNTEjJDEjJDYjJDgz","name":"의료법인 강혜의료재단 사랑의요양병원","clCd":"28","clCdNm":"요양병원","sidoCd":"210000","sidoCdNm":"부산","sgguCd":"210015","sgguCdNm":"부산사상구","addr":"부산광역시 사상구 대동로 2, 사랑의요양병원 본관 2~10층 (엄궁동)","phone":"051-327-9000","hospUrl":"","estbDd":"20060901","drTotCnt":7,"mdeptSdrCnt":5,"lat":35.1316291,"lng":128.9727544},{"id":"JDQ4MTAxMiM1MSMkMSMkMCMkOTkkNTgxMzUxIzIxIyQxIyQ1IyQwMyQyNjEwMDIjODEjJDEjJDIjJDgz","name":"의료법인 강혜의료재단 온천사랑의요양병원","clCd":"28","clCdNm":"요양병원","sidoCd":"210000","sidoCdNm":"부산","sgguCd":"210003","sgguCdNm":"부산동래구","addr":"부산광역시 동래구 금강공원로 40, (온천동)","phone":"051-500-9000","hospUrl":"","estbDd":"20161229","drTotCnt":12,"mdeptSdrCnt":9,"lat":35.2191356,"lng":129.0802116},{"id":"JDQ4MTAxMiM1MSMkMSMkMCMkOTkkNTgxMzUxIzIxIyQxIyQ1IyQwMyQzNjE4MzIjNzEjJDEjJDgjJDgz","name":"의료법인 굿타임의료재단 타임요양병원","clCd":"28","clCdNm":"요양병원","sidoCd":"210000","sidoCdNm":"부산","sgguCd":"210010","sgguCdNm":"부산사하구","addr":"부산광역시 사하구 다대로 607, (다대동)","phone":"791-2222","hospUrl":"","estbDd":"20170914","drTotCnt":6,"mdeptSdrCnt":3,"lat":35.0521422,"lng":128.9712974},{"id":"JDQ4MTAxMiM1MSMkMSMkMCMkOTkkNTgxMzUxIzIxIyQxIyQ5IyQ4OSQzNjE4MzIjNTEjJDEjJDIjJDgz","name":"의료법인 나라의료재단 스마트나라요양병원","clCd":"28","clCdNm":"요양병원","sidoCd":"210000","sidoCdNm":"부산","sgguCd":"210015","sgguCdNm":"부산사상구","addr":"부산광역시 사상구 낙동대로 1026, (감전동)","phone":"051-995-7799","hospUrl":"","estbDd":"20230120","drTotCnt":11,"mdeptSdrCnt":8,"lat":35.1516516,"lng":128.9729491},{"id":"JDQ4MTAxMiM1MSMkMSMkMCMkOTkkNTgxMzUxIzExIyQxIyQ3IyQwMyQyNjE0ODEjNzEjJDEjJDgjJDgz","name":"의료법인 다정의료재단 금산요양병원","clCd":"28","clCdNm":"요양병원","sidoCd":"210000","sidoCdNm":"부산","sgguCd":"210013","sgguCdNm":"부산연제구","addr":"부산광역시 연제구 중앙대로 1078, (연산동)","phone":"051-867-3171","hospUrl":"http://cityhospital.kr","estbDd":"20090603","drTotCnt":0,"mdeptSdrCnt":0,"lat":35.1839834,"lng":129.0805408},{"id":"JDQ4MTAxMiM1MSMkMSMkMCMkOTkkNTgxMzUxIzIxIyQxIyQxIyQ5OSQyNjE0ODEjNDEjJDEjJDQjJDgz","name":"의료법인 동일의료재단 금정나라요양병원","clCd":"28","clCdNm":"요양병원","sidoCd":"210000","sidoCdNm":"부산","sgguCd":"210011","sgguCdNm":"부산금정구","addr":"부산광역시 금정구 무학송로 143, (부곡동)","phone":"051-513-1284","hospUrl":"http://naranetwork.net","estbDd":"20061127","drTotCnt":7,"mdeptSdrCnt":5,"lat":35.2439302,"lng":129.0938258},{"id":"JDQ4MTAxMiM1MSMkMSMkMCMkOTkkNTgxMzUxIzIxIyQxIyQ1IyQwMyQyNjE4MzIjNjEjJDEjJDAjJDgz","name":"의료법인 사랑나눔의료재단 에보스요양병원","clCd":"28","clCdNm":"요양병원","sidoCd":"210000","sidoCdNm":"부산","sgguCd":"210004","sgguCdNm":"부산진구","addr":"부산광역시 부산진구 동천로107번길 8, (부전동)","phone":"051-816-9595","hospUrl":"","estbDd":"20170607","drTotCnt":3,"mdeptSdrCnt":2,"lat":35.1584338,"lng":129.0617801},{"id":"JDQ4MTAxMiM1MSMkMSMkMCMkOTkkNTgxMzUxIzIxIyQxIyQ1IyQwMyQzNjE0ODEjNTEjJDEjJDIjJDgz","name":"의료법인 서원의료재단 감로수요양병원","clCd":"28","clCdNm":"요양병원","sidoCd":"210000","sidoCdNm":"부산","sgguCd":"210015","sgguCdNm":"부산사상구","addr":"부산광역시 사상구 덕상로 116-38, (모라동)","phone":"051-315-0030","hospUrl":"","estbDd":"20170602","drTotCnt":3,"mdeptSdrCnt":2,"lat":35.1817016,"lng":128.992465},{"id":"JDQ4MTAxMiM1MSMkMSMkMCMkOTkkNTgxMzUxIzIxIyQxIyQxIyQ3OSQyNjE4MzIjNDEjJDEjJDQjJDgz","name":"의료법인 성원의료재단 감천참편한요양병원","clCd":"28","clCdNm":"요양병원","sidoCd":"210000","sidoCdNm":"부산","sgguCd":"210010","sgguCdNm":"부산사하구","addr":"부산광역시 사하구 감천로 125, (감천동, 우리빌딩)","phone":"051-204-9998","hospUrl":"http://www.champyonhan.com/","estbDd":"20060912","drTotCnt":8,"mdeptSdrCnt":5,"lat":35.0876923,"lng":129.005608},{"id":"JDQ4MTAxMiM1MSMkMSMkMCMkOTkkNTgxMzUxIzIxIyQxIyQxIyQ2MiQzNjE4MzIjNDEjJDEjJDgjJDgz","name":"의료법인 성원의료재단 영도참편한 요양병원","clCd":"28","clCdNm":"요양병원","sidoCd":"210000","sidoCdNm":"부산","sgguCd":"210007","sgguCdNm":"부산영도구","addr":"부산광역시 영도구 동삼서로 21, (동삼동, 영도참편한요양병원)","phone":"403-9971","hospUrl":"","estbDd":"20120613","drTotCnt":8,"mdeptSdrCnt":5,"lat":35.0808554,"lng":129.0686962},{"id":"JDQ4MTAxMiM1MSMkMSMkMCMkOTkkNTgxMzUxIzIxIyQxIyQ1IyQ5OSQ0NjEwMDIjNDEjJDEjJDQjJDgz","name":"의료법인 성은의료재단 연산요양병원","clCd":"28","clCdNm":"요양병원","sidoCd":"210000","sidoCdNm":"부산","sgguCd":"210013","sgguCdNm":"부산연제구","addr":"부산광역시 연제구 배산북로 50, (연산동, C동 1~6층(일부 제외))","phone":"051-866-5300","hospUrl":"","estbDd":"20141001","drTotCnt":6,"mdeptSdrCnt":4,"lat":35.1783372,"lng":129.094698},{"id":"JDQ4MTAxMiM1MSMkMSMkMCMkOTkkNTgxMzUxIzIxIyQxIyQ1IyQxMyQyNjE0ODEjNzEjJDEjJDgjJDgz","name":"의료법인 신암의료재단 제일요양병원","clCd":"28","clCdNm":"요양병원","sidoCd":"210000","sidoCdNm":"부산","sgguCd":"210010","sgguCdNm":"부산사하구","addr":"부산광역시 사하구 동매로44번길 8, (하단동)","phone":"202-8899","hospUrl":"","estbDd":"20180212","drTotCnt":2,"mdeptSdrCnt":1,"lat":35.1028686,"lng":128.9631225},{"id":"JDQ4MTAxMiM1MSMkMSMkMCMkOTkkNTgxMzUxIzExIyQyIyQ3IyQwMCQyNjEwMDIjODEjJDEjJDYjJDgz","name":"의료법인 영신의료재단 동래유유요양병원","clCd":"28","clCdNm":"요양병원","sidoCd":"210000","sidoCdNm":"부산","sgguCd":"210003","sgguCdNm":"부산동래구","addr":"부산광역시 동래구 금강로 64, (온천동)","phone":"051-555-7588","hospUrl":"","estbDd":"20081226","drTotCnt":5,"mdeptSdrCnt":3,"lat":35.2149053,"lng":129.077549},{"id":"JDQ4MTAxMiM1MSMkMSMkMCMkOTkkNTgxMzUxIzExIyQxIyQzIyQ5OSQyNjEwMDIjNjEjJDEjJDQjJDgz","name":"의료법인 영파의료재단 규림요양병원","clCd":"28","clCdNm":"요양병원","sidoCd":"210000","sidoCdNm":"부산","sgguCd":"210011","sgguCdNm":"부산금정구","addr":"부산광역시 금정구 금샘로 59, (장전동)","phone":"051-582-1234","hospUrl":"","estbDd":"20051014","drTotCnt":8,"mdeptSdrCnt":5,"lat":35.2307264,"lng":129.0759887},{"id":"JDQ4MTAxMiM1MSMkMSMkMCMkOTkkNTgxMzUxIzIxIyQxIyQ1IyQwMyQ0NjEwMDIjNTEjJDEjJDYjJDgz","name":"의료법인 온그룹의료재단 온요양병원","clCd":"28","clCdNm":"요양병원","sidoCd":"210000","sidoCdNm":"부산","sgguCd":"210004","sgguCdNm":"부산진구","addr":"부산광역시 부산진구 가야대로 721, 신관 8층 일부, 9~14층 전부, 15층 일부, 16층 전부, 본관 12층 일부 (당감동)","phone":"051-607-0810","hospUrl":"","estbDd":"20180122","drTotCnt":16,"mdeptSdrCnt":9,"lat":35.1578994,"lng":129.0499565},{"id":"JDQ4MTAxMiM1MSMkMSMkMCMkOTkkNTgxMzUxIzExIyQxIyQ3IyQxMyQyNjEyMjIjNDEjJDEjJDgjJDgz","name":"의료법인 온의료재단 신세계요양병원","clCd":"28","clCdNm":"요양병원","sidoCd":"210000","sidoCdNm":"부산","sgguCd":"210003","sgguCdNm":"부산동래구","addr":"부산광역시 동래구 온천장로 40, (온천동)","phone":"051-554-8811","hospUrl":"","estbDd":"20091110","drTotCnt":5,"mdeptSdrCnt":3,"lat":35.2156776,"lng":129.0797099},{"id":"JDQ4MTAxMiM1MSMkMSMkMCMkOTkkNTgxMzUxIzExIyQxIyQ3IyQ4MiQzNjE0ODEjNjEjJDEjJDQjJDgz","name":"의료법인 윤재의료재단 금강요양병원","clCd":"28","clCdNm":"요양병원","sidoCd":"210000","sidoCdNm":"부산","sgguCd":"210003","sgguCdNm":"부산동래구","addr":"부산광역시 동래구 금강공원로 32, (온천동)","phone":"051-555-5850","hospUrl":"","estbDd":"20100423","drTotCnt":7,"mdeptSdrCnt":5,"lat":35.2191798,"lng":129.081093},{"id":"JDQ4MTAxMiM1MSMkMSMkMCMkOTkkNTgxMzUxIzIxIyQxIyQxIyQ3OSQzNjEyMjIjNjEjJDEjJDAjJDgz","name":"의료법인 윤재의료재단 금정요양병원","clCd":"28","clCdNm":"요양병원","sidoCd":"210000","sidoCdNm":"부산","sgguCd":"210003","sgguCdNm":"부산동래구","addr":"부산광역시 동래구 금강로 141, (온천동)","phone":"051-581-5757","hospUrl":"","estbDd":"20110614","drTotCnt":3,"mdeptSdrCnt":2,"lat":35.2213128,"lng":129.0805399},{"id":"JDQ4MTAxMiM1MSMkMSMkMCMkOTkkNTgxMzUxIzExIyQxIyQ3IyQ3OSQzNjE4MzIjNjEjJDEjJDgjJDgz","name":"의료법인 은빛의료재단 참사랑요양병원","clCd":"28","clCdNm":"요양병원","sidoCd":"210000","sidoCdNm":"부산","sgguCd":"210003","sgguCdNm":"부산동래구","addr":"부산광역시 동래구 충렬대로 258, 참사랑요양병원 1-3일부,6-11층 (낙민동)","phone":"051-553-0050","hospUrl":"http://www.cham-love.kr","estbDd":"20060621","drTotCnt":9,"mdeptSdrCnt":6,"lat":35.2007335,"lng":129.0873078},{"id":"JDQ4MTAxMiM1MSMkMSMkMCMkOTkkNTgxMzUxIzIxIyQxIyQxIyQ5MiQzNjE4MzIjNTEjJDEjJDYjJDgz","name":"의료법인 은성의료재단 좋은리버뷰요양병원","clCd":"28","clCdNm":"요양병원","sidoCd":"210000","sidoCdNm":"부산","sgguCd":"210005","sgguCdNm":"부산북구","addr":"부산광역시 북구 금곡대로 586, (금곡동)","phone":"051-995-0900","hospUrl":"","estbDd":"20130403","drTotCnt":8,"mdeptSdrCnt":5,"lat":35.2595976,"lng":129.0137969},{"id":"JDQ4MTAxMiM1MSMkMSMkMCMkOTkkNTgxMzUxIzIxIyQxIyQ1IyQ3OSQyNjEwMDIjNDEjJDEjJDQjJDgz","name":"의료법인 은성의료재단 좋은부산요양병원","clCd":"28","clCdNm":"요양병원","sidoCd":"210000","sidoCdNm":"부산","sgguCd":"210015","sgguCdNm":"부산사상구","addr":"부산광역시 사상구 학감대로39번길 67, (학장동)","phone":"051-326-0900","hospUrl":"","estbDd":"20100719","drTotCnt":7,"mdeptSdrCnt":5,"lat":35.133499,"lng":128.996512},{"id":"JDQ4MTAxMiM1MSMkMSMkMCMkOTkkNTgxMzUxIzIxIyQxIyQ1IyQ5OSQyNjE0ODEjNjEjJDEjJDgjJDgz","name":"의료법인 은성의료재단 좋은주례요양병원","clCd":"28","clCdNm":"요양병원","sidoCd":"210000","sidoCdNm":"부산","sgguCd":"210015","sgguCdNm":"부산사상구","addr":"부산광역시 사상구 가야대로 264, (주례동)","phone":"051-325-0300","hospUrl":"","estbDd":"20140429","drTotCnt":0,"mdeptSdrCnt":0,"lat":35.1500632,"lng":129.0014726},{"id":"JDQ4MTAxMiM1MSMkMSMkMCMkOTkkNTgxMzUxIzIxIyQxIyQ1IyQwMyQyNjE0ODEjNDEjJDEjJDQjJDgz","name":"의료법인 일혜의료재단 행복한요양병원","clCd":"28","clCdNm":"요양병원","sidoCd":"210000","sidoCdNm":"부산","sgguCd":"210007","sgguCdNm":"부산영도구","addr":"부산광역시 영도구 태종로372번길 41, (청학동)","phone":"417-9400","hospUrl":"","estbDd":"20161123","drTotCnt":0,"mdeptSdrCnt":0,"lat":35.0920426,"lng":129.0637402},{"id":"JDQ4MTAxMiM1MSMkMSMkMCMkOTkkNTgxMzUxIzIxIyQxIyQxIyQ5OSQyNjE4MzIjNjEjJDEjJDAjJDgz","name":"의료법인 장수의료재단 동래요양병원","clCd":"28","clCdNm":"요양병원","sidoCd":"210000","sidoCdNm":"부산","sgguCd":"210003","sgguCdNm":"부산동래구","addr":"부산광역시 동래구 명륜로 147, (명륜동)","phone":"051-557-7011","hospUrl":"","estbDd":"20111031","drTotCnt":3,"mdeptSdrCnt":2,"lat":35.2069388,"lng":129.0817587},{"id":"JDQ4MTAxMiM1MSMkMSMkMCMkOTkkNTgxMzUxIzIxIyQxIyQxIyQxMyQzNjE0ODEjNTEjJDEjJDYjJDgz","name":"의료법인 주현의료재단 사상중앙요양병원","clCd":"28","clCdNm":"요양병원","sidoCd":"210000","sidoCdNm":"부산","sgguCd":"210015","sgguCdNm":"부산사상구","addr":"부산광역시 사상구 삼덕로5번길 85, (삼락동, 지하1층~지상4층)","phone":"051-305-7002","hospUrl":"","estbDd":"20130902","drTotCnt":4,"mdeptSdrCnt":2,"lat":35.1784013,"lng":128.9782163},{"id":"JDQ4MTAxMiM1MSMkMSMkMCMkOTkkNTgxMzUxIzIxIyQxIyQxIyQ5MiQ0NjEwMDIjNDEjJDEjJDQjJDgz","name":"의료법인 진연의료재단 감천문화요양병원","clCd":"28","clCdNm":"요양병원","sidoCd":"210000","sidoCdNm":"부산","sgguCd":"210010","sgguCdNm":"부산사하구","addr":"부산광역시 사하구 옥천로 38, (감천동)","phone":"051-293-0013","hospUrl":"","estbDd":"20130501","drTotCnt":0,"mdeptSdrCnt":0,"lat":35.0903872,"lng":129.0067617},{"id":"JDQ4MTAxMiM1MSMkMSMkMCMkOTkkNTgxMzUxIzIxIyQxIyQ1IyQ3OSQ0NjE0ODEjNzEjJDEjJDgjJDgz","name":"의료법인 참사람의료재단 금곡효요양병원","clCd":"28","clCdNm":"요양병원","sidoCd":"210000","sidoCdNm":"부산","sgguCd":"210005","sgguCdNm":"부산북구","addr":"부산광역시 북구 금곡대로 458, 6층 (금곡동, 금곡월드프라자)","phone":"051-927-7000","hospUrl":"","estbDd":"20130104","drTotCnt":3,"mdeptSdrCnt":2,"lat":35.249122,"lng":129.0132941},{"id":"JDQ4MTAxMiM1MSMkMSMkMCMkOTkkNTgxMzUxIzIxIyQxIyQxIyQ3MiQzNjEyMjIjNDEjJDEjJDgjJDgz","name":"의료법인 천지의료재단 금샘요양병원","clCd":"28","clCdNm":"요양병원","sidoCd":"210000","sidoCdNm":"부산","sgguCd":"210011","sgguCdNm":"부산금정구","addr":"부산광역시 금정구 남산냇길 111, (청룡동)","phone":"051-931-0119","hospUrl":"","estbDd":"20120816","drTotCnt":3,"mdeptSdrCnt":2,"lat":35.2768485,"lng":129.0882819},{"id":"JDQ4MTAxMiM1MSMkMSMkMCMkOTkkNTgxMzUxIzExIyQxIyQ3IyQ2MiQyNjE4MzIjNTEjJDEjJDIjJDgz","name":"의료법인 청림의료재단 온천요양병원","clCd":"28","clCdNm":"요양병원","sidoCd":"210000","sidoCdNm":"부산","sgguCd":"210011","sgguCdNm":"부산금정구","addr":"부산광역시 금정구 부곡로 36, 2-4층 (부곡동, 애플타워)","phone":"051-529-2408","hospUrl":"http://www.ohsilver.co.kr","estbDd":"20090708","drTotCnt":0,"mdeptSdrCnt":0,"lat":35.2199193,"lng":129.0883281},{"id":"JDQ4MTAxMiM1MSMkMSMkMCMkOTkkNTgxMzUxIzIxIyQxIyQ1IyQ3OSQyNjEyMjIjODEjJDEjJDIjJDgz","name":"의료법인 청송의료재단 해뜨락요양병원","clCd":"28","clCdNm":"요양병원","sidoCd":"210000","sidoCdNm":"부산","sgguCd":"210005","sgguCdNm":"부산북구","addr":"부산광역시 북구 덕천로381번길 9-3, (만덕동)","phone":"051-333-1201","hospUrl":"","estbDd":"20131230","drTotCnt":5,"mdeptSdrCnt":3,"lat":35.2104385,"lng":129.0446915},{"id":"JDQ4MTAxMiM1MSMkMSMkMCMkOTkkNTgxMzUxIzIxIyQxIyQxIyQwMyQyNjEwMDIjNDEjJDEjJDgjJDgz","name":"의료법인 패밀리의료재단 만덕힐요양병원","clCd":"28","clCdNm":"요양병원","sidoCd":"210000","sidoCdNm":"부산","sgguCd":"210005","sgguCdNm":"부산북구","addr":"부산광역시 북구 만덕고개길 60-12, (만덕동)","phone":"051-332-1114","hospUrl":"","estbDd":"20130515","drTotCnt":2,"mdeptSdrCnt":1,"lat":35.21249,"lng":129.0466489},{"id":"JDQ4MTAxMiM1MSMkMSMkMCMkOTkkNTgxMzUxIzIxIyQxIyQxIyQ2MiQyNjE4MzIjODEjJDEjJDYjJDgz","name":"의료법인 한세의료재단 효은요양병원","clCd":"28","clCdNm":"요양병원","sidoCd":"210000","sidoCdNm":"부산","sgguCd":"210009","sgguCdNm":"부산해운대구","addr":"부산광역시 해운대구 달맞이길117번나길 24, (중동)","phone":"051-746-8787","hospUrl":"","estbDd":"20080110","drTotCnt":3,"mdeptSdrCnt":2,"lat":35.158238,"lng":129.1808924},{"id":"JDQ4MTAxMiM1MSMkMSMkMCMkOTkkNTgxMzUxIzIxIyQxIyQxIyQxMyQyNjE4MzIjNjEjJDEjJDQjJDgz","name":"의료법인 허명의료재단 구포일심요양병원","clCd":"28","clCdNm":"요양병원","sidoCd":"210000","sidoCdNm":"부산","sgguCd":"210005","sgguCdNm":"부산북구","addr":"부산광역시 북구 낙동대로 1678, (구포동)","phone":"051-341-0119","hospUrl":"","estbDd":"20130820","drTotCnt":4,"mdeptSdrCnt":2,"lat":35.2046381,"lng":128.9955156},{"id":"JDQ4MTAxMiM1MSMkMSMkMCMkOTkkNTgxMzUxIzIxIyQxIyQ1IyQwMyQ0NjE0ODEjNjEjJDEjJDQjJDgz","name":"의료법인 현백의료재단 사상제일요양병원","clCd":"28","clCdNm":"요양병원","sidoCd":"210000","sidoCdNm":"부산","sgguCd":"210015","sgguCdNm":"부산사상구","addr":"부산광역시 사상구 사상로 280, (덕포동)","phone":"051-301-0011","hospUrl":"","estbDd":"20180110","drTotCnt":5,"mdeptSdrCnt":4,"lat":35.1697772,"lng":128.9827545},{"id":"JDQ4MTAxMiM1MSMkMSMkMCMkOTkkNTgxMzUxIzExIyQyIyQ3IyQwMCQzNjEwMDIjNDEjJDEjJDgjJDgz","name":"의료법인 황산의료재단 황산요양병원","clCd":"28","clCdNm":"요양병원","sidoCd":"210000","sidoCdNm":"부산","sgguCd":"210013","sgguCdNm":"부산연제구","addr":"부산광역시 연제구 쌍미천로84번길 37, (연산동)","phone":"051-867-4428","hospUrl":"","estbDd":"20090115","drTotCnt":3,"mdeptSdrCnt":1,"lat":35.1818788,"lng":129.0881416},{"id":"JDQ4MTAxMiM1MSMkMSMkMCMkOTkkNTgxMzUxIzIxIyQxIyQxIyQ3OSQyNjEwMDIjNTEjJDEjJDYjJDgz","name":"의료법인 희경의료재단 한국요양병원","clCd":"28","clCdNm":"요양병원","sidoCd":"210000","sidoCdNm":"부산","sgguCd":"210015","sgguCdNm":"부산사상구","addr":"부산광역시 사상구 광장로 33-33, (괘법동)","phone":"051-328-8251","hospUrl":"http://www.hankookhos.com/default.htm","estbDd":"20071101","drTotCnt":6,"mdeptSdrCnt":3,"lat":35.1633093,"lng":128.9804432},{"id":"JDQ4MTAxMiM1MSMkMSMkMCMkOTkkNTgxMzUxIzIxIyQyIyQxIyQwMCQzNjE0ODEjNDEjJDEjJDQjJDgz","name":"의료법인강혜의료재단남천사랑의요양병원","clCd":"28","clCdNm":"요양병원","sidoCd":"210000","sidoCdNm":"부산","sgguCd":"210014","sgguCdNm":"부산수영구","addr":"부산광역시 수영구 수영로 456, (남천동)","phone":"051-625-1122","hospUrl":"http://insarang.or.kr/gnuboard4/","estbDd":"20110418","drTotCnt":7,"mdeptSdrCnt":5,"lat":35.146437,"lng":129.1103244},