[{"id":"JDQ4MTYyMiM4MSMkMSMkOCMkODkkMzgxMzUxIzExIyQxIyQzIyQ4OSQzNjE4MzIjNDEjJDEjJDgjJDgz","name":"의료법인 중앙의료재단 중앙병원","clCd":"11","clCdNm":"종합병원","sidoCd":"390000","sidoCdNm":"제주","sgguCd":"390200","sgguCdNm":"제주시","addr":"제주특별자치도 제주시 월랑로 91-0, 중앙병원","phone":"064-786-7000","hospUrl":"","estbDd":"20130304","drTotCnt":31,"mdeptSdrCnt":30,"lat":33.4923256,"lng":126.470529},{"id":"JDQ4MTYyMiM4MSMkMSMkOCMkODkkMzgxMzUxIzExIyQxIyQzIyQ4OSQyNjEyMjIjNDEjJDEjJDQjJDgz","name":"의료법인 혜인의료재단 한국병원","clCd":"11","clCdNm":"종합병원","sidoCd":"390000","sidoCdNm":"제주","sgguCd":"390200","sgguCdNm":"제주시","addr":"제주특별자치도 제주시 서광로 193, (삼도일동)","phone":"064-750-0000","hospUrl":"http://www.hankookhospital.co.kr","estbDd":"19830225","drTotCnt":37,"mdeptSdrCnt":36,"lat":33.500233,"lng":126.517062},{"id":"JDQ4MTYyMiM4MSMkMSMkOCMkODkkMzgxMzUxIzExIyQxIyQzIyQ4OSQyNjE0ODEjNTEjJDEjJDYjJDgz","name":"제주대학교병원","clCd":"11","clCdNm":"종합병원","sidoCd":"390000","sidoCdNm":"제주","sgguCd":"390200","sgguCdNm":"제주시","addr":"제주특별자치도 제주시 아란13길 15-0,  0동 0층 0호 (아라일동,제주대학교병원)","phone":"064-717-1114","hospUrl":"http://www.jejunuh.co.kr/main.jsp","estbDd":"19651002","drTotCnt":228,"mdeptSdrCnt":162,"lat":33.4671105,"lng":126.5452109},{"id":"JDQ4MTYyMiM4MSMkMSMkOCMkODkkMzgxMzUxIzExIyQxIyQzIyQ3OSQ0NjEwMDIjNDEjJDEjJDQjJDgz","name":"제주특별자치도 서귀포의료원","clCd":"11","clCdNm":"종합병원","sidoCd":"390000","sidoCdNm":"제주","sgguCd":"390100","sgguCdNm":"서귀포시","addr":"제주특별자치도 서귀포시 장수로 47, (동홍동)","phone":"064-730-3000","hospUrl":"http://www.smed.or.kr","estbDd":"19940319","drTotCnt":44,"mdeptSdrCnt":43,"lat":33.2555354,"lng":126.5639215},{"id":"JDQ4MTYyMiM4MSMkMSMkOCMkODkkMzgxMzUxIzExIyQxIyQzIyQ3OSQyNjEyMjIjNTEjJDEjJDIjJDgz","name":"제주한라병원","clCd":"11","clCdNm":"종합병원","sidoCd":"390000","sidoCdNm":"제주","sgguCd":"390200","sgguCdNm":"제주시","addr":"제주특별자치도 제주시 도령로 65,  (연동)","phone":"064-740-5000","hospUrl":"http://www.hallahosp.co.kr","estbDd":"19831029","drTotCnt":122,"mdeptSdrCnt":108,"lat":33.4899609,"lng":126.4850403},{"id":"JDQ4MTYyMiM4MSMkMSMkOCMkODkkMzgxMzUxIzExIyQxIyQzIyQ4OSQ0NjE0ODEjODEjJDEjJDYjJDgz","name":"한마음병원","clCd":"11","clCdNm":"종합병원","sidoCd":"390000","sidoCdNm":"제주","sgguCd":"390200","sgguCdNm":"제주시","addr":"제주특별자치도 제주시 연신로 52, (이도이동)","phone":"064-750-9000","hospUrl":"","estbDd":"19990913","drTotCnt":35,"mdeptSdrCnt":34,"lat":33.4962868,"lng":126.5462386},{"id":"JDQ4MTYyMiM4MSMkMSMkOCMkOTkkMzgxMzUxIzExIyQyIyQzIyQwMCQzNjE0ODEjNjEjJDEjJDQjJDgz","name":"WE병원","clCd":"21","clCdNm":"병원","sidoCd":"390000","sidoCdNm":"제주","sgguCd":"390100","sgguCdNm":"서귀포시","addr":"제주특별자치도 서귀포시 1100로 453-95, (회수동)","phone":"064-730-1421","hospUrl":"","estbDd":"20140124","drTotCnt":1,"mdeptSdrCnt":1,"lat":33.2860122,"lng":126.4441678},{"id":"JDQ4MTYyMiM4MSMkMSMkOCMkOTkkMzgxMzUxIzExIyQxIyQzIyQ5OSQyNjEwMDIjNTEjJDEjJDYjJDgz","name":"서귀포열린병원","clCd":"21","clCdNm":"병원","sidoCd":"390000","sidoCdNm":"제주","sgguCd":"390100","sgguCdNm":"서귀포시","addr":"제주특별자치도 서귀포시 일주동로 8638, (동홍동)","phone":"064-762-8001","hospUrl":"","estbDd":"19990208","drTotCnt":7,"mdeptSdrCnt":7,"lat":33.2544709,"lng":126.5654153},{"id":"JDQ4MTYyMiM4MSMkMSMkOCMkOTkkMzgxMzUxIzExIyQyIyQzIyQwMCQyNjE4MzIjNzEjJDEjJDgjJDgz","name":"제주권역재활병원","clCd":"21","clCdNm":"병원","sidoCd":"390000","sidoCdNm":"제주","sgguCd":"390100","sgguCdNm":"서귀포시","addr":"제주특별자치도 서귀포시 동문로 1, (서귀동)","phone":"064-730-9015","hospUrl":"","estbDd":"20131021","drTotCnt":4,"mdeptSdrCnt":4,"lat":33.2527811,"lng":126.5624641},{"id":"JDQ4MTYyMiM4MSMkMSMkOCMkOTkkMzgxMzUxIzExIyQyIyQzIyQwMCQzNjEyMjIjNDEjJDEjJDgjJDgz","name":"제주선한병원","clCd":"21","clCdNm":"병원","sidoCd":"390000","sidoCdNm":"제주","sgguCd":"390200","sgguCdNm":"제주시","addr":"제주특별자치도 제주시 중앙로 616, 2~4층 (아라일동)","phone":"064-722-0054","hospUrl":"","estbDd":"20180123","drTotCnt":3,"mdeptSdrCnt":2,"lat":33.4687624,"lng":126.5470331},{"id":"JDQ4MTYyMiM4MSMkMSMkOCMkOTkkMzgxMzUxIzExIyQyIyQzIyQwMCQyNjEyMjIjODEjJDEjJDYjJDgz","name":"제주우리병원","clCd":"21","clCdNm":"병원","sidoCd":"390000","sidoCdNm":"제주","sgguCd":"390200","sgguCdNm":"제주시","addr":"제주특별자치도 제주시 중앙로 373, (이도이동)","phone":"064-1899-6265","hospUrl":"","estbDd":"20120321","drTotCnt":5,"mdeptSdrCnt":5,"lat":33.4889664,"lng":126.5396637},{"id":"JDQ4MTYyMiM4MSMkMSMkOCMkOTkkMzgxMzUxIzExIyQxIyQzIyQ5OSQyNjE0ODEjNjEjJDEjJDQjJDgz","name":"제주특별자치도제주의료원","clCd":"21","clCdNm":"병원","sidoCd":"390000","sidoCdNm":"제주","sgguCd":"390200","sgguCdNm":"제주시","addr":"제주특별자치도 제주시 산천단남길 10, 제주의료원 (아라일동)","phone":"064-720-2222","hospUrl":"http://www.jejumed.com","estbDd":"20020729","drTotCnt":10,"mdeptSdrCnt":9,"lat":33.4449392,"lng":126.5608324},{"id":"JDQ4MTYyMiM4MSMkMSMkOCMkOTkkMzgxMzUxIzExIyQyIyQzIyQwMCQzNjE4MzIjNDEjJDEjJDQjJDgz","name":"제주푸른병원","clCd":"21","clCdNm":"병원","sidoCd":"390000","sidoCdNm":"제주","sgguCd":"390200","sgguCdNm":"제주시","addr":"제주특별자치도 제주시 조천읍 번영로 957, (조천읍)","phone":"064-756-6680","hospUrl":"","estbDd":"20230215","drTotCnt":3,"mdeptSdrCnt":3,"lat":33.4759685,"lng":126.6390456},{"id":"JDQ4MTYyMiM4MSMkMSMkOCMkOTkkMzgxMzUxIzExIyQxIyQzIyQ5OSQzNjE4MzIjNTEjJDEjJDIjJDgz","name":"탑동병원","clCd":"21","clCdNm":"병원","sidoCd":"390000","sidoCdNm":"제주","sgguCd":"390200","sgguCdNm":"제주시","addr":"제주특별자치도 제주시 탑동로 26, (삼도이동,(탑동로26))","phone":"064-754-1023","hospUrl":"","estbDd":"20080314","drTotCnt":4,"mdeptSdrCnt":4,"lat":33.5176699,"lng":126.5221806},{"id":"JDQ4MTYyMiM4MSMkMSMkOCMkOTkkNTgxMzUxIzExIyQxIyQzIyQ3OSQ0NjEwMDIjODEjJDEjJDIjJDgz","name":"늘봄재활요양병원","clCd":"28","clCdNm":"요양병원","sidoCd":"390000","sidoCdNm":"제주","sgguCd":"390200","sgguCdNm":"제주시","addr":"제주특별자치도 제주시 관덕로 30, (삼도이동)","phone":"064-752-0022","hospUrl":"https://blog.naver.com/neulbomrehab","estbDd":"20070117","drTotCnt":4,"mdeptSdrCnt":3,"lat":33.5129871,"lng":126.522402},{"id":"JDQ4MTYyMiM4MSMkMSMkOCMkOTkkNTgxMzUxIzExIyQxIyQzIyQ5OSQzNjE4MzIjNjEjJDEjJDgjJDgz","name":"드림힐 요양병원","clCd":"28","clCdNm":"요양병원","sidoCd":"390000","sidoCdNm":"제주","sgguCd":"390200","sgguCdNm":"제주시","addr":"제주특별자치도 제주시 조천읍 번영로 957, (조천읍)","phone":"064-759-9960","hospUrl":"","estbDd":"20220919","drTotCnt":3,"mdeptSdrCnt":1,"lat":33.4758911,"lng":126.6391594},{"id":"JDQ4MTYyMiM4MSMkMSMkOCMkOTkkNTgxMzUxIzExIyQxIyQzIyQ3OSQyNjEwMDIjNTEjJDEjJDIjJDgz","name":"사회복지법인인효원제주복지요양병원","clCd":"28","clCdNm":"요양병원","sidoCd":"390000","sidoCdNm":"제주","sgguCd":"390200","sgguCdNm":"제주시","addr":"제주특별자치도 제주시 동광로 96, 동부빌딩 지하2, 지상3층 (이도이동)","phone":"064-747-1410","hospUrl":"","estbDd":"20050923","drTotCnt":4,"mdeptSdrCnt":3,"lat":33.5052059,"lng":126.5382486},{"id":"JDQ4MTYyMiM4MSMkMSMkOCMkOTkkNTgxMzUxIzExIyQxIyQzIyQ5OSQzNjE0ODEjNDEjJDEjJDgjJDgz","name":"아라요양병원","clCd":"28","clCdNm":"요양병원","sidoCd":"390000","sidoCdNm":"제주","sgguCd":"390200","sgguCdNm":"제주시","addr":"제주특별자치도 제주시 한북로 309, (아라일동)","phone":"064-729-6000","hospUrl":"","estbDd":"20161223","drTotCnt":5,"mdeptSdrCnt":5,"lat":33.4565645,"lng":126.546916},{"id":"JDQ4MTYyMiM4MSMkMSMkOCMkOTkkNTgxMzUxIzExIyQxIyQzIyQ4OSQzNjEwMDIjNTEjJDEjJDIjJDgz","name":"의료법인평촌의료재단 제주대림요양병원","clCd":"28","clCdNm":"요양병원","sidoCd":"390000","sidoCdNm":"제주","sgguCd":"390200","sgguCdNm":"제주시","addr":"제주특별자치도 제주시 한림읍 한수풀로 58, (한림읍)","phone":"064-796-0069","hospUrl":"","estbDd":"20101028","drTotCnt":5,"mdeptSdrCnt":4,"lat":33.418135,"lng":126.2690698},{"id":"JDQ4MTYyMiM4MSMkMSMkOCMkOTkkNTgxMzUxIzExIyQxIyQzIyQ5OSQyNjE4MzIjNTEjJDEjJDYjJDgz","name":"제주의료원부속요양병원","clCd":"28","clCdNm":"요양병원","sidoCd":"390000","sidoCdNm":"제주","sgguCd":"390200","sgguCdNm":"제주시","addr":"제주특별자치도 제주시 산천단남길 10, (아라일동, 제주의료원)","phone":"064-720-2222","hospUrl":"","estbDd":"20161118","drTotCnt":5,"mdeptSdrCnt":5,"lat":33.4449392,"lng":126.5608324},{"id":"JDQ4MTYyMiM4MSMkMSMkOCMkOTkkNTgxMzUxIzExIyQxIyQzIyQ5OSQyNjEyMjIjNjEjJDEjJDQjJDgz","name":"제주제일요양병원","clCd":"28","clCdNm":"요양병원","sidoCd":"390000","sidoCdNm":"제주","sgguCd":"390200","sgguCdNm":"제주시","addr":"제주특별자치도 제주시 연삼로 16, (연동)","phone":"064-711-2210","hospUrl":"","estbDd":"20150305","drTotCnt":4,"mdeptSdrCnt":4,"lat":33.4934016,"lng":126.494001},{"id":"JDQ4MTYyMiM4MSMkMSMkOCMkOTkkNTgxMzUxIzExIyQxIyQzIyQ5OSQzNjEyMjIjODEjJDEjJDIjJDgz","name":"제주하늘의료소비자생활협동조합하나요양병원","clCd":"28","clCdNm":"요양병원","sidoCd":"390000","sidoCdNm":"제주","sgguCd":"390200","sgguCdNm":"제주시","addr":"제주특별자치도 제주시 서사로 40, 3,5,6층,7층의 일부 (삼도일동)","phone":"064-723-0955","hospUrl":"","estbDd":"20220328","drTotCnt":3,"mdeptSdrCnt":1,"lat":33.5086921,"lng":126.5196644},{"id":"JDQ4MTYyMiM4MSMkMSMkOCMkOTkkNTgxMzUxIzExIyQxIyQzIyQ5OSQ0NjEwMDIjNTEjJDEjJDIjJDgz","name":"지오요양병원","clCd":"28","clCdNm":"요양병원","sidoCd":"390000","sidoCdNm":"제주","sgguCd":"390200","sgguCdNm":"제주시","addr":"제주특별자치도 제주시 서광로 222, (삼도일동)","phone":"064-759-5080","hospUrl":"","estbDd":"20190214","drTotCnt":2,"mdeptSdrCnt":0,"lat":33.4995628,"lng":126.5203218},{"id":"JDQ4MTYyMiM4MSMkMSMkOCMkOTkkNTgxMzUxIzExIyQxIyQzIyQ4OSQ0NjE0ODEjNzEjJDEjJDgjJDgz","name":"토마토요양병원","clCd":"28","clCdNm":"요양병원","sidoCd":"390000","sidoCdNm":"제주","sgguCd":"390200","sgguCdNm":"제주시","addr":"제주특별자치도 제주시 동광로 42, (이도이동)","phone":"064-729-5000","hospUrl":"","estbDd":"20130131","drTotCnt":3,"mdeptSdrCnt":2,"lat":33.5022718,"lng":126.5333157},{"id":"JDQ4MTYyMiM4MSMkMSMkOCMkOTkkMzgxMzUxIzExIyQyIyQzIyQwMCQyNjE0ODEjNTEjJDEjJDIjJDgz","name":"의료법인 연강의료재단 연강병원","clCd":"29","clCdNm":"정신병원","sidoCd":"390000","sidoCdNm":"제주","sgguCd":"390200","sgguCdNm":"제주시","addr":"제주특별자치도 제주시 죽성서길 6, (오등동)","phone":"064-726-7900","hospUrl":"","estbDd":"20070912","drTotCnt":2,"mdeptSdrCnt":2,"lat":33.4612171,"lng":126.5332439},{"id":"JDQ4MTYyMiM4MSMkMSMkOCMkOTkkNTgxOTYxIzExIyQxIyQzIyQ3OSQyNjE0ODEjNDEjJDEjJDQjJDgz","name":"의료법인 연강의료재단 연강참병원","clCd":"29","clCdNm":"정신병원","sidoCd":"390000","sidoCdNm":"제주","sgguCd":"390200","sgguCdNm":"제주시","addr":"제주특별자치도 제주시 서광로 175, 아세아빌딩  B-101,301,401,501호 (용담일동)","phone":"064-759-9641","hospUrl":"","estbDd":"20221028","drTotCnt":2,"mdeptSdrCnt":2,"lat":33.5003202,"lng":126.5151861},{"id":"JDQ4MTYyMiM4MSMkMiMkOCMkMDAkMzgxMzUxIzExIyQxIyQ3IyQ3MiQyNjEyMjIjNjEjJDEjJDAjJDgz","name":"(사)한국한센복지협회제주특별자치도지부부설복지피부과의원","clCd":"31","clCdNm":"의원","sidoCd":"390000","sidoCdNm":"제주","sgguCd":"390200","sgguCdNm":"제주시","addr":"제주특별자치도 제주시 신대로 128, (연동)","phone":"064-747-2559","hospUrl":"","estbDd":"19870824","drTotCnt":1,"mdeptSdrCnt":1,"lat":33.4858518,"lng":126.4960596},{"id":"JDQ4MTYyMiM4MSMkMiMkOCMkMDAkMzgxMzUxIzUxIyQxIyQ1IyQ4MiQzNjE4MzIjNTEjJDEjJDYjJDgz","name":"(재)서울의과학연구소에스씨엘(SCL)제주의원","clCd":"31","clCdNm":"의원","sidoCd":"390000","sidoCdNm":"제주","sgguCd":"390200","sgguCdNm":"제주시","addr":"제주특별자치도 제주시 도근내길 57-11, (내도동)","phone":"064-749-9711","hospUrl":"","estbDd":"20211222","drTotCnt":1,"mdeptSdrCnt":1,"lat":33.4926598,"lng":126.4372224},{"id":"JDQ4MTYyMiM4MSMkMiMkOCMkMDAkMzgxOTYxIzExIyQxIyQzIyQ3OSQzNjE0ODEjNTEjJDEjJDYjJDgz","name":"(재)한국의학연구소 제주의원","clCd":"31","clCdNm":"의원","sidoCd":"390000","sidoCdNm":"제주","sgguCd":"390100","sgguCdNm":"서귀포시","addr":"제주특별자치도 서귀포시 솔오름로 61, 제주헬스케어타운 의료서비스센터 1~2층 (동홍동)","phone":"064-729-6500","hospUrl":"","estbDd":"20230213","drTotCnt":7,"mdeptSdrCnt":7,"lat":33.2836459,"lng":126.5597717},{"id":"JDQ4MTYyMiM4MSMkMiMkOCMkMDAkMzgxOTYxIzExIyQxIyQzIyQ5MiQyNjE4MzIjNjEjJDEjJDgjJDgz","name":"365서귀포삼성정형외과의원","clCd":"31","clCdNm":"의원","sidoCd":"390000","sidoCdNm":"제주","sgguCd":"390100","sgguCdNm":"서귀포시","addr":"제주특별자치도 서귀포시 일주동로 9159, 3층 (법환동)","phone":"064-739-7000","hospUrl":"","estbDd":"20260113","drTotCnt":1,"mdeptSdrCnt":1,"lat":33.2477,"lng":126.5143323},{"id":"JDQ4MTYyMiM4MSMkMiMkOCMkMDAkMzgxMzUxIzIxIyQxIyQ1IyQxMyQyNjE0ODEjNDEjJDEjJDQjJDgz","name":"365제주의원","clCd":"31","clCdNm":"의원","sidoCd":"390000","sidoCdNm":"제주","sgguCd":"390200","sgguCdNm":"제주시","addr":"제주특별자치도 제주시 서광로 302, 2, 6층 (이도이동)","phone":"064-753-4645","hospUrl":"","estbDd":"19930831","drTotCnt":1,"mdeptSdrCnt":1,"lat":33.5003235,"lng":126.5288526},{"id":"JDQ4MTYyMiM4MSMkMiMkOCMkMDAkMzgxOTYxIzExIyQxIyQzIyQ2MiQ0NjE0ODEjNjEjJDEjJDQjJDgz","name":"365플러스내과의원","clCd":"31","clCdNm":"의원","sidoCd":"390000","sidoCdNm":"제주","sgguCd":"390100","sgguCdNm":"서귀포시","addr":"제주특별자치도 서귀포시 일주동로 9159, 4층 (법환동)","phone":"064-767-3650","hospUrl":"","estbDd":"20240719","drTotCnt":4,"mdeptSdrCnt":4,"lat":33.2477,"lng":126.5143323},{"id":"JDQ4MTYyMiM4MSMkMiMkOCMkMDAkMzgxMzUxIzIxIyQxIyQxIyQ3OSQzNjE4MzIjNjEjJDEjJDQjJDgz","name":"911 매일의원","clCd":"31","clCdNm":"의원","sidoCd":"390000","sidoCdNm":"제주","sgguCd":"390200","sgguCdNm":"제주시","addr":"제주특별자치도 제주시 아연로 603, 2층 (아라일동)","phone":"064-724-0911","hospUrl":"","estbDd":"19920306","drTotCnt":2,"mdeptSdrCnt":2,"lat":33.4777477,"lng":126.5435873},{"id":"JDQ4MTYyMiM4MSMkMiMkOCMkMDAkMzgxMzUxIzIxIyQxIyQ5IyQ4MiQzNjE4MzIjNDEjJDEjJDgjJDgz","name":"가톨릭안과의원","clCd":"31","clCdNm":"의원","sidoCd":"390000","sidoCdNm":"제주","sgguCd":"390200","sgguCdNm":"제주시","addr":"제주특별자치도 제주시 도령로 1, 3층 (노형동)","phone":"064-749-7008","hospUrl":"","estbDd":"20080103","drTotCnt":1,"mdeptSdrCnt":1,"lat":33.4868039,"lng":126.4793043},{"id":"JDQ4MTYyMiM4MSMkMiMkOCMkMDAkMzgxMzUxIzIxIyQxIyQ1IyQ2MiQyNjE4MzIjODEjJDEjJDIjJDgz","name":"가톨릭정신건강의학과의원","clCd":"31","clCdNm":"의원","sidoCd":"390000","sidoCdNm":"제주","sgguCd":"390200","sgguCdNm":"제주시","addr":"제주특별자치도 제주시 도령로 1, (노형동)","phone":"064-746-7355","hospUrl":"","estbDd":"19980908","drTotCnt":1,"mdeptSdrCnt":1,"lat":33.4868039,"lng":126.4793043},{"id":"JDQ4MTYyMiM4MSMkMiMkOCMkMDAkMzgxMzUxIzUxIyQxIyQ1IyQwMyQyNjEwMDIjODEjJDEjJDYjJDgz","name":"강골정형외과의원","clCd":"31","clCdNm":"의원","sidoCd":"390000","sidoCdNm":"제주","sgguCd":"390200","sgguCdNm":"제주시","addr":"제주특별자치도 제주시 서광로 272, 3,4층 (도남동)","phone":"064-755-7300","hospUrl":"","estbDd":"20220615","drTotCnt":1,"mdeptSdrCnt":1,"lat":33.4997981,"lng":126.5254174},{"id":"JDQ4MTYyMiM4MSMkMiMkOCMkMDAkMzgxMzUxIzUxIyQxIyQ1IyQ3MiQzNjE4MzIjNjEjJDEjJDgjJDgz","name":"강남마디척의원","clCd":"31","clCdNm":"의원","sidoCd":"390000","sidoCdNm":"제주","sgguCd":"390100","sgguCdNm":"서귀포시","addr":"제주특별자치도 서귀포시 신서로48번길 52, 4층 (법환동)","phone":"064-751-7582","hospUrl":"","estbDd":"20210720","drTotCnt":1,"mdeptSdrCnt":0,"lat":33.252788,"lng":126.5103628},{"id":"JDQ4MTYyMiM4MSMkMiMkOCMkMDAkMzgxMzUxIzQxIyQxIyQ3IyQ4MiQ0NjE0ODEjODEjJDEjJDYjJDgz","name":"강남새힘마취통증의학과의원","clCd":"31","clCdNm":"의원","sidoCd":"390000","sidoCdNm":"제주","sgguCd":"390100","sgguCdNm":"서귀포시","addr":"제주특별자치도 서귀포시 동문로 8, 제주감귤농협 2층 (서귀동)","phone":"064-732-7588","hospUrl":"","estbDd":"20150701","drTotCnt":1,"mdeptSdrCnt":1,"lat":33.2519861,"lng":126.5620216},{"id":"JDQ4MTYyMiM4MSMkMiMkOCMkMDAkMzgxMzUxIzIxIyQxIyQ5IyQwMyQ0NjE0ODEjNjEjJDEjJDAjJDgz","name":"강남성모안과의원","clCd":"31","clCdNm":"의원","sidoCd":"390000","sidoCdNm":"제주","sgguCd":"390200","sgguCdNm":"제주시","addr":"제주특별자치도 제주시 수덕1길 3, (노형동,4,5층)","phone":"064-745-7100","hospUrl":"","estbDd":"20050602","drTotCnt":1,"mdeptSdrCnt":1,"lat":33.486225,"lng":126.4782289},{"id":"JDQ4MTYyMiM4MSMkMiMkOCMkMDAkMzgxMzUxIzUxIyQxIyQxIyQ4OSQ0NjE0ODEjODEjJDEjJDYjJDgz","name":"강남스타성형외과의원","clCd":"31","clCdNm":"의원","sidoCd":"390000","sidoCdNm":"제주","sgguCd":"390200","sgguCdNm":"제주시","addr":"제주특별자치도 제주시 신형로 14, 2,3층 (노형동)","phone":"064-745-7456","hospUrl":"","estbDd":"20160708","drTotCnt":1,"mdeptSdrCnt":1,"lat":33.4822649,"lng":126.4766373},{"id":"JDQ4MTYyMiM4MSMkMiMkOCMkMDAkMzgxMzUxIzIxIyQxIyQ5IyQ5OSQzNjEyMjIjNjEjJDEjJDAjJDgz","name":"강남의원","clCd":"31","clCdNm":"의원","sidoCd":"390000","sidoCdNm":"제주","sgguCd":"390200","sgguCdNm":"제주시","addr":"제주특별자치도 제주시 서광로 302, 3층 (이도이동)","phone":"755-1008","hospUrl":"","estbDd":"20010608","drTotCnt":1,"mdeptSdrCnt":1,"lat":33.5003235,"lng":126.5288526},{"id":"JDQ4MTYyMiM4MSMkMiMkOCMkMDAkMzgxMzUxIzIxIyQxIyQ1IyQxMyQzNjEwMDIjNDEjJDEjJDgjJDgz","name":"강남정형외과의원","clCd":"31","clCdNm":"의원","sidoCd":"390000","sidoCdNm":"제주","sgguCd":"390100","sgguCdNm":"서귀포시","addr":"제주특별자치도 서귀포시 대정읍 신영로 75, 3층","phone":"064-792-3001","hospUrl":"","estbDd":"20221018","drTotCnt":2,"mdeptSdrCnt":2,"lat":33.2209543,"lng":126.250894},{"id":"JDQ4MTYyMiM4MSMkMiMkOCMkMDAkMzgxMzUxIzUxIyQxIyQxIyQ3OSQyNjEyMjIjNTEjJDEjJDIjJDgz","name":"강남케이뷰티성형외과의원","clCd":"31","clCdNm":"의원","sidoCd":"390000","sidoCdNm":"제주","sgguCd":"390200","sgguCdNm":"제주시","addr":"제주특별자치도 제주시 중앙로 371-1, 3, 5층 (이도이동)","phone":"064-758-1800","hospUrl":"","estbDd":"20160308","drTotCnt":1,"mdeptSdrCnt":1,"lat":33.4890812,"lng":126.5395542},{"id":"JDQ4MTYyMiM4MSMkMiMkOCMkMDAkMzgxMzUxIzIxIyQxIyQ5IyQ4OSQyNjEyMjIjNjEjJDEjJDAjJDgz","name":"강문보내과의원","clCd":"31","clCdNm":"의원","sidoCd":"390000","sidoCdNm":"제주","sgguCd":"390100","sgguCdNm":"서귀포시","addr":"제주특별자치도 서귀포시 대정읍 하모상가로 27, (대정읍)","phone":"064-794-7085","hospUrl":"","estbDd":"20010317","drTotCnt":1,"mdeptSdrCnt":1,"lat":33.2216652,"lng":126.2517162},{"id":"JDQ4MTYyMiM4MSMkMiMkOCMkMDAkMzgxMzUxIzIxIyQxIyQ5IyQ3MiQzNjE4MzIjNjEjJDEjJDAjJDgz","name":"강미정소아청소년과의원","clCd":"31","clCdNm":"의원","sidoCd":"390000","sidoCdNm":"제주","sgguCd":"390200","sgguCdNm":"제주시","addr":"제주특별자치도 제주시 연오로 59, 3층 (오라삼동)","phone":"064-743-8080","hospUrl":"","estbDd":"20190222","drTotCnt":1,"mdeptSdrCnt":1,"lat":33.4879309,"lng":126.5020578},{"id":"JDQ4MTYyMiM4MSMkMiMkOCMkMDAkMzgxMzUxIzMxIyQxIyQ3IyQ4OSQyNjE0ODEjNDEjJDEjJDgjJDgz","name":"강윤종소아청소년과의원","clCd":"31","clCdNm":"의원","sidoCd":"390000","sidoCdNm":"제주","sgguCd":"390200","sgguCdNm":"제주시","addr":"제주특별자치도 제주시 일주동로 255, 3층 (화북일동)","phone":"064-745-1881","hospUrl":"","estbDd":"20070315","drTotCnt":1,"mdeptSdrCnt":1,"lat":33.5206296,"lng":126.5722097},{"id":"JDQ4MTYyMiM4MSMkMiMkOCMkMDAkMzgxMzUxIzIxIyQxIyQ1IyQ4OSQ0NjE0ODEjNzEjJDEjJDgjJDgz","name":"강정형외과의원","clCd":"31","clCdNm":"의원","sidoCd":"390000","sidoCdNm":"제주","sgguCd":"390200","sgguCdNm":"제주시","addr":"제주특별자치도 제주시 서광로 262, 1~2층 (삼도일동)","phone":"064-753-8711","hospUrl":"","estbDd":"19871028","drTotCnt":1,"mdeptSdrCnt":1,"lat":33.4996633,"lng":126.5244953},{"id":"JDQ4MTYyMiM4MSMkMiMkOCMkMDAkMzgxMzUxIzUxIyQxIyQ1IyQ5MiQyNjE0ODEjNTEjJDEjJDYjJDgz","name":"강주현피부과의원","clCd":"31","clCdNm":"의원","sidoCd":"390000","sidoCdNm":"제주","sgguCd":"390200","sgguCdNm":"제주시","addr":"제주특별자치도 제주시 건주로 27, 3층 (도련일동)","phone":"064-805-0079","hospUrl":"","estbDd":"20220106","drTotCnt":1,"mdeptSdrCnt":1,"lat":33.5170882,"lng":126.581141},{"id":"JDQ4MTYyMiM4MSMkMiMkOCMkMDAkMzgxOTYxIzExIyQyIyQzIyQwMCQzNjEyMjIjNDEjJDEjJDgjJDgz","name":"강형길유외과의원","clCd":"31","clCdNm":"의원","sidoCd":"390000","sidoCdNm":"제주","sgguCd":"390200","sgguCdNm":"제주시","addr":"제주특별자치도 제주시 서광로 220, 서광빌딩 4층 402호 (삼도일동)","phone":"064-725-7007","hospUrl":"","estbDd":"20240319","drTotCnt":1,"mdeptSdrCnt":1,"lat":33.4995654,"lng":126.5200837},{"id":"JDQ4MTYyMiM4MSMkMiMkOCMkMDAkMzgxMzUxIzIxIyQxIyQxIyQ4MiQyNjEyMjIjODEjJDEjJDIjJDgz","name":"강형윤가정의학과의원","clCd":"31","clCdNm":"의원","sidoCd":"390000","sidoCdNm":"제주","sgguCd":"390200","sgguCdNm":"제주시","addr":"제주특별자치도 제주시 우정로 59, (외도일동)","phone":"064-713-0332","hospUrl":"","estbDd":"20030218","drTotCnt":1,"mdeptSdrCnt":1,"lat":33.4874382,"lng":126.4311431},{"id":"JDQ4MTYyMiM4MSMkMiMkOCMkMDAkMzgxMzUxIzUxIyQyIyQxIyQwMCQzNjE4MzIjNjEjJDEjJDQjJDgz","name":"건강100세의원","clCd":"31","clCdNm":"의원","sidoCd":"390000","sidoCdNm":"제주","sgguCd":"390200","sgguCdNm":"제주시","addr":"제주특별자치도 제주시 서광로 273, 2층 (이도일동)","phone":"064-751-8222","hospUrl":"","estbDd":"20170327","drTotCnt":1,"mdeptSdrCnt":1,"lat":33.5004189,"lng":126.5256545},{"id":"JDQ4MTYyMiM4MSMkMiMkOCMkMDAkMzgxMzUxIzExIyQxIyQ3IyQxMyQyNjEwMDIjNjEjJDEjJDQjJDgz","name":"건강369의원","clCd":"31","clCdNm":"의원","sidoCd":"390000","sidoCdNm":"제주","sgguCd":"390200","sgguCdNm":"제주시","addr":"제주특별자치도 제주시 일주동로 227, 3층 (화북일동)","phone":"064-722-3698","hospUrl":"","estbDd":"20050808","drTotCnt":1,"mdeptSdrCnt":1,"lat":33.5194244,"lng":126.569785},{"id":"JDQ4MTYyMiM4MSMkMiMkOCMkMDAkMzgxMzUxIzUxIyQxIyQ1IyQ3MiQ0NjE0ODEjNjEjJDEjJDAjJDgz","name":"건강한한림연합내과의원","clCd":"31","clCdNm":"의원","sidoCd":"390000","sidoCdNm":"제주","sgguCd":"390200","sgguCdNm":"제주시","addr":"제주특별자치도 제주시 한림읍 한림중앙로 71, 2층","phone":"064-900-1017","hospUrl":"","estbDd":"20210823","drTotCnt":2,"mdeptSdrCnt":2,"lat":33.4087316,"lng":126.2666865},{"id":"JDQ4MTYyMiM4MSMkMiMkOCMkMDAkMzgxOTYxIzExIyQyIyQzIyQwMCQ0NjE0ODEjODEjJDEjJDIjJDgz","name":"건강해소아청소년과의원","clCd":"31","clCdNm":"의원","sidoCd":"390000","sidoCdNm":"제주","sgguCd":"390200","sgguCdNm":"제주시","addr":"제주특별자치도 제주시 연북로 517, 2층 (아라일동)","phone":"064-759-6658","hospUrl":"https://thewellness.modoo.at/?link=de5vhlaz","estbDd":"20240405","drTotCnt":1,"mdeptSdrCnt":1,"lat":33.4847205,"lng":126.535115},{"id":"JDQ4MTYyMiM4MSMkMiMkOCMkMDAkMzgxMzUxIzUxIyQxIyQ1IyQ2MiQyNjEyMjIjODEjJDEjJDIjJDgz","name":"고든비뇨의학과의원","clCd":"31","clCdNm":"의원","sidoCd":"390000","sidoCdNm":"제주","sgguCd":"390200","sgguCdNm":"제주시","addr":"제주특별자치도 제주시 도령로 76, 5층 (연동)","phone":"064-711-2678","hospUrl":"","estbDd":"20200915","drTotCnt":1,"mdeptSdrCnt":1,"lat":33.4898729,"lng":126.48659},{"id":"JDQ4MTYyMiM4MSMkMiMkOCMkMDAkMzgxMzUxIzMxIyQxIyQ3IyQxMyQyNjEyMjIjNjEjJDEjJDQjJDgz","name":"고려삼성의원","clCd":"31","clCdNm":"의원","sidoCd":"390000","sidoCdNm":"제주","sgguCd":"390100","sgguCdNm":"서귀포시","addr":"제주특별자치도 서귀포시 중앙로 44, (서귀동)","phone":"064-762-7524","hospUrl":"","estbDd":"20120416","drTotCnt":1,"mdeptSdrCnt":1,"lat":33.2485456,"lng":126.5618964},{"id":"JDQ4MTYyMiM4MSMkMiMkOCMkMDAkMzgxMzUxIzUxIyQyIyQxIyQwMCQ0NjE0ODEjNTEjJDEjJDYjJDgz","name":"고려의원","clCd":"31","clCdNm":"의원","sidoCd":"390000","sidoCdNm":"제주","sgguCd":"390200","sgguCdNm":"제주시","addr":"제주특별자치도 제주시 구좌읍 세화10길 1, 2층","phone":"064-784-7002","hospUrl":"","estbDd":"20170331","drTotCnt":1,"mdeptSdrCnt":1,"lat":33.5208421,"lng":126.8588018},{"id":"JDQ4MTYyMiM4MSMkMiMkOCMkMDAkMzgxMzUxIzIxIyQyIyQxIyQwMCQyNjEwMDIjODEjJDEjJDIjJDgz","name":"고려이비인후과의원","clCd":"31","clCdNm":"의원","sidoCd":"390000","sidoCdNm":"제주","sgguCd":"390200","sgguCdNm":"제주시","addr":"제주특별자치도 제주시 중앙로 366, (이도이동)","phone":"064-726-5630","hospUrl":"","estbDd":"20170109","drTotCnt":1,"mdeptSdrCnt":1,"lat":33.4892028,"lng":126.5384818},{"id":"JDQ4MTYyMiM4MSMkMiMkOCMkMDAkMzgxMzUxIzMxIyQxIyQzIyQxMyQyNjE0ODEjNTEjJDEjJDIjJDgz","name":"고산사랑의원","clCd":"31","clCdNm":"의원","sidoCd":"390000","sidoCdNm":"제주","sgguCd":"390200","sgguCdNm":"제주시","addr":"제주특별자치도 제주시 한경면 고산로 15, (한경면)","phone":"064-772-2891","hospUrl":"","estbDd":"20060504","drTotCnt":1,"mdeptSdrCnt":1,"lat":33.3024197,"lng":126.1793881},{"id":"JDQ4MTYyMiM4MSMkMiMkOCMkMDAkMzgxMzUxIzUxIyQyIyQxIyQwMCQyNjE4MzIjNTEjJDEjJDIjJDgz","name":"고산의원","clCd":"31","clCdNm":"의원","sidoCd":"390000","sidoCdNm":"제주","sgguCd":"390200","sgguCdNm":"제주시","addr":"제주특별자치도 제주시 한경면 고산로 8, (한경면)","phone":"064-773-1963","hospUrl":"","estbDd":"20170206","drTotCnt":1,"mdeptSdrCnt":1,"lat":33.3016652,"lng":126.1798143},{"id":"JDQ4MTYyMiM4MSMkMiMkOCMkMDAkMzgxMzUxIzIxIyQxIyQ1IyQ3OSQyNjEyMjIjNDEjJDEjJDgjJDgz","name":"고순희내과의원","clCd":"31","clCdNm":"의원","sidoCd":"390000","sidoCdNm":"제주","sgguCd":"390200","sgguCdNm":"제주시","addr":"제주특별자치도 제주시 서사로 155, (삼도일동)","phone":"064-721-1789","hospUrl":"","estbDd":"19970422","drTotCnt":5,"mdeptSdrCnt":5,"lat":33.4984472,"lng":126.5200334},{"id":"JDQ4MTYyMiM4MSMkMiMkOCMkMDAkMzgxMzUxIzExIyQxIyQzIyQxMyQ0NjEwMDIjNjEjJDEjJDAjJDgz","name":"고신경정신과의원","clCd":"31","clCdNm":"의원","sidoCd":"390000","sidoCdNm":"제주","sgguCd":"390200","sgguCdNm":"제주시","addr":"제주특별자치도 제주시 서광로 203, (삼도일동)","phone":"722-3185","hospUrl":"","estbDd":"19830303","drTotCnt":1,"mdeptSdrCnt":1,"lat":33.5001831,"lng":126.5181309},{"id":"JDQ4MTYyMiM4MSMkMiMkOCMkMDAkMzgxMzUxIzMxIyQxIyQ3IyQ4OSQzNjE4MzIjODEjJDEjJDIjJDgz","name":"고영관신경외과의원","clCd":"31","clCdNm":"의원","sidoCd":"390000","sidoCdNm":"제주","sgguCd":"390200","sgguCdNm":"제주시","addr":"제주특별자치도 제주시 연삼로 342, 2층 (도남동)","phone":"064-742-7572","hospUrl":"","estbDd":"20070418","drTotCnt":1,"mdeptSdrCnt":1,"lat":33.491965,"lng":126.5290783},{"id":"JDQ4MTYyMiM4MSMkMiMkOCMkMDAkMzgxMzUxIzIxIyQxIyQxIyQ4MiQ0NjEwMDIjNjEjJDEjJDQjJDgz","name":"고영호재활의학과의원","clCd":"31","clCdNm":"의원","sidoCd":"390000","sidoCdNm":"제주","sgguCd":"390200","sgguCdNm":"제주시","addr":"제주특별자치도 제주시 서광로 175, (용담일동)","phone":"064-721-8275","hospUrl":"","estbDd":"19950605","drTotCnt":1,"mdeptSdrCnt":1,"lat":33.5003202,"lng":126.5151861},{"id":"JDQ4MTYyMiM4MSMkMiMkOCMkMDAkMzgxMzUxIzUxIyQyIyQ1IyQwMCQyNjE4MzIjODEjJDEjJDYjJDgz","name":"고은미(美)의원","clCd":"31","clCdNm":"의원","sidoCd":"390000","sidoCdNm":"제주","sgguCd":"390100","sgguCdNm":"서귀포시","addr":"제주특별자치도 서귀포시 일주동로 8707, 위너스빌딩 2층 (서귀동)","phone":"064-763-1231","hospUrl":"","estbDd":"20191223","drTotCnt":1,"mdeptSdrCnt":1,"lat":33.2524738,"lng":126.5582559},{"id":"JDQ4MTYyMiM4MSMkMiMkOCMkMDAkMzgxMzUxIzIxIyQxIyQ5IyQ5OSQzNjE4MzIjNTEjJDEjJDIjJDgz","name":"고은의원","clCd":"31","clCdNm":"의원","sidoCd":"390000","sidoCdNm":"제주","sgguCd":"390100","sgguCdNm":"서귀포시","addr":"제주특별자치도 서귀포시 대정읍 상모로 323, 2층(고은의원)","phone":"064-794-7565","hospUrl":"","estbDd":"20010602","drTotCnt":1,"mdeptSdrCnt":0,"lat":33.2221801,"lng":126.2549724},{"id":"JDQ4MTYyMiM4MSMkMiMkOCMkMDAkMzgxMzUxIzExIyQyIyQzIyQwMCQzNjE4MzIjNjEjJDEjJDAjJDgz","name":"고은희산부인과의원","clCd":"31","clCdNm":"의원","sidoCd":"390000","sidoCdNm":"제주","sgguCd":"390100","sgguCdNm":"서귀포시","addr":"제주특별자치도 서귀포시 중정로 78, (서귀동)","phone":"064-762-2266","hospUrl":"http://kohehobgy.co.kr","estbDd":"19741202","drTotCnt":1,"mdeptSdrCnt":1,"lat":33.2479946,"lng":126.5646811},{"id":"JDQ4MTYyMiM4MSMkMiMkOCMkMDAkMzgxMzUxIzUxIyQxIyQxIyQ3MiQyNjE4MzIjNzEjJDEjJDgjJDgz","name":"공감성형외과의원","clCd":"31","clCdNm":"의원","sidoCd":"390000","sidoCdNm":"제주","sgguCd":"390200","sgguCdNm":"제주시","addr":"제주특별자치도 제주시 중앙로 310, 1,2층 (이도이동)","phone":"064-702-0310","hospUrl":"","estbDd":"20170804","drTotCnt":1,"mdeptSdrCnt":1,"lat":33.4931596,"lng":126.5347775},{"id":"JDQ4MTYyMiM4MSMkMiMkOCMkMDAkMzgxMzUxIzUxIyQxIyQ1IyQ3OSQzNjE4MzIjNDEjJDEjJDQjJDgz","name":"구구정형외과의원","clCd":"31","clCdNm":"의원","sidoCd":"390000","sidoCdNm":"제주","sgguCd":"390200","sgguCdNm":"제주시","addr":"제주특별자치도 제주시 우정로 55, 2, 3층 (외도일동)","phone":"064-747-0199","hospUrl":"","estbDd":"20181211","drTotCnt":1,"mdeptSdrCnt":1,"lat":33.4879732,"lng":126.4311177},{"id":"JDQ4MTYyMiM4MSMkMiMkOCMkMDAkMzgxMzUxIzIxIyQxIyQxIyQ5MiQyNjE4MzIjNTEjJDEjJDYjJDgz","name":"구좌의원","clCd":"31","clCdNm":"의원","sidoCd":"390000","sidoCdNm":"제주","sgguCd":"390200","sgguCdNm":"제주시","addr":"제주특별자치도 제주시 구좌읍 세화12길 1, (구좌읍)","phone":"064-782-9282","hospUrl":"","estbDd":"19950704","drTotCnt":1,"mdeptSdrCnt":0,"lat":33.5208422,"lng":126.8592749},{"id":"JDQ4MTYyMiM4MSMkMiMkOCMkMDAkMzgxMzUxIzUxIyQxIyQ1IyQ3MiQ0NjEwMDIjNTEjJDEjJDIjJDgz","name":"국가대표정형외과의원","clCd":"31","clCdNm":"의원","sidoCd":"390000","sidoCdNm":"제주","sgguCd":"390200","sgguCdNm":"제주시","addr":"제주특별자치도 제주시 연북로 90, 2, 3층 (연동)","phone":"064-745-5566","hospUrl":"","estbDd":"20210825","drTotCnt":3,"mdeptSdrCnt":3,"lat":33.4815076,"lng":126.4908255},{"id":"JDQ4MTYyMiM4MSMkMiMkOCMkMDAkMzgxMzUxIzUxIyQxIyQ1IyQ5MiQzNjEwMDIjNjEjJDEjJDAjJDgz","name":"권대헌내과의원","clCd":"31","clCdNm":"의원","sidoCd":"390000","sidoCdNm":"제주","sgguCd":"390200","sgguCdNm":"제주시","addr":"제주특별자치도 제주시 노형로 386, 4층 (노형동)","phone":"064-742-5575","hospUrl":"","estbDd":"20220324","drTotCnt":1,"mdeptSdrCnt":1,"lat":33.4841397,"lng":126.4769248},{"id":"JDQ4MTYyMiM4MSMkMiMkOCMkMDAkMzgxMzUxIzIxIyQxIyQ5IyQ3MiQ0NjE0ODEjNTEjJDEjJDIjJDgz","name":"그린서울내과의원","clCd":"31","clCdNm":"의원","sidoCd":"390000","sidoCdNm":"제주","sgguCd":"390200","sgguCdNm":"제주시","addr":"제주특별자치도 제주시 1100로 3333, 5층 (노형동)","phone":"064-749-7770","hospUrl":"","estbDd":"20110128","drTotCnt":1,"mdeptSdrCnt":1,"lat":33.4836142,"lng":126.4801422},{"id":"JDQ4MTYyMiM4MSMkMiMkOCMkMDAkMzgxMzUxIzMxIyQxIyQ3IyQ3OSQzNjE0ODEjNjEjJDEjJDgjJDgz","name":"그린정형외과의원","clCd":"31","clCdNm":"의원","sidoCd":"390000","sidoCdNm":"제주","sgguCd":"390100","sgguCdNm":"서귀포시","addr":"제주특별자치도 서귀포시 일주동로 8544, 2층 (동홍동)","phone":"064-763-7582","hospUrl":"","estbDd":"20100629","drTotCnt":1,"mdeptSdrCnt":1,"lat":33.2550601,"lng":126.5755447},{"id":"JDQ4MTYyMiM4MSMkMiMkOCMkMDAkMzgxMzUxIzUxIyQxIyQxIyQxMyQzNjE0ODEjNjEjJDEjJDAjJDgz","name":"김광정정형외과의원","clCd":"31","clCdNm":"의원","sidoCd":"390000","sidoCdNm":"제주","sgguCd":"390200","sgguCdNm":"제주시","addr":"제주특별자치도 제주시 월랑로8길 1, 아란야플라자 2층 202호 (노형동)","phone":"064-742-7588","hospUrl":"","estbDd":"20180726","drTotCnt":1,"mdeptSdrCnt":1,"lat":33.4888185,"lng":126.4766739},{"id":"JDQ4MTYyMiM4MSMkMiMkOCMkMDAkMzgxMzUxIzQxIyQxIyQ3IyQ4OSQ0NjEwMDIjNDEjJDEjJDgjJDgz","name":"김기준이비인후과의원","clCd":"31","clCdNm":"의원","sidoCd":"390000","sidoCdNm":"제주","sgguCd":"390200","sgguCdNm":"제주시","addr":"제주특별자치도 제주시 승천로 75, (아라이동)","phone":"756-8900","hospUrl":"","estbDd":"20130821","drTotCnt":1,"mdeptSdrCnt":1,"lat":33.4922261,"lng":126.5431703},{"id":"JDQ4MTYyMiM4MSMkMiMkOCMkMDAkMzgxMzUxIzQxIyQyIyQ3IyQwMCQzNjE4MzIjODEjJDEjJDYjJDgz","name":"김래상신경외과의원","clCd":"31","clCdNm":"의원","sidoCd":"390000","sidoCdNm":"제주","sgguCd":"390200","sgguCdNm":"제주시","addr":"제주특별자치도 제주시 중앙로 366, 2층 (이도이동)","phone":"064-725-8275","hospUrl":"","estbDd":"20140703","drTotCnt":1,"mdeptSdrCnt":1,"lat":33.4892028,"lng":126.5384818},{"id":"JDQ4MTYyMiM4MSMkMiMkOCMkMDAkMzgxMzUxIzIxIyQxIyQ1IyQxMyQ0NjE0ODEjNjEjJDEjJDQjJDgz","name":"김명식내과의원","clCd":"31","clCdNm":"의원","sidoCd":"390000","sidoCdNm":"제주","sgguCd":"390200","sgguCdNm":"제주시","addr":"제주특별자치도 제주시 용문로 163, (용담이동)","phone":"758-0008","hospUrl":"","estbDd":"20000914","drTotCnt":1,"mdeptSdrCnt":1,"lat":33.5092786,"lng":126.5108024},{"id":"JDQ4MTYyMiM4MSMkMiMkOCMkMDAkMzgxMzUxIzMxIyQxIyQzIyQ3OSQzNjEyMjIjNjEjJDEjJDgjJDgz","name":"김병훈정형외과의원","clCd":"31","clCdNm":"의원","sidoCd":"390000","sidoCdNm":"제주","sgguCd":"390200","sgguCdNm":"제주시","addr":"제주특별자치도 제주시 도령로 7, (노형동)","phone":"064-744-0700","hospUrl":"","estbDd":"20030410","drTotCnt":1,"mdeptSdrCnt":1,"lat":33.486656,"lng":126.4800948},{"id":"JDQ4MTYyMiM4MSMkMiMkOCMkMDAkMzgxMzUxIzExIyQxIyQ3IyQ3MiQzNjEyMjIjNzEjJDEjJDgjJDgz","name":"김상훈비뇨기과의원","clCd":"31","clCdNm":"의원","sidoCd":"390000","sidoCdNm":"제주","sgguCd":"390100","sgguCdNm":"서귀포시","addr":"제주특별자치도 서귀포시 중앙로42번길 9, (서귀동)","phone":"064-762-7888","hospUrl":"","estbDd":"19880206","drTotCnt":1,"mdeptSdrCnt":1,"lat":33.2485479,"lng":126.5627498},{"id":"JDQ4MTYyMiM4MSMkMiMkOCMkMDAkMzgxMzUxIzMxIyQxIyQ3IyQ2MiQzNjE4MzIjNDEjJDEjJDQjJDgz","name":"김석홍마취통증의학과의원","clCd":"31","clCdNm":"의원","sidoCd":"390000","sidoCdNm":"제주","sgguCd":"390100","sgguCdNm":"서귀포시","addr":"제주특별자치도 서귀포시 중정로 56-1, (서귀동)","phone":"064-763-7575","hospUrl":"","estbDd":"20090622","drTotCnt":1,"mdeptSdrCnt":1,"lat":33.2474901,"lng":126.562457},{"id":"JDQ4MTYyMiM4MSMkMiMkOCMkMDAkMzgxMzUxIzMxIyQxIyQzIyQ2MiQzNjEyMjIjNjEjJDEjJDQjJDgz","name":"김세희소아과의원","clCd":"31","clCdNm":"의원","sidoCd":"390000","sidoCdNm":"제주","sgguCd":"390200","sgguCdNm":"제주시","addr":"제주특별자치도 제주시 동광로 110, 2층 (일도이동)","phone":"726-5275","hospUrl":"","estbDd":"20050216","drTotCnt":1,"mdeptSdrCnt":1,"lat":33.5061273,"lng":126.5392443},{"id":"JDQ4MTYyMiM4MSMkMiMkOCMkMDAkMzgxMzUxIzIxIyQxIyQ1IyQ3OSQzNjE0ODEjNzEjJDEjJDgjJDgz","name":"김수로의원","clCd":"31","clCdNm":"의원","sidoCd":"390000","sidoCdNm":"제주","sgguCd":"390200","sgguCdNm":"제주시","addr":"제주특별자치도 제주시 한림읍 한림로 672, 2층","phone":"064-796-8011","hospUrl":"","estbDd":"19970506","drTotCnt":1,"mdeptSdrCnt":1,"lat":33.4146616,"lng":126.2649781},{"id":"JDQ4MTYyMiM4MSMkMiMkOCMkMDAkMzgxMzUxIzExIyQxIyQ3IyQ4MiQ0NjEwMDIjODEjJDEjJDYjJDgz","name":"김수상내과의원","clCd":"31","clCdNm":"의원","sidoCd":"390000","sidoCdNm":"제주","sgguCd":"390200","sgguCdNm":"제주시","addr":"제주특별자치도 제주시 동광로 100, (일도이동)","phone":"064-753-0996","hospUrl":"","estbDd":"19890123","drTotCnt":1,"mdeptSdrCnt":1,"lat":33.5054994,"lng":126.5384586},{"id":"JDQ4MTYyMiM4MSMkMiMkOCMkMDAkMzgxMzUxIzIxIyQxIyQ5IyQ2MiQzNjE0ODEjNTEjJDEjJDIjJDgz","name":"김앤김신경외과의원","clCd":"31","clCdNm":"의원","sidoCd":"390000","sidoCdNm":"제주","sgguCd":"390200","sgguCdNm":"제주시","addr":"제주특별자치도 제주시 1100로 3324, 6층 (노형동)","phone":"064-713-2500","hospUrl":"","estbDd":"20120627","drTotCnt":2,"mdeptSdrCnt":2,"lat":33.48302,"lng":126.4812051},{"id":"JDQ4MTYyMiM4MSMkMiMkOCMkMDAkMzgxMzUxIzIxIyQxIyQ1IyQ3OSQzNjEwMDIjNjEjJDEjJDQjJDgz","name":"김영석성형외과의원","clCd":"31","clCdNm":"의원","sidoCd":"390000","sidoCdNm":"제주","sgguCd":"390200","sgguCdNm":"제주시","addr":"제주특별자치도 제주시 도령로 1, 5층 (노형동)","phone":"064-711-7533","hospUrl":"","estbDd":"19970415","drTotCnt":1,"mdeptSdrCnt":1,"lat":33.4868039,"lng":126.4793043},{"id":"JDQ4MTYyMiM4MSMkMiMkOCMkMDAkMzgxMzUxIzQxIyQxIyQ3IyQ5MiQyNjE4MzIjNjEjJDEjJDQjJDgz","name":"김영중의원","clCd":"31","clCdNm":"의원","sidoCd":"390000","sidoCdNm":"제주","sgguCd":"390200","sgguCdNm":"제주시","addr":"제주특별자치도 제주시 노형로 386, 2층 (노형동)","phone":"064-744-1175","hospUrl":"","estbDd":"20150806","drTotCnt":1,"mdeptSdrCnt":1,"lat":33.4841397,"lng":126.4769248},{"id":"JDQ4MTYyMiM4MSMkMiMkOCMkMDAkMzgxMzUxIzExIyQxIyQzIyQwMyQyNjE4MzIjODEjJDEjJDIjJDgz","name":"김판규외과의원","clCd":"31","clCdNm":"의원","sidoCd":"390000","sidoCdNm":"제주","sgguCd":"390200","sgguCdNm":"제주시","addr":"제주특별자치도 제주시 무근성7길 2, (삼도이동)","phone":"722-2852","hospUrl":"","estbDd":"19810413","drTotCnt":1,"mdeptSdrCnt":1,"lat":33.5131356,"lng":126.5200021},{"id":"JDQ4MTYyMiM4MSMkMiMkOCMkMDAkMzgxMzUxIzExIyQxIyQ3IyQ3MiQ0NjE0ODEjNTEjJDEjJDYjJDgz","name":"김헌지정형외과의원","clCd":"31","clCdNm":"의원","sidoCd":"390000","sidoCdNm":"제주","sgguCd":"390200","sgguCdNm":"제주시","addr":"제주특별자치도 제주시 동광로15길 4, (일도이동)","phone":"064-755-1081","hospUrl":"","estbDd":"19880316","drTotCnt":1,"mdeptSdrCnt":1,"lat":33.5060573,"lng":126.5378665},{"id":"JDQ4MTYyMiM4MSMkMiMkOCMkMDAkMzgxMzUxIzMxIyQxIyQ3IyQwMyQzNjE4MzIjODEjJDEjJDYjJDgz","name":"꾸러기소아청소년과의원","clCd":"31","clCdNm":"의원","sidoCd":"390000","sidoCdNm":"제주","sgguCd":"390200","sgguCdNm":"제주시","addr":"제주특별자치도 제주시 우정로 63, 1층 (외도일동)","phone":"064-713-7500","hospUrl":"","estbDd":"20120330","drTotCnt":1,"mdeptSdrCnt":1,"lat":33.4871189,"lng":126.4311052},{"id":"JDQ4MTYyMiM4MSMkMiMkOCMkMDAkMzgxMzUxIzUxIyQxIyQxIyQwMyQ0NjE0ODEjNDEjJDEjJDQjJDgz","name":"꿀의원","clCd":"31","clCdNm":"의원","sidoCd":"390000","sidoCdNm":"제주","sgguCd":"390200","sgguCdNm":"제주시","addr":"제주특별자치도 제주시 동화로 28, 4층 (화북일동)","phone":"064-759-7595","hospUrl":"","estbDd":"20180105","drTotCnt":1,"mdeptSdrCnt":1,"lat":33.5178296,"lng":126.572808},{"id":"JDQ4MTYyMiM4MSMkMiMkOCMkMDAkMzgxMzUxIzIxIyQxIyQ5IyQxMyQzNjE4MzIjNTEjJDEjJDYjJDgz","name":"나우리제통의원","clCd":"31","clCdNm":"의원","sidoCd":"390000","sidoCdNm":"제주","sgguCd":"390200","sgguCdNm":"제주시","addr":"제주특별자치도 제주시 한림읍 한림북동길 7, 한림중앙상가 2층 202호","phone":"064-796-0995","hospUrl":"","estbDd":"20030227","drTotCnt":1,"mdeptSdrCnt":1,"lat":33.4159154,"lng":126.2636124},{"id":"JDQ4MTYyMiM4MSMkMiMkOCMkMDAkMzgxMzUxIzUxIyQxIyQ1IyQwMyQyNjEyMjIjNzEjJDEjJDgjJDgz","name":"나우메디의원","clCd":"31","clCdNm":"의원","sidoCd":"390000","sidoCdNm":"제주","sgguCd":"390200","sgguCdNm":"제주시","addr":"제주특별자치도 제주시 연북로 511, 에이플렉스 3층 (아라일동)","phone":"064-727-1339","hospUrl":"","estbDd":"20220621","drTotCnt":3,"mdeptSdrCnt":3,"lat":33.4843386,"lng":126.5346355},{"id":"JDQ4MTYyMiM4MSMkMiMkOCMkMDAkMzgxMzUxIzIxIyQxIyQxIyQ4MiQzNjE4MzIjODEjJDEjJDYjJDgz","name":"나의원","clCd":"31","clCdNm":"의원","sidoCd":"390000","sidoCdNm":"제주","sgguCd":"390200","sgguCdNm":"제주시","addr":"제주특별자치도 제주시 관덕로 64, 3층 (일도일동)","phone":"064-756-2581","hospUrl":"","estbDd":"19940501","drTotCnt":1,"mdeptSdrCnt":1,"lat":33.5128978,"lng":126.526034},{"id":"JDQ4MTYyMiM4MSMkMiMkOCMkMDAkMzgxMzUxIzMxIyQxIyQzIyQ4OSQyNjEwMDIjNTEjJDEjJDIjJDgz","name":"날씬의원","clCd":"31","clCdNm":"의원","sidoCd":"390000","sidoCdNm":"제주","sgguCd":"390200","sgguCdNm":"제주시","addr":"제주특별자치도 제주시 도령로 5, (노형동)","phone":"744-0570","hospUrl":"","estbDd":"20030808","drTotCnt":1,"mdeptSdrCnt":1,"lat":33.4867661,"lng":126.4799162},{"id":"JDQ4MTYyMiM4MSMkMiMkOCMkMDAkMzgxMzUxIzIxIyQxIyQ5IyQ3OSQzNjEyMjIjNDEjJDEjJDQjJDgz","name":"남도의원","clCd":"31","clCdNm":"의원","sidoCd":"390000","sidoCdNm":"제주","sgguCd":"390200","sgguCdNm":"제주시","addr":"제주특별자치도 제주시 우정로 65, (외도일동)","phone":"064-712-7127","hospUrl":"","estbDd":"20010205","drTotCnt":1,"mdeptSdrCnt":0,"lat":33.4868909,"lng":126.4311176},{"id":"JDQ4MTYyMiM4MSMkMiMkOCMkMDAkMzgxMzUxIzMxIyQxIyQ3IyQ5MiQzNjE4MzIjNDEjJDEjJDgjJDgz","name":"남원고려의원","clCd":"31","clCdNm":"의원","sidoCd":"390000","sidoCdNm":"제주","sgguCd":"390100","sgguCdNm":"서귀포시","addr":"제주특별자치도 서귀포시 남원읍 태위로 691, 691","phone":"064-764-6988","hospUrl":"","estbDd":"20111216","drTotCnt":1,"mdeptSdrCnt":1,"lat":33.2796066,"lng":126.7202924},{"id":"JDQ4MTYyMiM4MSMkMiMkOCMkMDAkMzgxMzUxIzExIyQxIyQ3IyQ5MiQyNjEyMjIjODEjJDEjJDYjJDgz","name":"남원의원","clCd":"31","clCdNm":"의원","sidoCd":"390000","sidoCdNm":"제주","sgguCd":"390100","sgguCdNm":"서귀포시","addr":"제주특별자치도 서귀포시 남원읍 태위로 636, (남원읍)","phone":"064-764-4156","hospUrl":"","estbDd":"19900307","drTotCnt":1,"mdeptSdrCnt":0,"lat":33.277842,"lng":126.714575},{"id":"JDQ4MTYyMiM4MSMkMiMkOCMkMDAkMzgxOTYxIzExIyQxIyQzIyQ5OSQzNjE4MzIjNTEjJDEjJDIjJDgz","name":"남재희삼성피부과의원","clCd":"31","clCdNm":"의원","sidoCd":"390000","sidoCdNm":"제주","sgguCd":"390200","sgguCdNm":"제주시","addr":"제주특별자치도 제주시 관덕로 5, 호재빌딩 2·3층 (삼도이동)","phone":"064-757-1117","hospUrl":"","estbDd":"20231122","drTotCnt":3,"mdeptSdrCnt":3,"lat":33.5129413,"lng":126.5196932},{"id":"JDQ4MTYyMiM4MSMkMiMkOCMkMDAkMzgxMzUxIzIxIyQxIyQxIyQwMyQzNjE0ODEjODEjJDEjJDYjJDgz","name":"노동의원","clCd":"31","clCdNm":"의원","sidoCd":"390000","sidoCdNm":"제주","sgguCd":"390200","sgguCdNm":"제주시","addr":"제주특별자치도 제주시 만덕로3길 2, 1층 (건입동)","phone":"064-722-5802","hospUrl":"","estbDd":"20190731","drTotCnt":1,"mdeptSdrCnt":1,"lat":33.5148021,"lng":126.5321629},{"id":"JDQ4MTYyMiM4MSMkMiMkOCMkMDAkMzgxOTYxIzExIyQxIyQzIyQ4MiQ0NjEwMDIjODEjJDEjJDIjJDgz","name":"노형365준의원","clCd":"31","clCdNm":"의원","sidoCd":"390000","sidoCdNm":"제주","sgguCd":"390200","sgguCdNm":"제주시","addr":"제주특별자치도 제주시 수덕로 41, 2층 (노형동)","phone":"064-746-9977","hospUrl":"","estbDd":"20250903","drTotCnt":1,"mdeptSdrCnt":0,"lat":33.4861483,"lng":126.4727553},{"id":"JDQ4MTYyMiM4MSMkMiMkOCMkMDAkMzgxMzUxIzUxIyQxIyQ1IyQxMyQyNjEyMjIjNjEjJDEjJDAjJDgz","name":"노형오거리재활의학과의원","clCd":"31","clCdNm":"의원","sidoCd":"390000","sidoCdNm":"제주","sgguCd":"390200","sgguCdNm":"제주시","addr":"제주특별자치도 제주시 1100로 3347, 5,6층 (노형동)","phone":"064-749-9115","hospUrl":"","estbDd":"20170728","drTotCnt":1,"mdeptSdrCnt":1,"lat":33.4848447,"lng":126.4796326},{"id":"JDQ4MTYyMiM4MSMkMiMkOCMkMDAkMzgxMzUxIzExIyQxIyQ3IyQxMyQ0NjE0ODEjNTEjJDEjJDIjJDgz","name":"노형이비인후과의원","clCd":"31","clCdNm":"의원","sidoCd":"390000","sidoCdNm":"제주","sgguCd":"390200","sgguCdNm":"제주시","addr":"제주특별자치도 제주시 월랑로 1, 6층 (노형동)","phone":"064-748-5075","hospUrl":"","estbDd":"19910307","drTotCnt":1,"mdeptSdrCnt":1,"lat":33.4863671,"lng":126.4785554},{"id":"JDQ4MTYyMiM4MSMkMiMkOCMkMDAkMzgxMzUxIzExIyQxIyQzIyQ5MiQ0NjEwMDIjNDEjJDEjJDQjJDgz","name":"녹십자정형외과의원","clCd":"31","clCdNm":"의원","sidoCd":"390000","sidoCdNm":"제주","sgguCd":"390200","sgguCdNm":"제주시","addr":"제주특별자치도 제주시 도령로 9, (노형동)","phone":"746-9507","hospUrl":"","estbDd":"19900223","drTotCnt":1,"mdeptSdrCnt":1,"lat":33.486782,"lng":126.480383},{"id":"JDQ4MTYyMiM4MSMkMiMkOCMkMDAkMzgxMzUxIzIxIyQxIyQ1IyQ4MiQyNjE0ODEjODEjJDEjJDIjJDgz","name":"누가제통마취통증의학과의원","clCd":"31","clCdNm":"의원","sidoCd":"390000","sidoCdNm":"제주","sgguCd":"390200","sgguCdNm":"제주시","addr":"제주특별자치도 제주시 청풍남8길 73, 3층 (화북이동)","phone":"064-752-5758","hospUrl":"","estbDd":"19990319","drTotCnt":1,"mdeptSdrCnt":1,"lat":33.5131805,"lng":126.5724692},{"id":"JDQ4MTYyMiM4MSMkMiMkOCMkMDAkMzgxMzUxIzUxIyQxIyQ1IyQ4MiQyNjEyMjIjNTEjJDEjJDIjJDgz","name":"눈사랑안과의원","clCd":"31","clCdNm":"의원","sidoCd":"390000","sidoCdNm":"제주","sgguCd":"390200","sgguCdNm":"제주시","addr":"제주특별자치도 제주시 노형8길 2, 4층 (노형동)","phone":"064-746-0048","hospUrl":"","estbDd":"20150413","drTotCnt":1,"mdeptSdrCnt":1,"lat":33.4843411,"lng":126.4773195},{"id":"JDQ4MTYyMiM4MSMkMiMkOCMkMDAkMzgxMzUxIzMxIyQxIyQ3IyQ4MiQyNjE4MzIjNDEjJDEjJDgjJDgz","name":"늘봄미아름의원","clCd":"31","clCdNm":"의원","sidoCd":"390000","sidoCdNm":"제주","sgguCd":"390200","sgguCdNm":"제주시","addr":"제주특별자치도 제주시 월랑로 33, 한라빌딩 3층 (노형동)","phone":"064-747-5200","hospUrl":"","estbDd":"20160427","drTotCnt":1,"mdeptSdrCnt":1,"lat":33.4885677,"lng":126.4760991},{"id":"JDQ4MTYyMiM4MSMkMiMkOCMkMDAkMzgxMzUxIzMxIyQxIyQzIyQ5OSQzNjEyMjIjNDEjJDEjJDgjJDgz","name":"늘푸른가정의학과의원","clCd":"31","clCdNm":"의원","sidoCd":"390000","sidoCdNm":"제주","sgguCd":"390200","sgguCdNm":"제주시","addr":"제주특별자치도 제주시 중앙로 175, 4층 (이도일동)","phone":"064-752-9696","hospUrl":"http://evergreenfm.co.kr","estbDd":"20171201","drTotCnt":1,"mdeptSdrCnt":1,"lat":33.5035652,"lng":126.5273659},{"id":"JDQ4MTYyMiM4MSMkMiMkOCMkMDAkMzgxMzUxIzIxIyQxIyQ1IyQ5MiQyNjEwMDIjNTEjJDEjJDYjJDgz","name":"늘푸른내과의원","clCd":"31","clCdNm":"의원","sidoCd":"390000","sidoCdNm":"제주","sgguCd":"390200","sgguCdNm":"제주시","addr":"제주특별자치도 제주시 과원북4길 35, (노형동)","phone":"746-7337","hospUrl":"","estbDd":"19910731","drTotCnt":1,"mdeptSdrCnt":1,"lat":33.4812549,"lng":126.4863595},{"id":"JDQ4MTYyMiM4MSMkMiMkOCMkMDAkMzgxMzUxIzIxIyQxIyQ5IyQ2MiQyNjEwMDIjODEjJDEjJDIjJDgz","name":"다나산부인과의원","clCd":"31","clCdNm":"의원","sidoCd":"390000","sidoCdNm":"제주","sgguCd":"390200","sgguCdNm":"제주시","addr":"제주특별자치도 제주시 고마로 47, (일도이동)","phone":"064-702-1186","hospUrl":"","estbDd":"20020128","drTotCnt":3,"mdeptSdrCnt":3,"lat":33.5100381,"lng":126.5394727},{"id":"JDQ4MTYyMiM4MSMkMiMkOCMkMDAkMzgxMzUxIzMxIyQxIyQzIyQxMyQ0NjE0ODEjODEjJDEjJDIjJDgz","name":"다사랑가정의학과의원","clCd":"31","clCdNm":"의원","sidoCd":"390000","sidoCdNm":"제주","sgguCd":"390200","sgguCdNm":"제주시","addr":"제주특별자치도 제주시 신대로 128, (연동)","phone":"064-745-7582","hospUrl":"","estbDd":"20061017","drTotCnt":1,"mdeptSdrCnt":1,"lat":33.4858518,"lng":126.4960596},{"id":"JDQ4MTYyMiM4MSMkMiMkOCMkMDAkMzgxMzUxIzMxIyQxIyQ3IyQ5OSQyNjEyMjIjNjEjJDEjJDAjJDgz","name":"다정금이비인후과의원","clCd":"31","clCdNm":"의원","sidoCd":"390000","sidoCdNm":"제주","sgguCd":"390100","sgguCdNm":"서귀포시","addr":"제주특별자치도 서귀포시 일주동로 8673, (서귀동)","phone":"064-767-9289","hospUrl":"","estbDd":"20070702","drTotCnt":1,"mdeptSdrCnt":1,"lat":33.2530359,"lng":126.5618253},{"id":"JDQ4MTYyMiM4MSMkMiMkOCMkMDAkMzgxMzUxIzIxIyQxIyQ5IyQwMyQyNjEyMjIjNjEjJDEjJDQjJDgz","name":"닥터문의원","clCd":"31","clCdNm":"의원","sidoCd":"390000","sidoCdNm":"제주","sgguCd":"390200","sgguCdNm":"제주시","addr":"제주특별자치도 제주시 애월읍 애조로 236, (애월읍)","phone":"064-756-2900","hospUrl":"http://","estbDd":"20140620","drTotCnt":1,"mdeptSdrCnt":1,"lat":33.4729153,"lng":126.4087407},{"id":"JDQ4MTYyMiM4MSMkMiMkOCMkMDAkMzgxMzUxIzQxIyQxIyQ3IyQ3OSQyNjE4MzIjNjEjJDEjJDAjJDgz","name":"닥터양내과의원","clCd":"31","clCdNm":"의원","sidoCd":"390000","sidoCdNm":"제주","sgguCd":"390200","sgguCdNm":"제주시","addr":"제주특별자치도 제주시 관덕로 18, (삼도이동)","phone":"064-752-3312","hospUrl":"","estbDd":"20130123","drTotCnt":1,"mdeptSdrCnt":1,"lat":33.5128797,"lng":126.5212613},{"id":"JDQ4MTYyMiM4MSMkMiMkOCMkMDAkMzgxMzUxIzUxIyQxIyQxIyQxMyQ0NjEwMDIjNjEjJDEjJDQjJDgz","name":"단단한정형외과의원","clCd":"31","clCdNm":"의원","sidoCd":"390000","sidoCdNm":"제주","sgguCd":"390200","sgguCdNm":"제주시","addr":"제주특별자치도 제주시 연북로 76, 한성빌딩 3층 (연동)","phone":"064-749-7577","hospUrl":"","estbDd":"20180822","drTotCnt":1,"mdeptSdrCnt":1,"lat":33.4815322,"lng":126.4893872},{"id":"JDQ4MTYyMiM4MSMkMiMkOCMkMDAkMzgxMzUxIzExIyQxIyQ3IyQ5MiQzNjE0ODEjNjEjJDEjJDQjJDgz","name":"대림외과의원","clCd":"31","clCdNm":"의원","sidoCd":"390000","sidoCdNm":"제주","sgguCd":"390100","sgguCdNm":"서귀포시","addr":"제주특별자치도 서귀포시 중앙로 25-3, (서귀동)","phone":"","hospUrl":"","estbDd":"20170925","drTotCnt":1,"mdeptSdrCnt":1,"lat":33.2470758,"lng":126.5615398},{"id":"JDQ4MTYyMiM4MSMkMiMkOCMkMDAkMzgxMzUxIzQxIyQxIyQ3IyQ4MiQyNjEwMDIjNDEjJDEjJDgjJDgz","name":"대정안과의원","clCd":"31","clCdNm":"의원","sidoCd":"390000","sidoCdNm":"제주","sgguCd":"390100","sgguCdNm":"서귀포시","addr":"제주특별자치도 서귀포시 대정읍 하모상가로 38-2, 101,201호","phone":"064-794-9900","hospUrl":"https://24eye.modoo.at/","estbDd":"20241125","drTotCnt":1,"mdeptSdrCnt":1,"lat":33.2214025,"lng":126.2529726},{"id":"JDQ4MTYyMiM4MSMkMiMkOCMkMDAkMzgxMzUxIzUxIyQxIyQ1IyQ4MiQyNjEwMDIjNjEjJDEjJDAjJDgz","name":"대정연합의원","clCd":"31","clCdNm":"의원","sidoCd":"390000","sidoCdNm":"제주","sgguCd":"390100","sgguCdNm":"서귀포시","addr":"제주특별자치도 서귀포시 대정읍 하모상가로 46, 5층","phone":"064-792-3238","hospUrl":"","estbDd":"20140827","drTotCnt":1,"mdeptSdrCnt":1,"lat":33.2216061,"lng":126.2537062},{"id":"JDQ4MTYyMiM4MSMkMiMkOCMkMDAkMzgxMzUxIzQxIyQxIyQ3IyQ4MiQzNjE0ODEjNjEjJDEjJDgjJDgz","name":"대정의원","clCd":"31","clCdNm":"의원","sidoCd":"390000","sidoCdNm":"제주","sgguCd":"390100","sgguCdNm":"서귀포시","addr":"제주특별자치도 서귀포시 대정읍 하모상가로 46, 4층","phone":"064-792-7588","hospUrl":"","estbDd":"20150602","drTotCnt":1,"mdeptSdrCnt":1,"lat":33.2216061,"lng":126.2537062},{"id":"JDQ4MTYyMiM4MSMkMiMkOCMkMDAkMzgxMzUxIzUxIyQxIyQxIyQ5OSQyNjE4MzIjNjEjJDEjJDQjJDgz","name":"대한내과의원","clCd":"31","clCdNm":"의원","sidoCd":"390000","sidoCdNm":"제주","sgguCd":"390200","sgguCdNm":"제주시","addr":"제주특별자치도 제주시 노형11길 25, 2층 (노형동)","phone":"064-746-9661","hospUrl":"","estbDd":"20160819","drTotCnt":1,"mdeptSdrCnt":1,"lat":33.4827805,"lng":126.477711},{"id":"JDQ4MTYyMiM4MSMkMiMkOCMkMDAkMzgxMzUxIzQxIyQxIyQ3IyQ3OSQ0NjE0ODEjNjEjJDEjJDQjJDgz","name":"더고운의원","clCd":"31","clCdNm":"의원","sidoCd":"390000","sidoCdNm":"제주","sgguCd":"390200","sgguCdNm":"제주시","addr":"제주특별자치도 제주시 중앙로 371, (이도이동)","phone":"064-727-9919","hospUrl":"","estbDd":"20130315","drTotCnt":2,"mdeptSdrCnt":0,"lat":33.4891999,"lng":126.5394551},{"id":"JDQ4MTYyMiM4MSMkMiMkOCMkMDAkMzgxOTYxIzExIyQxIyQzIyQ5MiQzNjEyMjIjNDEjJDEjJDgjJDgz","name":"더나음이비인후과의원","clCd":"31","clCdNm":"의원","sidoCd":"390000","sidoCdNm":"제주","sgguCd":"390200","sgguCdNm":"제주시","addr":"제주특별자치도 제주시 서광로 267, 1층 (삼도일동)","phone":"064-755-8383","hospUrl":"","estbDd":"19990324","drTotCnt":2,"mdeptSdrCnt":2,"lat":33.5002296,"lng":126.5249409},{"id":"JDQ4MTYyMiM4MSMkMiMkOCMkMDAkMzgxOTYxIzExIyQxIyQzIyQ3OSQyNjE4MzIjNjEjJDEjJDQjJDgz","name":"더리프트의원","clCd":"31","clCdNm":"의원","sidoCd":"390000","sidoCdNm":"제주","sgguCd":"390200","sgguCdNm":"제주시","addr":"제주특별자치도 제주시 과원로 110, 2층 201호 (연동)","phone":"064-747-2302","hospUrl":"","estbDd":"20230207","drTotCnt":2,"mdeptSdrCnt":1,"lat":33.4793623,"lng":126.4934802},{"id":"JDQ4MTYyMiM4MSMkMiMkOCMkMDAkMzgxMzUxIzUxIyQxIyQxIyQ4OSQ0NjEwMDIjNzEjJDEjJDgjJDgz","name":"더맑은이비인후과의원","clCd":"31","clCdNm":"의원","sidoCd":"390000","sidoCdNm":"제주","sgguCd":"390200","sgguCdNm":"제주시","addr":"제주특별자치도 제주시 동화로 28, 2층 (화북일동)","phone":"064-755-7588","hospUrl":"","estbDd":"20160725","drTotCnt":1,"mdeptSdrCnt":1,"lat":33.5178296,"lng":126.572808},{"id":"JDQ4MTYyMiM4MSMkMiMkOCMkMDAkMzgxMzUxIzQxIyQxIyQ3IyQ4MiQzNjE4MzIjNDEjJDEjJDgjJDgz","name":"더미인의원","clCd":"31","clCdNm":"의원","sidoCd":"390000","sidoCdNm":"제주","sgguCd":"390200","sgguCdNm":"제주시","addr":"제주특별자치도 제주시 도령로 25, 2~3층 (노형동)","phone":"064-749-5222","hospUrl":"","estbDd":"20150603","drTotCnt":6,"mdeptSdrCnt":3,"lat":33.4876167,"lng":126.4813581},{"id":"JDQ4MTYyMiM4MSMkMiMkOCMkMDAkMzgxOTYxIzExIyQxIyQzIyQ3OSQ0NjEwMDIjNjEjJDEjJDAjJDgz","name":"더유니콘의원","clCd":"31","clCdNm":"의원","sidoCd":"390000","sidoCdNm":"제주","sgguCd":"390200","sgguCdNm":"제주시","addr":"제주특별자치도 제주시 1100로 3323, 4층 (노형동)","phone":"064-746-1773","hospUrl":"","estbDd":"20230425","drTotCnt":2,"mdeptSdrCnt":2,"lat":33.4830032,"lng":126.4804011},{"id":"JDQ4MTYyMiM4MSMkMiMkOCMkMDAkMzgxOTYxIzExIyQxIyQzIyQ4OSQyNjEwMDIjNjEjJDEjJDgjJDgz","name":"더이음정신건강의학과의원","clCd":"31","clCdNm":"의원","sidoCd":"390000","sidoCdNm":"제주","sgguCd":"390200","sgguCdNm":"제주시","addr":"제주특별자치도 제주시 중앙로 299, 402호 (이도이동)","phone":"064-805-7755","hospUrl":"","estbDd":"20230501","drTotCnt":1,"mdeptSdrCnt":1,"lat":33.4944019,"lng":126.5346422},{"id":"JDQ4MTYyMiM4MSMkMiMkOCMkMDAkMzgxMzUxIzUxIyQxIyQ1IyQxMyQzNjEyMjIjNzEjJDEjJDgjJDgz","name":"더자란 소아청소년과의원","clCd":"31","clCdNm":"의원","sidoCd":"390000","sidoCdNm":"제주","sgguCd":"390200","sgguCdNm":"제주시","addr":"제주특별자치도 제주시 연북로 556, 2층 (아라일동)","phone":"064-755-5279","hospUrl":"","estbDd":"20221028","drTotCnt":1,"mdeptSdrCnt":1,"lat":33.4863961,"lng":126.5390826},{"id":"JDQ4MTYyMiM4MSMkMiMkOCMkMDAkMzgxMzUxIzUxIyQxIyQxIyQ4MiQyNjEwMDIjODEjJDEjJDIjJDgz","name":"더좋은이비인후과의원","clCd":"31","clCdNm":"의원","sidoCd":"390000","sidoCdNm":"제주","sgguCd":"390200","sgguCdNm":"제주시","addr":"제주특별자치도 제주시 중앙로 337, 2층 (이도이동)","phone":"064-702-8820","hospUrl":"","estbDd":"20171011","drTotCnt":1,"mdeptSdrCnt":1,"lat":33.4914902,"lng":126.5372469},{"id":"JDQ4MTYyMiM4MSMkMiMkOCMkMDAkMzgxMzUxIzUxIyQxIyQ1IyQ3OSQyNjEwMDIjNDEjJDEjJDgjJDgz","name":"더편한오동훈내과의원","clCd":"31","clCdNm":"의원","sidoCd":"390000","sidoCdNm":"제주","sgguCd":"390200","sgguCdNm":"제주시","addr":"제주특별자치도 제주시 서광로 294, 3층 (이도이동)","phone":"064-759-8575","hospUrl":"","estbDd":"20180910","drTotCnt":1,"mdeptSdrCnt":1,"lat":33.500195,"lng":126.5278901},{"id":"JDQ4MTYyMiM4MSMkMiMkOCMkMDAkMzgxMzUxIzIxIyQxIyQ1IyQ5MiQyNjEyMjIjNDEjJDEjJDgjJDgz","name":"동남의원","clCd":"31","clCdNm":"의원","sidoCd":"390000","sidoCdNm":"제주","sgguCd":"390100","sgguCdNm":"서귀포시","addr":"제주특별자치도 서귀포시 성산읍 서성일로 1177, (성산읍)","phone":"064-784-9400","hospUrl":"","estbDd":"19990526","drTotCnt":1,"mdeptSdrCnt":1,"lat":33.4463349,"lng":126.9041667},{"id":"JDQ4MTYyMiM4MSMkMiMkOCMkMDAkMzgxMzUxIzUxIyQxIyQxIyQwMyQzNjE4MzIjNDEjJDEjJDgjJDgz","name":"동산내과의원","clCd":"31","clCdNm":"의원","sidoCd":"390000","sidoCdNm":"제주","sgguCd":"390200","sgguCdNm":"제주시","addr":"제주특별자치도 제주시 중앙로 337, 3,5층 (이도이동)","phone":"064-723-0865","hospUrl":"","estbDd":"20180515","drTotCnt":2,"mdeptSdrCnt":2,"lat":33.4914902,"lng":126.5372469},{"id":"JDQ4MTYyMiM4MSMkMiMkOCMkMDAkMzgxMzUxIzIxIyQxIyQ1IyQ4OSQyNjEyMjIjODEjJDEjJDIjJDgz","name":"동일내과의원","clCd":"31","clCdNm":"의원","sidoCd":"390000","sidoCdNm":"제주","sgguCd":"390200","sgguCdNm":"제주시","addr":"제주특별자치도 제주시 동광로 131, (일도이동)","phone":"753-2311","hospUrl":"http://www.dmclinic.co.kr","estbDd":"19771102","drTotCnt":1,"mdeptSdrCnt":1,"lat":33.5079414,"lng":126.5404718},{"id":"JDQ4MTYyMiM4MSMkMiMkOCMkMDAkMzgxMzUxIzMxIyQxIyQ3IyQwMyQyNjE4MzIjNjEjJDEjJDgjJDgz","name":"두리이비인후과의원","clCd":"31","clCdNm":"의원","sidoCd":"390000","sidoCdNm":"제주","sgguCd":"390200","sgguCdNm":"제주시","addr":"제주특별자치도 제주시 연삼로 414, 2층 (이도이동)","phone":"064-702-8275","hospUrl":"","estbDd":"20120131","drTotCnt":1,"mdeptSdrCnt":1,"lat":33.4956801,"lng":126.5354484},{"id":"JDQ4MTYyMiM4MSMkMiMkOCMkMDAkMzgxOTYxIzExIyQxIyQzIyQ3MiQyNjE0ODEjNzEjJDEjJDgjJDgz","name":"두유외과의원","clCd":"31","clCdNm":"의원","sidoCd":"390000","sidoCdNm":"제주","sgguCd":"390200","sgguCdNm":"제주시","addr":"제주특별자치도 제주시 노형로 362, 2층 (노형동)","phone":"064-747-2675","hospUrl":"https://do-you.co.kr","estbDd":"20240909","drTotCnt":1,"mdeptSdrCnt":1,"lat":33.4826245,"lng":126.4750411},{"id":"JDQ4MTYyMiM4MSMkMiMkOCMkMDAkMzgxMzUxIzUxIyQxIyQxIyQ4MiQzNjEwMDIjNDEjJDEjJDgjJDgz","name":"드림미성형외과의원","clCd":"31","clCdNm":"의원","sidoCd":"390000","sidoCdNm":"제주","sgguCd":"390200","sgguCdNm":"제주시","addr":"제주특별자치도 제주시 1100로 3347, 4층 (노형동, 세기빌딩)","phone":"064-749-9400","hospUrl":"","estbDd":"20171116","drTotCnt":1,"mdeptSdrCnt":1,"lat":33.4848447,"lng":126.4796326},{"id":"JDQ4MTYyMiM4MSMkMiMkOCMkMDAkMzgxMzUxIzQxIyQxIyQ3IyQ3OSQzNjE0ODEjNTEjJDEjJDIjJDgz","name":"드림통증의원","clCd":"31","clCdNm":"의원","sidoCd":"390000","sidoCdNm":"제주","sgguCd":"390100","sgguCdNm":"서귀포시","addr":"제주특별자치도 서귀포시 남원읍 태위로 629, 참사랑의원","phone":"064-764-7227","hospUrl":"","estbDd":"20220719","drTotCnt":1,"mdeptSdrCnt":1,"lat":33.2780543,"lng":126.7140688},{"id":"JDQ4MTYyMiM4MSMkMiMkOCMkMDAkMzgxMzUxIzUxIyQxIyQ1IyQ5OSQyNjEyMjIjNTEjJDEjJDYjJDgz","name":"드림포레산부인과의원","clCd":"31","clCdNm":"의원","sidoCd":"390000","sidoCdNm":"제주","sgguCd":"390200","sgguCdNm":"제주시","addr":"제주특별자치도 제주시 서사로 136, 3,4,5층 (삼도일동)","phone":"064-759-7838","hospUrl":"","estbDd":"20190816","drTotCnt":2,"mdeptSdrCnt":2,"lat":33.500304,"lng":126.5195766},{"id":"JDQ4MTYyMiM4MSMkMiMkOCMkMDAkMzgxOTYxIzExIyQxIyQzIyQ3OSQzNjEwMDIjNDEjJDEjJDgjJDgz","name":"땡큐베리마취통증의학과의원","clCd":"31","clCdNm":"의원","sidoCd":"390000","sidoCdNm":"제주","sgguCd":"390200","sgguCdNm":"제주시","addr":"제주특별자치도 제주시 중앙로 352, 오현타워 2층 (이도이동)","phone":"064-722-2833","hospUrl":"","estbDd":"20230224","drTotCnt":1,"mdeptSdrCnt":1,"lat":33.4901577,"lng":126.5375066},{"id":"JDQ4MTYyMiM4MSMkMiMkOCMkMDAkMzgxMzUxIzUxIyQxIyQ1IyQ4MiQzNjE0ODEjODEjJDEjJDYjJDgz","name":"로즈마리의원","clCd":"31","clCdNm":"의원","sidoCd":"390000","sidoCdNm":"제주","sgguCd":"390200","sgguCdNm":"제주시","addr":"제주특별자치도 제주시 건주로4길 6-8, 3층 301호 (도련일동)","phone":"064-727-3010","hospUrl":"","estbDd":"20190508","drTotCnt":1,"mdeptSdrCnt":0,"lat":33.516764,"lng":126.5802858},{"id":"JDQ4MTYyMiM4MSMkMiMkOCMkMDAkMzgxMzUxIzUxIyQxIyQ1IyQ4OSQ0NjEwMDIjNTEjJDEjJDYjJDgz","name":"로즈앤의원","clCd":"31","clCdNm":"의원","sidoCd":"390000","sidoCdNm":"제주","sgguCd":"390200","sgguCdNm":"제주시","addr":"제주특별자치도 제주시 1100로 3333, 4층 (노형동)","phone":"064-803-3723","hospUrl":"","estbDd":"20190619","drTotCnt":2,"mdeptSdrCnt":2,"lat":33.4836142,"lng":126.4801422},{"id":"JDQ4MTYyMiM4MSMkMiMkOCMkMDAkMzgxMzUxIzIxIyQyIyQ1IyQwMCQzNjEwMDIjNzEjJDEjJDgjJDgz","name":"로하스의원","clCd":"31","clCdNm":"의원","sidoCd":"390000","sidoCdNm":"제주","sgguCd":"390200","sgguCdNm":"제주시","addr":"제주특별자치도 제주시 연북로 527, 301호 (아라일동)","phone":"064-756-7582","hospUrl":"","estbDd":"19980522","drTotCnt":1,"mdeptSdrCnt":1,"lat":33.4851842,"lng":126.5361543},{"id":"JDQ4MTYyMiM4MSMkMiMkOCMkMDAkMzgxOTYxIzExIyQyIyQzIyQwMCQyNjE4MzIjNzEjJDEjJDgjJDgz","name":"루카산부인과의원","clCd":"31","clCdNm":"의원","sidoCd":"390000","sidoCdNm":"제주","sgguCd":"390100","sgguCdNm":"서귀포시","addr":"제주특별자치도 서귀포시 월드컵로 8, 3층 304호 (강정동)","phone":"","hospUrl":"","estbDd":"20240126","drTotCnt":2,"mdeptSdrCnt":2,"lat":33.2490026,"lng":126.50732},{"id":"JDQ4MTYyMiM4MSMkMiMkOCMkMDAkMzgxMzUxIzUxIyQxIyQxIyQxMyQ0NjE0ODEjNzEjJDEjJDgjJDgz","name":"류정신건강의학과의원","clCd":"31","clCdNm":"의원","sidoCd":"390000","sidoCdNm":"제주","sgguCd":"390200","sgguCdNm":"제주시","addr":"제주특별자치도 제주시 건주로 22, 3층 (삼양이동)","phone":"064-751-0901","hospUrl":"","estbDd":"20180814","drTotCnt":1,"mdeptSdrCnt":1,"lat":33.5175123,"lng":126.5804528},{"id":"JDQ4MTYyMiM4MSMkMiMkOCMkMDAkMzgxMzUxIzMxIyQyIyQ3IyQwMCQyNjE0ODEjNjEjJDEjJDQjJDgz","name":"마디의원","clCd":"31","clCdNm":"의원","sidoCd":"390000","sidoCdNm":"제주","sgguCd":"390100","sgguCdNm":"서귀포시","addr":"제주특별자치도 서귀포시 성산읍 일출로 4, 케이빌딩","phone":"064-782-7582","hospUrl":"http://www.madiclinic.com","estbDd":"20080227","drTotCnt":3,"mdeptSdrCnt":3,"lat":33.4471137,"lng":126.9132965},{"id":"JDQ4MTYyMiM4MSMkMiMkOCMkMDAkMzgxMzUxIzIxIyQxIyQxIyQxMyQzNjE4MzIjNDEjJDEjJDgjJDgz","name":"마리산부인과의원","clCd":"31","clCdNm":"의원","sidoCd":"390000","sidoCdNm":"제주","sgguCd":"390200","sgguCdNm":"제주시","addr":"제주특별자치도 제주시 고마로 146, (이도이동)","phone":"064-755-2544","hospUrl":"http://www.mariejeju.com/","estbDd":"20130226","drTotCnt":1,"mdeptSdrCnt":1,"lat":33.5016397,"lng":126.5429555},{"id":"JDQ4MTYyMiM4MSMkMiMkOCMkMDAkMzgxMzUxIzMxIyQxIyQ3IyQwMyQzNjEwMDIjNTEjJDEjJDIjJDgz","name":"마릴린제이의원","clCd":"31","clCdNm":"의원","sidoCd":"390000","sidoCdNm":"제주","sgguCd":"390200","sgguCdNm":"제주시","addr":"제주특별자치도 제주시 월랑로 5, 2층 (노형동)","phone":"064-747-2008","hospUrl":"www.marilynj.co.kr/","estbDd":"20180531","drTotCnt":1,"mdeptSdrCnt":1,"lat":33.48669,"lng":126.4782635},{"id":"JDQ4MTYyMiM4MSMkMiMkOCMkMDAkMzgxMzUxIzUxIyQxIyQxIyQ5MiQ0NjE0ODEjNTEjJDEjJDIjJDgz","name":"맑은수면이비인후과의원","clCd":"31","clCdNm":"의원","sidoCd":"390000","sidoCdNm":"제주","sgguCd":"390200","sgguCdNm":"제주시","addr":"제주특별자치도 제주시 원노형남1길 1, 더현빌딩 2,3층 (노형동)","phone":"064-747-0595","hospUrl":"","estbDd":"20180308","drTotCnt":2,"mdeptSdrCnt":2,"lat":33.4840028,"lng":126.4807247},{"id":"JDQ4MTYyMiM4MSMkMiMkOCMkMDAkMzgxMzUxIzUxIyQxIyQxIyQ3OSQyNjE0ODEjNjEjJDEjJDgjJDgz","name":"맘편한산부인과의원","clCd":"31","clCdNm":"의원","sidoCd":"390000","sidoCdNm":"제주","sgguCd":"390200","sgguCdNm":"제주시","addr":"제주특별자치도 제주시 광평동로 9, B1,3,4층 (노형동)","phone":"064-711-3080","hospUrl":"","estbDd":"20160302","drTotCnt":3,"mdeptSdrCnt":3,"lat":33.4811968,"lng":126.4712592},{"id":"JDQ4MTYyMiM4MSMkMiMkOCMkMDAkMzgxMzUxIzUxIyQxIyQ1IyQxMyQzNjEwMDIjODEjJDEjJDYjJDgz","name":"맨투맨남성의원","clCd":"31","clCdNm":"의원","sidoCd":"390000","sidoCdNm":"제주","sgguCd":"390200","sgguCdNm":"제주시","addr":"제주특별자치도 제주시 도령로 7, 금성빌딩 3층 (노형동)","phone":"064-749-7775","hospUrl":"","estbDd":"20221011","drTotCnt":1,"mdeptSdrCnt":1,"lat":33.486656,"lng":126.4800948},{"id":"JDQ4MTYyMiM4MSMkMiMkOCMkMDAkMzgxOTYxIzExIyQyIyQzIyQwMCQyNjEyMjIjODEjJDEjJDYjJDgz","name":"메디오름가정의학과의원","clCd":"31","clCdNm":"의원","sidoCd":"390000","sidoCdNm":"제주","sgguCd":"390200","sgguCdNm":"제주시","addr":"제주특별자치도 제주시 선덕로 18, 진일빌딩 1층 (연동)","phone":"064-757-5080","hospUrl":"","estbDd":"20240202","drTotCnt":1,"mdeptSdrCnt":1,"lat":33.485427,"lng":126.4984492},{"id":"JDQ4MTYyMiM4MSMkMiMkOCMkMDAkMzgxMzUxIzIxIyQyIyQ5IyQwMCQyNjE0ODEjNTEjJDEjJDIjJDgz","name":"메디필산부인과의원","clCd":"31","clCdNm":"의원","sidoCd":"390000","sidoCdNm":"제주","sgguCd":"390200","sgguCdNm":"제주시","addr":"제주특별자치도 제주시 중앙로 308, (이도이동)","phone":"064-725-3575","hospUrl":"","estbDd":"19960216","drTotCnt":1,"mdeptSdrCnt":1,"lat":33.4932366,"lng":126.5346897},{"id":"JDQ4MTYyMiM4MSMkMiMkOCMkMDAkMzgxOTYxIzExIyQxIyQzIyQ4MiQzNjE0ODEjNzEjJDEjJDgjJDgz","name":"메이리의원","clCd":"31","clCdNm":"의원","sidoCd":"390000","sidoCdNm":"제주","sgguCd":"390200","sgguCdNm":"제주시","addr":"제주특별자치도 제주시 노연로 34, 202호 (노형동)","phone":"064-747-3401","hospUrl":"","estbDd":"20250702","drTotCnt":1,"mdeptSdrCnt":1,"lat":33.4857551,"lng":126.4837714},{"id":"JDQ4MTYyMiM4MSMkMiMkOCMkMDAkMzgxMzUxIzMxIyQxIyQ3IyQ4OSQzNjE0ODEjNTEjJDEjJDYjJDgz","name":"멘파워비뇨기과의원","clCd":"31","clCdNm":"의원","sidoCd":"390000","sidoCdNm":"제주","sgguCd":"390200","sgguCdNm":"제주시","addr":"제주특별자치도 제주시 노연로 94, (연동)","phone":"746-8701","hospUrl":"http://www.man-power.co.kr/sub01/sub01_0414.php","estbDd":"20070409","drTotCnt":1,"mdeptSdrCnt":1,"lat":33.4856993,"lng":126.4901912},{"id":"JDQ4MTYyMiM4MSMkMiMkOCMkMDAkMzgxMzUxIzMxIyQxIyQzIyQ3MiQzNjEwMDIjNjEjJDEjJDAjJDgz","name":"명이비인후과의원","clCd":"31","clCdNm":"의원","sidoCd":"390000","sidoCdNm":"제주","sgguCd":"390200","sgguCdNm":"제주시","addr":"제주특별자치도 제주시 서광로 215, (삼도일동)","phone":"064-727-7582","hospUrl":"","estbDd":"20050422","drTotCnt":1,"mdeptSdrCnt":1,"lat":33.5001208,"lng":126.519507},{"id":"JDQ4MTYyMiM4MSMkMiMkOCMkMDAkMzgxOTYxIzExIyQxIyQzIyQ5OSQ0NjEwMDIjODEjJDEjJDYjJDgz","name":"명인플러스의원","clCd":"31","clCdNm":"의원","sidoCd":"390000","sidoCdNm":"제주","sgguCd":"390200","sgguCdNm":"제주시","addr":"제주특별자치도 제주시 동화로 30, 2,3층 (화북일동)","phone":"064-723-7575","hospUrl":"","estbDd":"20000210","drTotCnt":0,"mdeptSdrCnt":0,"lat":33.5175871,"lng":126.5728139},{"id":"JDQ4MTYyMiM4MSMkMiMkOCMkMDAkMzgxMzUxIzQxIyQyIyQ3IyQwMCQ0NjEwMDIjNjEjJDEjJDQjJDgz","name":"모딜리아니의원","clCd":"31","clCdNm":"의원","sidoCd":"390000","sidoCdNm":"제주","sgguCd":"390200","sgguCdNm":"제주시","addr":"제주특별자치도 제주시 서광로 278, (이도이동)","phone":"064-727-3652","hospUrl":"www.modiglianislineclinic.com","estbDd":"20140730","drTotCnt":1,"mdeptSdrCnt":1,"lat":33.4999793,"lng":126.5262097},{"id":"JDQ4MTYyMiM4MSMkMiMkOCMkMDAkMzgxMzUxIzIxIyQxIyQ1IyQxMyQzNjE0ODEjNTEjJDEjJDIjJDgz","name":"모아의원","clCd":"31","clCdNm":"의원","sidoCd":"390000","sidoCdNm":"제주","sgguCd":"390200","sgguCdNm":"제주시","addr":"제주특별자치도 제주시 과원북4길 5, (노형동)","phone":"064-742-7586","hospUrl":"","estbDd":"20000506","drTotCnt":1,"mdeptSdrCnt":1,"lat":33.4813627,"lng":126.4825127},{"id":"JDQ4MTYyMiM4MSMkMiMkOCMkMDAkMzgxOTYxIzExIyQyIyQzIyQwMCQ0NjEwMDIjNjEjJDEjJDgjJDgz","name":"문내과의원","clCd":"31","clCdNm":"의원","sidoCd":"390000","sidoCdNm":"제주","sgguCd":"390200","sgguCdNm":"제주시","addr":"제주특별자치도 제주시 동광로 86, 7·8층 (이도이동)","phone":"064-901-9901","hospUrl":"","estbDd":"20240408","drTotCnt":1,"mdeptSdrCnt":1,"lat":33.5045977,"lng":126.5375336},{"id":"JDQ4MTYyMiM4MSMkMiMkOCMkMDAkMzgxMzUxIzIxIyQxIyQ5IyQ4MiQ0NjEwMDIjODEjJDEjJDIjJDgz","name":"문성철정형외과의원","clCd":"31","clCdNm":"의원","sidoCd":"390000","sidoCdNm":"제주","sgguCd":"390200","sgguCdNm":"제주시","addr":"제주특별자치도 제주시 일주동로 241, 2층 (화북일동)","phone":"064-758-1155","hospUrl":"","estbDd":"20020607","drTotCnt":1,"mdeptSdrCnt":1,"lat":33.5198279,"lng":126.5709398},{"id":"JDQ4MTYyMiM4MSMkMiMkOCMkMDAkMzgxMzUxIzIxIyQxIyQ5IyQxMyQyNjEyMjIjNTEjJDEjJDIjJDgz","name":"문앤송소아청소년과의원","clCd":"31","clCdNm":"의원","sidoCd":"390000","sidoCdNm":"제주","sgguCd":"390200","sgguCdNm":"제주시","addr":"제주특별자치도 제주시 서광로 220, 3층 (삼도일동, 서광빌딩)","phone":"752-5275","hospUrl":"","estbDd":"20030115","drTotCnt":2,"mdeptSdrCnt":2,"lat":33.4995654,"lng":126.5200837},{"id":"JDQ4MTYyMiM4MSMkMiMkOCMkMDAkMzgxMzUxIzIxIyQxIyQxIyQ2MiQyNjE0ODEjNzEjJDEjJDgjJDgz","name":"문이비인후과의원","clCd":"31","clCdNm":"의원","sidoCd":"390000","sidoCdNm":"제주","sgguCd":"390200","sgguCdNm":"제주시","addr":"제주특별자치도 제주시 서광로 268, (도남동)","phone":"721-2240","hospUrl":"","estbDd":"19940322","drTotCnt":1,"mdeptSdrCnt":1,"lat":33.499754,"lng":126.5251803},{"id":"JDQ4MTYyMiM4MSMkMiMkOCMkMDAkMzgxMzUxIzUxIyQxIyQxIyQ3MiQyNjE0ODEjNTEjJDEjJDIjJDgz","name":"미래가정의학과의원","clCd":"31","clCdNm":"의원","sidoCd":"390000","sidoCdNm":"제주","sgguCd":"390100","sgguCdNm":"서귀포시","addr":"제주특별자치도 서귀포시 대청로25번길 4, (강정동)","phone":"064-738-5335","hospUrl":"","estbDd":"20170622","drTotCnt":1,"mdeptSdrCnt":1,"lat":33.2527982,"lng":126.5026555},{"id":"JDQ4MTYyMiM4MSMkMiMkOCMkMDAkMzgxMzUxIzIxIyQxIyQ5IyQ2MiQyNjE4MzIjNjEjJDEjJDAjJDgz","name":"미래산부인과의원","clCd":"31","clCdNm":"의원","sidoCd":"390000","sidoCdNm":"제주","sgguCd":"390200","sgguCdNm":"제주시","addr":"제주특별자치도 제주시 연북로 28, 1층 (노형동)","phone":"064-712-2882","hospUrl":"","estbDd":"20180619","drTotCnt":1,"mdeptSdrCnt":1,"lat":33.4816875,"lng":126.4843517},{"id":"JDQ4MTYyMiM4MSMkMiMkOCMkMDAkMzgxMzUxIzMxIyQxIyQ3IyQ2MiQzNjE0ODEjNjEjJDEjJDQjJDgz","name":"미모피부과의원","clCd":"31","clCdNm":"의원","sidoCd":"390000","sidoCdNm":"제주","sgguCd":"390200","sgguCdNm":"제주시","addr":"제주특별자치도 제주시 1100로 3347, 8층 (노형동)","phone":"712-2555","hospUrl":"www.hayanmimo.co.kr/","estbDd":"20090407","drTotCnt":1,"mdeptSdrCnt":1,"lat":33.4848447,"lng":126.4796326},{"id":"JDQ4MTYyMiM4MSMkMiMkOCMkMDAkMzgxMzUxIzMxIyQxIyQ3IyQwMyQzNjE0ODEjNjEjJDEjJDAjJDgz","name":"미사랑의원","clCd":"31","clCdNm":"의원","sidoCd":"390000","sidoCdNm":"제주","sgguCd":"390200","sgguCdNm":"제주시","addr":"제주특별자치도 제주시 중앙로 286, (이도이동)","phone":"064-725-7727","hospUrl":"http://www.melove99.com/new2012/index.html?","estbDd":"20120308","drTotCnt":1,"mdeptSdrCnt":1,"lat":33.4947555,"lng":126.5329922},{"id":"JDQ4MTYyMiM4MSMkMiMkOCMkMDAkMzgxMzUxIzQxIyQxIyQ3IyQ3OSQyNjE0ODEjNDEjJDEjJDQjJDgz","name":"미소의원","clCd":"31","clCdNm":"의원","sidoCd":"390000","sidoCdNm":"제주","sgguCd":"390200","sgguCdNm":"제주시","addr":"제주특별자치도 제주시 노연로 29, 2층 (노형동)","phone":"064-751-7373","hospUrl":"","estbDd":"20040317","drTotCnt":1,"mdeptSdrCnt":0,"lat":33.4862254,"lng":126.4832283},{"id":"JDQ4MTYyMiM4MSMkMiMkOCMkMDAkMzgxMzUxIzMxIyQxIyQ3IyQ4MiQ0NjE0ODEjNTEjJDEjJDIjJDgz","name":"미우성형외과의원","clCd":"31","clCdNm":"의원","sidoCd":"390000","sidoCdNm":"제주","sgguCd":"390200","sgguCdNm":"제주시","addr":"제주특별자치도 제주시 노형로 407, (노형동)","phone":"064-773-8888","hospUrl":"","estbDd":"20110408","drTotCnt":1,"mdeptSdrCnt":1,"lat":33.4858236,"lng":126.4782833},{"id":"JDQ4MTYyMiM4MSMkMiMkOCMkMDAkMzgxMzUxIzUxIyQxIyQxIyQ4MiQ0NjE0ODEjNjEjJDEjJDQjJDgz","name":"민마취통증의학과의원","clCd":"31","clCdNm":"의원","sidoCd":"390000","sidoCdNm":"제주","sgguCd":"390200","sgguCdNm":"제주시","addr":"제주특별자치도 제주시 동문로 76, 혜강빌딩 4층 (일도이동)","phone":"064-752-7775","hospUrl":"","estbDd":"20171213","drTotCnt":1,"mdeptSdrCnt":1,"lat":33.5134674,"lng":126.5348101},{"id":"JDQ4MTYyMiM4MSMkMiMkOCMkMDAkMzgxMzUxIzIxIyQxIyQ5IyQ4MiQzNjEyMjIjNTEjJDEjJDYjJDgz","name":"민소아청소년과의원","clCd":"31","clCdNm":"의원","sidoCd":"390000","sidoCdNm":"제주","sgguCd":"390200","sgguCdNm":"제주시","addr":"제주특별자치도 제주시 인다10길 35, 2층 (아라일동)","phone":"722-5300","hospUrl":"","estbDd":"20020514","drTotCnt":1,"mdeptSdrCnt":1,"lat":33.4746231,"lng":126.5493948},{"id":"JDQ4MTYyMiM4MSMkMiMkOCMkMDAkMzgxMzUxIzUxIyQyIyQ1IyQwMCQyNjEwMDIjNTEjJDEjJDIjJDgz","name":"바로내과의원","clCd":"31","clCdNm":"의원","sidoCd":"390000","sidoCdNm":"제주","sgguCd":"390100","sgguCdNm":"서귀포시","addr":"제주특별자치도 서귀포시 월드컵로 8, 3층 (강정동)","phone":"064-738-8877","hospUrl":"","estbDd":"20191107","drTotCnt":1,"mdeptSdrCnt":1,"lat":33.2490026,"lng":126.50732},{"id":"JDQ4MTYyMiM4MSMkMiMkOCMkMDAkMzgxMzUxIzIxIyQxIyQ5IyQ3MiQyNjEyMjIjNTEjJDEjJDYjJDgz","name":"바루나마취통증의학과의원","clCd":"31","clCdNm":"의원","sidoCd":"390000","sidoCdNm":"제주","sgguCd":"390200","sgguCdNm":"제주시","addr":"제주특별자치도 제주시 동광로 131, (일도이동)","phone":"753-8800","hospUrl":"","estbDd":"20020315","drTotCnt":1,"mdeptSdrCnt":1,"lat":33.5079414,"lng":126.5404718},{"id":"JDQ4MTYyMiM4MSMkMiMkOCMkMDAkMzgxMzUxIzMxIyQxIyQ3IyQ5OSQzNjEwMDIjODEjJDEjJDYjJDgz","name":"바른삼성마취통증의학과의원","clCd":"31","clCdNm":"의원","sidoCd":"390000","sidoCdNm":"제주","sgguCd":"390100","sgguCdNm":"서귀포시","addr":"제주특별자치도 서귀포시 월드컵로 14, 4층 402호 (강정동)","phone":"064-738-7533","hospUrl":"","estbDd":"20260220","drTotCnt":1,"mdeptSdrCnt":1,"lat":33.2484955,"lng":126.5071391},{"id":"JDQ4MTYyMiM4MSMkMiMkOCMkMDAkMzgxMzUxIzMxIyQxIyQzIyQxMyQzNjEyMjIjNDEjJDEjJDgjJDgz","name":"바른정의원","clCd":"31","clCdNm":"의원","sidoCd":"390000","sidoCdNm":"제주","sgguCd":"390200","sgguCdNm":"제주시","addr":"제주특별자치도 제주시 성지로 76-1, (일도이동)","phone":"723-3355","hospUrl":"","estbDd":"20060824","drTotCnt":1,"mdeptSdrCnt":0,"lat":33.5115231,"lng":126.5313539},{"id":"JDQ4MTYyMiM4MSMkMiMkOCMkMDAkMzgxOTYxIzExIyQxIyQzIyQ4OSQzNjE0ODEjNDEjJDEjJDgjJDgz","name":"바움소아청소년과의원","clCd":"31","clCdNm":"의원","sidoCd":"390000","sidoCdNm":"제주","sgguCd":"390100","sgguCdNm":"서귀포시","addr":"제주특별자치도 서귀포시 월드컵로 8, 4층 401호 (강정동)","phone":"064-738-0027","hospUrl":"","estbDd":"20230517","drTotCnt":1,"mdeptSdrCnt":1,"lat":33.2490026,"lng":126.50732},{"id":"JDQ4MTYyMiM4MSMkMiMkOCMkMDAkMzgxMzUxIzMxIyQxIyQzIyQ4OSQ0NjE0ODEjNDEjJDEjJDQjJDgz","name":"바툼낭의원","clCd":"31","clCdNm":"의원","sidoCd":"390000","sidoCdNm":"제주","sgguCd":"390200","sgguCdNm":"제주시","addr":"제주특별자치도 제주시 1100로 3213-27, (노형동)","phone":"064-743-8575","hospUrl":"batumnang.com","estbDd":"20131023","drTotCnt":1,"mdeptSdrCnt":0,"lat":33.4759536,"lng":126.4815481},{"id":"JDQ4MTYyMiM4MSMkMiMkOCMkMDAkMzgxMzUxIzExIyQxIyQ3IyQ3MiQ0NjEwMDIjNDEjJDEjJDgjJDgz","name":"박경식신경외과의원","clCd":"31","clCdNm":"의원","sidoCd":"390000","sidoCdNm":"제주","sgguCd":"390200","sgguCdNm":"제주시","addr":"제주특별자치도 제주시 서광로 263, (삼도일동)","phone":"064-755-1155","hospUrl":"","estbDd":"19880307","drTotCnt":1,"mdeptSdrCnt":1,"lat":33.5002207,"lng":126.5245869},{"id":"JDQ4MTYyMiM4MSMkMiMkOCMkMDAkMzgxMzUxIzIxIyQyIyQ1IyQwMCQyNjE0ODEjNjEjJDEjJDgjJDgz","name":"박내과의원","clCd":"31","clCdNm":"의원","sidoCd":"390000","sidoCdNm":"제주","sgguCd":"390200","sgguCdNm":"제주시","addr":"제주특별자치도 제주시 월랑로 3, (노형동)","phone":"743-6161","hospUrl":"","estbDd":"19980501","drTotCnt":1,"mdeptSdrCnt":1,"lat":33.4864768,"lng":126.4784822},{"id":"JDQ4MTYyMiM4MSMkMiMkOCMkMDAkMzgxMzUxIzIxIyQxIyQ1IyQwMyQyNjE0ODEjNTEjJDEjJDIjJDgz","name":"박봉철내과의원","clCd":"31","clCdNm":"의원","sidoCd":"390000","sidoCdNm":"제주","sgguCd":"390200","sgguCdNm":"제주시","addr":"제주특별자치도 제주시 일주동로 197, 지하1층,2층 (화북일동)","phone":"064-724-0075","hospUrl":"","estbDd":"19990926","drTotCnt":1,"mdeptSdrCnt":1,"lat":33.5189529,"lng":126.5665706},{"id":"JDQ4MTYyMiM4MSMkMiMkOCMkMDAkMzgxMzUxIzUxIyQxIyQxIyQ4MiQyNjE0ODEjNDEjJDEjJDQjJDgz","name":"박상욱 휴 정신건강의학과의원","clCd":"31","clCdNm":"의원","sidoCd":"390000","sidoCdNm":"제주","sgguCd":"390200","sgguCdNm":"제주시","addr":"제주특별자치도 제주시 중앙로 337, 3층 301호 (이도이동)","phone":"064-725-2500","hospUrl":"","estbDd":"20171011","drTotCnt":1,"mdeptSdrCnt":1,"lat":33.4914902,"lng":126.5372469},{"id":"JDQ4MTYyMiM4MSMkMiMkOCMkMDAkMzgxMzUxIzIxIyQyIyQ1IyQwMCQzNjE0ODEjODEjJDEjJDYjJDgz","name":"박재홍내과의원","clCd":"31","clCdNm":"의원","sidoCd":"390000","sidoCdNm":"제주","sgguCd":"390200","sgguCdNm":"제주시","addr":"제주특별자치도 제주시 고마로 149, 2층 (일도이동)","phone":"757-7579","hospUrl":"","estbDd":"19980507","drTotCnt":1,"mdeptSdrCnt":1,"lat":33.5015079,"lng":126.5435736},{"id":"JDQ4MTYyMiM4MSMkMiMkOCMkMDAkMzgxMzUxIzIxIyQxIyQxIyQ2MiQyNjEyMjIjNTEjJDEjJDYjJDgz","name":"박정신건강의학과의원","clCd":"31","clCdNm":"의원","sidoCd":"390000","sidoCdNm":"제주","sgguCd":"390100","sgguCdNm":"서귀포시","addr":"제주특별자치도 서귀포시 중정로 53, (서귀동)","phone":"064-762-0946","hospUrl":"","estbDd":"19940325","drTotCnt":1,"mdeptSdrCnt":1,"lat":33.2478118,"lng":126.5620191},{"id":"JDQ4MTYyMiM4MSMkMiMkOCMkMDAkMzgxMzUxIzIxIyQxIyQ5IyQ4OSQ0NjEwMDIjNDEjJDEjJDgjJDgz","name":"박지욱신경과의원","clCd":"31","clCdNm":"의원","sidoCd":"390000","sidoCdNm":"제주","sgguCd":"390200","sgguCdNm":"제주시","addr":"제주특별자치도 제주시 월랑로 3, (노형동)","phone":"747-6119","hospUrl":"","estbDd":"20010410","drTotCnt":1,"mdeptSdrCnt":1,"lat":33.4864768,"lng":126.4784822},{"id":"JDQ4MTYyMiM4MSMkMiMkOCMkMDAkMzgxMzUxIzUxIyQxIyQxIyQ4MiQ0NjEwMDIjNTEjJDEjJDYjJDgz","name":"반딧불의원","clCd":"31","clCdNm":"의원","sidoCd":"390000","sidoCdNm":"제주","sgguCd":"390200","sgguCdNm":"제주시","addr":"제주특별자치도 제주시 건주로6길 62, 백송빌딩 2층 (도련일동)","phone":"064-805-7582","hospUrl":"","estbDd":"20171215","drTotCnt":1,"mdeptSdrCnt":1,"lat":33.5148887,"lng":126.5803396},{"id":"JDQ4MTYyMiM4MSMkMiMkOCMkMDAkMzgxMzUxIzMxIyQxIyQ3IyQ3MiQ0NjEwMDIjNTEjJDEjJDYjJDgz","name":"밝은안과의원","clCd":"31","clCdNm":"의원","sidoCd":"390000","sidoCdNm":"제주","sgguCd":"390200","sgguCdNm":"제주시","addr":"제주특별자치도 제주시 동광로 131, (일도이동)","phone":"722-0025","hospUrl":"","estbDd":"20100618","drTotCnt":1,"mdeptSdrCnt":1,"lat":33.5079414,"lng":126.5404718},{"id":"JDQ4MTYyMiM4MSMkMiMkOCMkMDAkMzgxMzUxIzIxIyQxIyQ5IyQ3MiQzNjEwMDIjODEjJDEjJDIjJDgz","name":"밝은정신건강의학과의원","clCd":"31","clCdNm":"의원","sidoCd":"390000","sidoCdNm":"제주","sgguCd":"390100","sgguCdNm":"서귀포시","addr":"제주특별자치도 서귀포시 중앙로 91, (서귀동)","phone":"064-733-0434","hospUrl":"","estbDd":"20020403","drTotCnt":1,"mdeptSdrCnt":1,"lat":33.2527664,"lng":126.5604022},{"id":"JDQ4MTYyMiM4MSMkMiMkOCMkMDAkMzgxMzUxIzUxIyQxIyQxIyQwMyQ0NjEwMDIjODEjJDEjJDIjJDgz","name":"배정형외과내과의원","clCd":"31","clCdNm":"의원","sidoCd":"390000","sidoCdNm":"제주","sgguCd":"390200","sgguCdNm":"제주시","addr":"제주특별자치도 제주시 건주로 27- , 2층 201호 (도련일동)","phone":"064-722-1200","hospUrl":"","estbDd":"20180628","drTotCnt":2,"mdeptSdrCnt":2,"lat":33.5170882,"lng":126.581141},{"id":"JDQ4MTYyMiM4MSMkMiMkOCMkMDAkMzgxMzUxIzUxIyQyIyQ1IyQwMCQzNjEyMjIjNTEjJDEjJDYjJDgz","name":"배진성마취통증의학과의원","clCd":"31","clCdNm":"의원","sidoCd":"390000","sidoCdNm":"제주","sgguCd":"390200","sgguCdNm":"제주시","addr":"제주특별자치도 제주시 우정로15길 5, 5층 (외도일동)","phone":"064-749-6335","hospUrl":"","estbDd":"20200131","drTotCnt":1,"mdeptSdrCnt":1,"lat":33.4860721,"lng":126.4317162},{"id":"JDQ4MTYyMiM4MSMkMiMkOCMkMDAkMzgxOTYxIzExIyQxIyQzIyQ3MiQzNjE4MzIjNjEjJDEjJDAjJDgz","name":"밴스의원","clCd":"31","clCdNm":"의원","sidoCd":"390000","sidoCdNm":"제주","sgguCd":"390200","sgguCdNm":"제주시","addr":"제주특별자치도 제주시 노연로 49, 201호 (노형동)","phone":"064-803-0024","hospUrl":"","estbDd":"20250313","drTotCnt":10,"mdeptSdrCnt":2,"lat":33.4861999,"lng":126.4855778},{"id":"JDQ4MTYyMiM4MSMkMiMkOCMkMDAkMzgxMzUxIzQxIyQxIyQ3IyQwMyQ0NjEwMDIjNDEjJDEjJDgjJDgz","name":"베스트비뇨기과의원","clCd":"31","clCdNm":"의원","sidoCd":"390000","sidoCdNm":"제주","sgguCd":"390100","sgguCdNm":"서귀포시","addr":"제주특별자치도 서귀포시 동문로 5, 201호 (서귀동)","phone":"064-732-3939","hospUrl":"","estbDd":"20160104","drTotCnt":1,"mdeptSdrCnt":1,"lat":33.2523491,"lng":126.5620503},{"id":"JDQ4MTYyMiM4MSMkMiMkOCMkMDAkMzgxMzUxIzUxIyQxIyQ1IyQwMyQyNjE4MzIjNjEjJDEjJDQjJDgz","name":"벨르몬성형외과의원","clCd":"31","clCdNm":"의원","sidoCd":"390000","sidoCdNm":"제주","sgguCd":"390100","sgguCdNm":"서귀포시","addr":"제주특별자치도 서귀포시 안덕면 신화역사로304번길 38, B1층 50호,52호","phone":"064-901-0101","hospUrl":"","estbDd":"20190404","drTotCnt":1,"mdeptSdrCnt":1,"lat":33.3053827,"lng":126.3173903},{"id":"JDQ4MTYyMiM4MSMkMiMkOCMkMDAkMzgxMzUxIzQxIyQxIyQ3IyQwMyQzNjE0ODEjNDEjJDEjJDgjJDgz","name":"봄길의원","clCd":"31","clCdNm":"의원","sidoCd":"390000","sidoCdNm":"제주","sgguCd":"390200","sgguCdNm":"제주시","addr":"제주특별자치도 제주시 삼무로 18, 제주연동 하우스디어반 2층 201~205호 (연동)","phone":"064-712-8448","hospUrl":"","estbDd":"20151218","drTotCnt":1,"mdeptSdrCnt":1,"lat":33.4895983,"lng":126.4886606},{"id":"JDQ4MTYyMiM4MSMkMiMkOCMkMDAkMzgxMzUxIzMxIyQxIyQ3IyQxMyQzNjEwMDIjNDEjJDEjJDQjJDgz","name":"봄정신건강의학과의원","clCd":"31","clCdNm":"의원","sidoCd":"390000","sidoCdNm":"제주","sgguCd":"390200","sgguCdNm":"제주시","addr":"제주특별자치도 제주시 서광로 297, (이도일동)","phone":"064-725-3500","hospUrl":"","estbDd":"20120831","drTotCnt":1,"mdeptSdrCnt":1,"lat":33.5007247,"lng":126.528199},{"id":"JDQ4MTYyMiM4MSMkMiMkOCMkMDAkMzgxMzUxIzUxIyQxIyQ1IyQ5MiQyNjEyMjIjNDEjJDEjJDQjJDgz","name":"봉개영웅의원","clCd":"31","clCdNm":"의원","sidoCd":"390000","sidoCdNm":"제주","sgguCd":"390200","sgguCdNm":"제주시","addr":"제주특별자치도 제주시 번영로 500, 2층 (봉개동)","phone":"064-757-2217","hospUrl":"","estbDd":"20220125","drTotCnt":1,"mdeptSdrCnt":1,"lat":33.4901334,"lng":126.5947909},{"id":"JDQ4MTYyMiM4MSMkMiMkOCMkMDAkMzgxMzUxIzIxIyQxIyQxIyQ5MiQyNjEyMjIjNjEjJDEjJDQjJDgz","name":"봉개의원","clCd":"31","clCdNm":"의원","sidoCd":"390000","sidoCdNm":"제주","sgguCd":"390200","sgguCdNm":"제주시","addr":"제주특별자치도 제주시 삼봉로 327-2, B 102호 (봉개동, 봉개 미소담)","phone":"064-721-4275","hospUrl":"","estbDd":"20070823","drTotCnt":1,"mdeptSdrCnt":0,"lat":33.4938859,"lng":126.5942097},{"id":"JDQ4MTYyMiM4MSMkMiMkOCMkMDAkMzgxMzUxIzQxIyQxIyQ3IyQ4OSQyNjE4MzIjNDEjJDEjJDgjJDgz","name":"뷰앤미의원","clCd":"31","clCdNm":"의원","sidoCd":"390000","sidoCdNm":"제주","sgguCd":"390200","sgguCdNm":"제주시","addr":"제주특별자치도 제주시 노연로 118-1, (연동)","phone":"064-743-0075","hospUrl":"http://www.vnmclinic.com","estbDd":"20130404","drTotCnt":1,"mdeptSdrCnt":1,"lat":33.485567,"lng":126.4928773},{"id":"JDQ4MTYyMiM4MSMkMiMkOCMkMDAkMzgxMzUxIzUxIyQyIyQ1IyQwMCQ0NjEwMDIjODEjJDEjJDIjJDgz","name":"브이아이피(VIP)성형외과의원","clCd":"31","clCdNm":"의원","sidoCd":"390000","sidoCdNm":"제주","sgguCd":"390200","sgguCdNm":"제주시","addr":"제주특별자치도 제주시 은남1길 46, 3~4층 (연동)","phone":"064-713-1007","hospUrl":"","estbDd":"20190926","drTotCnt":2,"mdeptSdrCnt":2,"lat":33.4894387,"lng":126.4909787},{"id":"JDQ4MTYyMiM4MSMkMiMkOCMkMDAkMzgxOTYxIzExIyQxIyQzIyQ5OSQyNjEwMDIjNTEjJDEjJDYjJDgz","name":"블리비의원","clCd":"31","clCdNm":"의원","sidoCd":"390000","sidoCdNm":"제주","sgguCd":"390200","sgguCdNm":"제주시","addr":"제주특별자치도 제주시 노형로 407, 노형타워 2층 201호 (노형동)","phone":"1833-6988","hospUrl":"","estbDd":"20230925","drTotCnt":2,"mdeptSdrCnt":1,"lat":33.4858236,"lng":126.4782833},{"id":"JDQ4MTYyMiM4MSMkMiMkOCMkMDAkMzgxMzUxIzQxIyQxIyQ3IyQ5MiQzNjE0ODEjNTEjJDEjJDYjJDgz","name":"비바체성형외과의원","clCd":"31","clCdNm":"의원","sidoCd":"390000","sidoCdNm":"제주","sgguCd":"390200","sgguCdNm":"제주시","addr":"제주특별자치도 제주시 중앙로 302, 더스프링빌딩 2층 (이도이동)","phone":"064-755-1945","hospUrl":"","estbDd":"20200820","drTotCnt":1,"mdeptSdrCnt":1,"lat":33.4937977,"lng":126.534034},{"id":"JDQ4MTYyMiM4MSMkMiMkOCMkMDAkMzgxOTYxIzExIyQyIyQzIyQwMCQyNjEwMDIjNDEjJDEjJDgjJDgz","name":"쁨글로벌의원","clCd":"31","clCdNm":"의원","sidoCd":"390000","sidoCdNm":"제주","sgguCd":"390200","sgguCdNm":"제주시","addr":"제주특별자치도 제주시 1100로 3324, 3층, 4층, 5층 일부 502호 (노형동)","phone":"064-900-2600","hospUrl":"","estbDd":"20160527","drTotCnt":14,"mdeptSdrCnt":3,"lat":33.48302,"lng":126.4812051},{"id":"JDQ4MTYyMiM4MSMkMiMkOCMkMDAkMzgxMzUxIzMxIyQxIyQzIyQ5MiQyNjEyMjIjNjEjJDEjJDAjJDgz","name":"사회복지법인제주공생부설임마누엘의원","clCd":"31","clCdNm":"의원","sidoCd":"390000","sidoCdNm":"제주","sgguCd":"390200","sgguCdNm":"제주시","addr":"제주특별자치도 제주시 아봉로 449-1, 2호동 2층 (월평동, 시립요양원)","phone":"064-706-4723","hospUrl":"","estbDd":"20050309","drTotCnt":0,"mdeptSdrCnt":0,"lat":33.47094,"lng":126.5818374},{"id":"JDQ4MTYyMiM4MSMkMiMkOCMkMDAkMzgxMzUxIzIxIyQxIyQxIyQ2MiQ0NjEwMDIjNDEjJDEjJDgjJDgz","name":"사회복지법인춘강부설제주춘강의원","clCd":"31","clCdNm":"의원","sidoCd":"390000","sidoCdNm":"제주","sgguCd":"390200","sgguCdNm":"제주시","addr":"제주특별자치도 제주시 월구1길 73, (오라삼동)","phone":"064-754-7400","hospUrl":"jejurmc.com","estbDd":"19940429","drTotCnt":1,"mdeptSdrCnt":1,"lat":33.4938249,"lng":126.5016537},{"id":"JDQ4MTYyMiM4MSMkMiMkOCMkMDAkMzgxMzUxIzExIyQxIyQ3IyQ2MiQyNjEwMDIjODEjJDEjJDYjJDgz","name":"삼다중앙의원","clCd":"31","clCdNm":"의원","sidoCd":"390000","sidoCdNm":"제주","sgguCd":"390200","sgguCdNm":"제주시","addr":"제주특별자치도 제주시 애월읍 하귀로 37, 2층","phone":"064-742-7517","hospUrl":"","estbDd":"20031002","drTotCnt":1,"mdeptSdrCnt":1,"lat":33.4803143,"lng":126.4011439},{"id":"JDQ4MTYyMiM4MSMkMiMkOCMkMDAkMzgxMzUxIzMxIyQxIyQ3IyQ3OSQyNjEwMDIjNDEjJDEjJDgjJDgz","name":"삼도의원","clCd":"31","clCdNm":"의원","sidoCd":"390000","sidoCdNm":"제주","sgguCd":"390200","sgguCdNm":"제주시","addr":"제주특별자치도 제주시 중앙로 132, 2층 (삼도이동)","phone":"064-727-9696","hospUrl":"","estbDd":"20050510","drTotCnt":1,"mdeptSdrCnt":1,"lat":33.5068575,"lng":126.524674},{"id":"JDQ4MTYyMiM4MSMkMiMkOCMkMDAkMzgxOTYxIzExIyQxIyQzIyQ5OSQ0NjE0ODEjNDEjJDEjJDgjJDgz","name":"삼사오성형외과제주의원","clCd":"31","clCdNm":"의원","sidoCd":"390000","sidoCdNm":"제주","sgguCd":"390100","sgguCdNm":"서귀포시","addr":"제주특별자치도 서귀포시 월드컵로 8, 송산플라자 2층 202호 (강정동)","phone":"064-738-7538","hospUrl":"","estbDd":"20200220","drTotCnt":2,"mdeptSdrCnt":2,"lat":33.2490026,"lng":126.50732},{"id":"JDQ4MTYyMiM4MSMkMiMkOCMkMDAkMzgxMzUxIzUxIyQxIyQ1IyQ2MiQyNjE4MzIjNjEjJDEjJDgjJDgz","name":"삼성드림소아청소년과의원","clCd":"31","clCdNm":"의원","sidoCd":"390000","sidoCdNm":"제주","sgguCd":"390200","sgguCdNm":"제주시","addr":"제주특별자치도 제주시 동광로 120, 3층층 (일도이동)","phone":"064-702-7582","hospUrl":"","estbDd":"20200916","drTotCnt":1,"mdeptSdrCnt":1,"lat":33.5066475,"lng":126.5398912},{"id":"JDQ4MTYyMiM4MSMkMiMkOCMkMDAkMzgxMzUxIzUxIyQxIyQ1IyQ5OSQyNjE0ODEjNzEjJDEjJDgjJDgz","name":"삼성맘편한신경과의원","clCd":"31","clCdNm":"의원","sidoCd":"390000","sidoCdNm":"제주","sgguCd":"390100","sgguCdNm":"서귀포시","addr":"제주특별자치도 서귀포시 중앙로 113, 2층 (서홍동)","phone":"064-733-9119","hospUrl":"","estbDd":"20190705","drTotCnt":1,"mdeptSdrCnt":1,"lat":33.2547871,"lng":126.560455},{"id":"JDQ4MTYyMiM4MSMkMiMkOCMkMDAkMzgxMzUxIzUxIyQxIyQ1IyQ4MiQzNjEwMDIjNzEjJDEjJDgjJDgz","name":"삼성서울정형외과의원","clCd":"31","clCdNm":"의원","sidoCd":"390000","sidoCdNm":"제주","sgguCd":"390200","sgguCdNm":"제주시","addr":"제주특별자치도 제주시 노형로 386, 3층 (노형동)","phone":"064-713-3522","hospUrl":"","estbDd":"20211018","drTotCnt":1,"mdeptSdrCnt":1,"lat":33.4841397,"lng":126.4769248},{"id":"JDQ4MTYyMiM4MSMkMiMkOCMkMDAkMzgxMzUxIzUxIyQxIyQxIyQ3OSQzNjE4MzIjNTEjJDEjJDYjJDgz","name":"삼성신경외과의원","clCd":"31","clCdNm":"의원","sidoCd":"390000","sidoCdNm":"제주","sgguCd":"390100","sgguCdNm":"서귀포시","addr":"제주특별자치도 서귀포시 중앙로 86, (서귀동, 동산프라자약국)","phone":"064-732-8575","hospUrl":"","estbDd":"20160427","drTotCnt":1,"mdeptSdrCnt":1,"lat":33.2522602,"lng":126.5613224},{"id":"JDQ4MTYyMiM4MSMkMiMkOCMkMDAkMzgxOTYxIzExIyQxIyQzIyQ2MiQyNjEwMDIjODEjJDEjJDIjJDgz","name":"삼성올레마취통증의학과의원","clCd":"31","clCdNm":"의원","sidoCd":"390000","sidoCdNm":"제주","sgguCd":"390100","sgguCdNm":"서귀포시","addr":"제주특별자치도 서귀포시 중정로 69, 2층 (서귀동)","phone":"064-732-7575","hospUrl":"https://www.삼성올레.kr","estbDd":"20240416","drTotCnt":2,"mdeptSdrCnt":2,"lat":33.248269,"lng":126.5637354},{"id":"JDQ4MTYyMiM4MSMkMiMkOCMkMDAkMzgxMzUxIzIxIyQyIyQ5IyQwMCQzNjE4MzIjNDEjJDEjJDQjJDgz","name":"삼성정형외과의원","clCd":"31","clCdNm":"의원","sidoCd":"390000","sidoCdNm":"제주","sgguCd":"390200","sgguCdNm":"제주시","addr":"제주특별자치도 제주시 동광로 124, 2,3층 (일도이동)","phone":"064-752-7582","hospUrl":"","estbDd":"20041129","drTotCnt":1,"mdeptSdrCnt":1,"lat":33.5069759,"lng":126.5402915},{"id":"JDQ4MTYyMiM4MSMkMiMkOCMkMDAkMzgxMzUxIzQxIyQxIyQ3IyQ5OSQzNjE4MzIjNDEjJDEjJDgjJDgz","name":"삼성탑내과의원","clCd":"31","clCdNm":"의원","sidoCd":"390000","sidoCdNm":"제주","sgguCd":"390100","sgguCdNm":"서귀포시","addr":"제주특별자치도 서귀포시 중정로61번길 1, 2층 (서귀동)","phone":"064-762-3662","hospUrl":"","estbDd":"19900528","drTotCnt":1,"mdeptSdrCnt":1,"lat":33.2480306,"lng":126.5628013},{"id":"JDQ4MTYyMiM4MSMkMiMkOCMkMDAkMzgxMzUxIzIxIyQxIyQ1IyQ4OSQyNjE4MzIjNjEjJDEjJDgjJDgz","name":"삼양가정의원","clCd":"31","clCdNm":"의원","sidoCd":"390000","sidoCdNm":"제주","sgguCd":"390200","sgguCdNm":"제주시","addr":"제주특별자치도 제주시 일주동로 366, (삼양이동)","phone":"064-755-0841","hospUrl":"","estbDd":"19970906","drTotCnt":1,"mdeptSdrCnt":1,"lat":33.520881,"lng":126.5840785},{"id":"JDQ4MTYyMiM4MSMkMiMkOCMkMDAkMzgxMzUxIzMxIyQxIyQ3IyQxMyQzNjE0ODEjNDEjJDEjJDgjJDgz","name":"삼화365플러스의원","clCd":"31","clCdNm":"의원","sidoCd":"390000","sidoCdNm":"제주","sgguCd":"390200","sgguCdNm":"제주시","addr":"제주특별자치도 제주시 건주로 43, 2층 (도련일동)","phone":"064-723-3650","hospUrl":"","estbDd":"20161025","drTotCnt":2,"mdeptSdrCnt":2,"lat":33.5155847,"lng":126.5809738},{"id":"JDQ4MTYyMiM4MSMkMiMkOCMkMDAkMzgxMzUxIzUxIyQxIyQxIyQ5OSQyNjE0ODEjNDEjJDEjJDgjJDgz","name":"삼화내과의원","clCd":"31","clCdNm":"의원","sidoCd":"390000","sidoCdNm":"제주","sgguCd":"390200","sgguCdNm":"제주시","addr":"제주특별자치도 제주시 건주로 33, 5층 (도련일동)","phone":"064-755-3306","hospUrl":"","estbDd":"20160725","drTotCnt":1,"mdeptSdrCnt":1,"lat":33.5164279,"lng":126.5809895},{"id":"JDQ4MTYyMiM4MSMkMiMkOCMkMDAkMzgxMzUxIzUxIyQxIyQxIyQ5MiQyNjEwMDIjNjEjJDEjJDQjJDgz","name":"삼화상쾌한의원","clCd":"31","clCdNm":"의원","sidoCd":"390000","sidoCdNm":"제주","sgguCd":"390200","sgguCdNm":"제주시","addr":"제주특별자치도 제주시 화삼북로 68, 삼화지구 신형빌딩 3층 (도련일동)","phone":"064-721-5553","hospUrl":"","estbDd":"20171229","drTotCnt":1,"mdeptSdrCnt":1,"lat":33.5170617,"lng":126.5802885},{"id":"JDQ4MTYyMiM4MSMkMiMkOCMkMDAkMzgxMzUxIzMxIyQxIyQ3IyQ3MiQ0NjE0ODEjNjEjJDEjJDQjJDgz","name":"상쾌한속내과의원","clCd":"31","clCdNm":"의원","sidoCd":"390000","sidoCdNm":"제주","sgguCd":"390200","sgguCdNm":"제주시","addr":"제주특별자치도 제주시 연북로 38, (노형동)","phone":"064-743-6798","hospUrl":"","estbDd":"20100323","drTotCnt":2,"mdeptSdrCnt":2,"lat":33.4816265,"lng":126.4853988},{"id":"JDQ4MTYyMiM4MSMkMiMkOCMkMDAkMzgxMzUxIzIxIyQxIyQ1IyQ2MiQ0NjEwMDIjNzEjJDEjJDgjJDgz","name":"새김녕의원","clCd":"31","clCdNm":"의원","sidoCd":"390000","sidoCdNm":"제주","sgguCd":"390200","sgguCdNm":"제주시","addr":"제주특별자치도 제주시 구좌읍 김녕로 116, (구좌읍)","phone":"064-782-8020","hospUrl":"","estbDd":"19990212","drTotCnt":1,"mdeptSdrCnt":0,"lat":33.5545604,"lng":126.7504358},{"id":"JDQ4MTYyMiM4MSMkMiMkOCMkMDAkMzgxMzUxIzQxIyQxIyQ3IyQ3MiQzNjEwMDIjNzEjJDEjJDgjJDgz","name":"새론의원","clCd":"31","clCdNm":"의원","sidoCd":"390000","sidoCdNm":"제주","sgguCd":"390100","sgguCdNm":"서귀포시","addr":"제주특별자치도 서귀포시 신서로48번길 31, (강정동)","phone":"064-738-8119","hospUrl":"","estbDd":"20150304","drTotCnt":1,"mdeptSdrCnt":1,"lat":33.253578,"lng":126.5086306},{"id":"JDQ4MTYyMiM4MSMkMiMkOCMkMDAkMzgxMzUxIzMxIyQxIyQzIyQ3MiQyNjE0ODEjNTEjJDEjJDYjJDgz","name":"새봄비뇨기과의원","clCd":"31","clCdNm":"의원","sidoCd":"390000","sidoCdNm":"제주","sgguCd":"390200","sgguCdNm":"제주시","addr":"제주특별자치도 제주시 동광로 131, 5층 (일도이동)","phone":"064-724-8307","hospUrl":"","estbDd":"20050303","drTotCnt":1,"mdeptSdrCnt":1,"lat":33.5079414,"lng":126.5404718},{"id":"JDQ4MTYyMiM4MSMkMiMkOCMkMDAkMzgxOTYxIzExIyQxIyQzIyQ3OSQyNjEyMjIjNzEjJDEjJDgjJDgz","name":"생생가정의학과의원","clCd":"31","clCdNm":"의원","sidoCd":"390000","sidoCdNm":"제주","sgguCd":"390100","sgguCdNm":"서귀포시","addr":"제주특별자치도 서귀포시 안덕면 화순로 132, 3층","phone":"064-794-1007","hospUrl":"","estbDd":"20230126","drTotCnt":1,"mdeptSdrCnt":1,"lat":33.2465429,"lng":126.3322486},{"id":"JDQ4MTYyMiM4MSMkMiMkOCMkMDAkMzgxMzUxIzQxIyQxIyQ3IyQ5OSQ0NjEwMDIjODEjJDEjJDIjJDgz","name":"서귀포365일의원","clCd":"31","clCdNm":"의원","sidoCd":"390000","sidoCdNm":"제주","sgguCd":"390100","sgguCdNm":"서귀포시","addr":"제주특별자치도 서귀포시 서문로 2, 지하1층 1층 (서귀동)","phone":"064-733-3650","hospUrl":"","estbDd":"20120906","drTotCnt":4,"mdeptSdrCnt":1,"lat":33.252377,"lng":126.5603907},{"id":"JDQ4MTYyMiM4MSMkMiMkOCMkMDAkMzgxOTYxIzExIyQxIyQzIyQ3MiQyNjE4MzIjNDEjJDEjJDgjJDgz","name":"서귀포공공협력의원","clCd":"31","clCdNm":"의원","sidoCd":"390000","sidoCdNm":"제주","sgguCd":"390100","sgguCdNm":"서귀포시","addr":"제주특별자치도 서귀포시 대정읍 일주서로 2512-14, (대정읍)","phone":"070-4523-6190","hospUrl":"","estbDd":"20241212","drTotCnt":2,"mdeptSdrCnt":2,"lat":33.2302624,"lng":126.2602259},{"id":"JDQ4MTYyMiM4MSMkMiMkOCMkMDAkMzgxMzUxIzIxIyQxIyQ1IyQ4OSQyNjEwMDIjNDEjJDEjJDQjJDgz","name":"서귀포내과의원","clCd":"31","clCdNm":"의원","sidoCd":"390000","sidoCdNm":"제주","sgguCd":"390100","sgguCdNm":"서귀포시","addr":"제주특별자치도 서귀포시 중앙로 89, 2층 (서귀동)","phone":"064-763-4053","hospUrl":"","estbDd":"19980121","drTotCnt":1,"mdeptSdrCnt":1,"lat":33.2525855,"lng":126.5604326},{"id":"JDQ4MTYyMiM4MSMkMiMkOCMkMDAkMzgxMzUxIzIxIyQxIyQ5IyQ3OSQzNjE4MzIjODEjJDEjJDIjJDgz","name":"서귀포빛사랑안과의원","clCd":"31","clCdNm":"의원","sidoCd":"390000","sidoCdNm":"제주","sgguCd":"390100","sgguCdNm":"서귀포시","addr":"제주특별자치도 서귀포시 동문로 2, (서귀동)","phone":"064-763-3030","hospUrl":"","estbDd":"20010215","drTotCnt":1,"mdeptSdrCnt":1,"lat":33.2523155,"lng":126.5615037},{"id":"JDQ4MTYyMiM4MSMkMiMkOCMkMDAkMzgxMzUxIzQxIyQxIyQ3IyQ2MiQzNjEyMjIjODEjJDEjJDIjJDgz","name":"서귀포유신경외과의원","clCd":"31","clCdNm":"의원","sidoCd":"390000","sidoCdNm":"제주","sgguCd":"390100","sgguCdNm":"서귀포시","addr":"제주특별자치도 서귀포시 중앙로 43, (서귀동)","phone":"064-763-1175","hospUrl":"","estbDd":"20140922","drTotCnt":1,"mdeptSdrCnt":1,"lat":33.2483933,"lng":126.5614931},{"id":"JDQ4MTYyMiM4MSMkMiMkOCMkMDAkMzgxMzUxIzIxIyQxIyQ5IyQ3MiQyNjE4MzIjNDEjJDEjJDgjJDgz","name":"서귀포재활의학과의원","clCd":"31","clCdNm":"의원","sidoCd":"390000","sidoCdNm":"제주","sgguCd":"390100","sgguCdNm":"서귀포시","addr":"제주특별자치도 서귀포시 중앙로 93, 1층 (서귀동)","phone":"064-762-8867","hospUrl":"","estbDd":"20020325","drTotCnt":1,"mdeptSdrCnt":1,"lat":33.2528292,"lng":126.5603791},{"id":"JDQ4MTYyMiM4MSMkMiMkOCMkMDAkMzgxMzUxIzQxIyQxIyQ3IyQ2MiQzNjEwMDIjNDEjJDEjJDQjJDgz","name":"서귀포제일속내과의원","clCd":"31","clCdNm":"의원","sidoCd":"390000","sidoCdNm":"제주","sgguCd":"390100","sgguCdNm":"서귀포시","addr":"제주특별자치도 서귀포시 중정로 109, 2층 (서귀동)","phone":"064-767-2992","hospUrl":"","estbDd":"20140903","drTotCnt":1,"mdeptSdrCnt":1,"lat":33.2488267,"lng":126.568162},{"id":"JDQ4MTYyMiM4MSMkMiMkOCMkMDAkMzgxMzUxIzQxIyQxIyQ3IyQ3MiQzNjE4MzIjNTEjJDEjJDYjJDgz","name":"서귀포중앙정형외과의원","clCd":"31","clCdNm":"의원","sidoCd":"390000","sidoCdNm":"제주","sgguCd":"390100","sgguCdNm":"서귀포시","addr":"제주특별자치도 서귀포시 일주동로 8666, 삼강빌딩 2층 (동홍동)","phone":"064-764-8279","hospUrl":"","estbDd":"20220311","drTotCnt":1,"mdeptSdrCnt":1,"lat":33.253691,"lng":126.5623633},{"id":"JDQ4MTYyMiM4MSMkMiMkOCMkMDAkMzgxMzUxIzMxIyQxIyQzIyQ3MiQyNjEyMjIjNDEjJDEjJDQjJDgz","name":"서문의원","clCd":"31","clCdNm":"의원","sidoCd":"390000","sidoCdNm":"제주","sgguCd":"390200","sgguCdNm":"제주시","addr":"제주특별자치도 제주시 서문로 68, (용담일동)","phone":"064-722-7574","hospUrl":"","estbDd":"20070413","drTotCnt":1,"mdeptSdrCnt":0,"lat":33.5117364,"lng":126.5183853},{"id":"JDQ4MTYyMiM4MSMkMiMkOCMkMDAkMzgxMzUxIzIxIyQxIyQ5IyQ4OSQzNjE4MzIjNjEjJDEjJDQjJDgz","name":"서상원정신건강의학과의원","clCd":"31","clCdNm":"의원","sidoCd":"390000","sidoCdNm":"제주","sgguCd":"390200","sgguCdNm":"제주시","addr":"제주특별자치도 제주시 도령로 7, (노형동)","phone":"747-6060","hospUrl":"","estbDd":"20010418","drTotCnt":1,"mdeptSdrCnt":1,"lat":33.486656,"lng":126.4800948},{"id":"JDQ4MTYyMiM4MSMkMiMkOCMkMDAkMzgxMzUxIzUxIyQxIyQxIyQ5MiQyNjE0ODEjNzEjJDEjJDgjJDgz","name":"서울가정의학과의원","clCd":"31","clCdNm":"의원","sidoCd":"390000","sidoCdNm":"제주","sgguCd":"390200","sgguCdNm":"제주시","addr":"제주특별자치도 제주시 조천읍 신촌4길 2, 201동 101호 (에스디빌3차)","phone":"064-783-0369","hospUrl":"","estbDd":"20171228","drTotCnt":1,"mdeptSdrCnt":1,"lat":33.5329419,"lng":126.6193713},{"id":"JDQ4MTYyMiM4MSMkMiMkOCMkMDAkMzgxMzUxIzUxIyQxIyQ1IyQ5OSQyNjE4MzIjNDEjJDEjJDgjJDgz","name":"서울나눔마취통증의학과의원","clCd":"31","clCdNm":"의원","sidoCd":"390000","sidoCdNm":"제주","sgguCd":"390200","sgguCdNm":"제주시","addr":"제주특별자치도 제주시 고사마루길 2, 2층 (노형동)","phone":"064-711-1258","hospUrl":"","estbDd":"20190903","drTotCnt":1,"mdeptSdrCnt":1,"lat":33.4802899,"lng":126.4722451},{"id":"JDQ4MTYyMiM4MSMkMiMkOCMkMDAkMzgxMzUxIzQxIyQxIyQ3IyQ4OSQyNjE0ODEjNzEjJDEjJDgjJDgz","name":"서울내과의원","clCd":"31","clCdNm":"의원","sidoCd":"390000","sidoCdNm":"제주","sgguCd":"390200","sgguCdNm":"제주시","addr":"제주특별자치도 제주시 도령로 1, (노형동)","phone":"749-7570","hospUrl":"","estbDd":"20020426","drTotCnt":1,"mdeptSdrCnt":1,"lat":33.4868039,"lng":126.4793043},{"id":"JDQ4MTYyMiM4MSMkMiMkOCMkMDAkMzgxOTYxIzExIyQxIyQzIyQ4OSQ0NjE0ODEjNTEjJDEjJDYjJDgz","name":"서울뉴라인의원","clCd":"31","clCdNm":"의원","sidoCd":"390000","sidoCdNm":"제주","sgguCd":"390200","sgguCdNm":"제주시","addr":"제주특별자치도 제주시 노형로 380, 6층 (노형동)","phone":"064-744-7570","hospUrl":"","estbDd":"20230727","drTotCnt":2,"mdeptSdrCnt":0,"lat":33.4837952,"lng":126.4765987},{"id":"JDQ4MTYyMiM4MSMkMiMkOCMkMDAkMzgxOTYxIzExIyQxIyQzIyQ4OSQzNjEwMDIjODEjJDEjJDYjJDgz","name":"서울삼성내과의원","clCd":"31","clCdNm":"의원","sidoCd":"390000","sidoCdNm":"제주","sgguCd":"390200","sgguCdNm":"제주시","addr":"제주특별자치도 제주시 애월읍 하광로 12, 2층 201~204호","phone":"064-805-8333","hospUrl":"","estbDd":"20230608","drTotCnt":2,"mdeptSdrCnt":2,"lat":33.4841918,"lng":126.4114156},{"id":"JDQ4MTYyMiM4MSMkMiMkOCMkMDAkMzgxMzUxIzUxIyQxIyQxIyQ3MiQzNjE4MzIjNDEjJDEjJDQjJDgz","name":"서울삼성이비인후과의원","clCd":"31","clCdNm":"의원","sidoCd":"390000","sidoCdNm":"제주","sgguCd":"390100","sgguCdNm":"서귀포시","addr":"제주특별자치도 서귀포시 월드컵로 8, (강정동)","phone":"064-739-1146","hospUrl":"","estbDd":"20170918","drTotCnt":1,"mdeptSdrCnt":1,"lat":33.2490026,"lng":126.50732},{"id":"JDQ4MTYyMiM4MSMkMiMkOCMkMDAkMzgxMzUxIzUxIyQxIyQxIyQxMyQyNjE0ODEjNDEjJDEjJDgjJDgz","name":"서울삼성재활의학과의원","clCd":"31","clCdNm":"의원","sidoCd":"390000","sidoCdNm":"제주","sgguCd":"390100","sgguCdNm":"서귀포시","addr":"제주특별자치도 서귀포시 대정읍 하모상가로 49, (대정읍)","phone":"064-792-8887","hospUrl":"","estbDd":"20180703","drTotCnt":1,"mdeptSdrCnt":1,"lat":33.2221082,"lng":126.2539741},{"id":"JDQ4MTYyMiM4MSMkMiMkOCMkMDAkMzgxMzUxIzQxIyQxIyQ3IyQ3OSQyNjEyMjIjNjEjJDEjJDgjJDgz","name":"서울성모재활의학과의원","clCd":"31","clCdNm":"의원","sidoCd":"390000","sidoCdNm":"제주","sgguCd":"390100","sgguCdNm":"서귀포시","addr":"제주특별자치도 서귀포시 동문로 5, 1층 (서귀동)","phone":"064-732-7773","hospUrl":"","estbDd":"20210826","drTotCnt":2,"mdeptSdrCnt":2,"lat":33.2523491,"lng":126.5620503},{"id":"JDQ4MTYyMiM4MSMkMiMkOCMkMDAkMzgxMzUxIzUxIyQxIyQ1IyQxMyQzNjE0ODEjNDEjJDEjJDgjJDgz","name":"서울아산내과의원","clCd":"31","clCdNm":"의원","sidoCd":"390000","sidoCdNm":"제주","sgguCd":"390200","sgguCdNm":"제주시","addr":"제주특별자치도 제주시 연북로 511, 에이플렉스 4층 (아라일동)","phone":"064-805-3100","hospUrl":"","estbDd":"20220919","drTotCnt":5,"mdeptSdrCnt":5,"lat":33.4843386,"lng":126.5346355},{"id":"JDQ4MTYyMiM4MSMkMiMkOCMkMDAkMzgxMzUxIzUxIyQxIyQ1IyQ3MiQyNjE4MzIjNTEjJDEjJDYjJDgz","name":"서울아산신경외과의원","clCd":"31","clCdNm":"의원","sidoCd":"390000","sidoCdNm":"제주","sgguCd":"390200","sgguCdNm":"제주시","addr":"제주특별자치도 제주시 서광로 301, 2층 (이도일동)","phone":"064-755-3595","hospUrl":"","estbDd":"20210426","drTotCnt":1,"mdeptSdrCnt":1,"lat":33.5008259,"lng":126.5284354},{"id":"JDQ4MTYyMiM4MSMkMiMkOCMkMDAkMzgxMzUxIzQxIyQxIyQ3IyQ4MiQzNjEyMjIjNTEjJDEjJDIjJDgz","name":"서울아산이비인후과의원","clCd":"31","clCdNm":"의원","sidoCd":"390000","sidoCdNm":"제주","sgguCd":"390100","sgguCdNm":"서귀포시","addr":"제주특별자치도 서귀포시 일주동로 8694, 2,3층 (서홍동)","phone":"064-767-7582","hospUrl":"","estbDd":"20150608","drTotCnt":4,"mdeptSdrCnt":4,"lat":33.2531944,"lng":126.5595429},{"id":"JDQ4MTYyMiM4MSMkMiMkOCMkMDAkMzgxMzUxIzUxIyQxIyQ1IyQ5MiQyNjE4MzIjODEjJDEjJDIjJDgz","name":"서울아산정형외과의원","clCd":"31","clCdNm":"의원","sidoCd":"390000","sidoCdNm":"제주","sgguCd":"390200","sgguCdNm":"제주시","addr":"제주특별자치도 제주시 조천읍 함덕13길 1, 2~4층","phone":"064-782-8275","hospUrl":"","estbDd":"20220224","drTotCnt":1,"mdeptSdrCnt":1,"lat":33.5415501,"lng":126.6674881},{"id":"JDQ4MTYyMiM4MSMkMiMkOCMkMDAkMzgxMzUxIzIxIyQxIyQ5IyQ3OSQ0NjEwMDIjNjEjJDEjJDAjJDgz","name":"서울안과의원","clCd":"31","clCdNm":"의원","sidoCd":"390000","sidoCdNm":"제주","sgguCd":"390200","sgguCdNm":"제주시","addr":"제주특별자치도 제주시 1100로 3333, 3층 (노형동)","phone":"745-0500","hospUrl":"http://","estbDd":"20010227","drTotCnt":1,"mdeptSdrCnt":1,"lat":33.4836142,"lng":126.4801422},{"id":"JDQ4MTYyMiM4MSMkMiMkOCMkMDAkMzgxOTYxIzExIyQyIyQzIyQwMCQzNjE0ODEjNjEjJDEjJDQjJDgz","name":"서울의원","clCd":"31","clCdNm":"의원","sidoCd":"390000","sidoCdNm":"제주","sgguCd":"390100","sgguCdNm":"서귀포시","addr":"제주특별자치도 서귀포시 일주동로 8610, 3층 (동홍동)","phone":"064-767-4607","hospUrl":"","estbDd":"20240206","drTotCnt":1,"mdeptSdrCnt":1,"lat":33.2548979,"lng":126.5684497},{"id":"JDQ4MTYyMiM4MSMkMiMkOCMkMDAkMzgxMzUxIzMxIyQxIyQzIyQ3OSQyNjE0ODEjNzEjJDEjJDgjJDgz","name":"서울정형외과의원","clCd":"31","clCdNm":"의원","sidoCd":"390000","sidoCdNm":"제주","sgguCd":"390200","sgguCdNm":"제주시","addr":"제주특별자치도 제주시 중앙로 354, 3층 (이도이동)","phone":"752-8818","hospUrl":"","estbDd":"20030305","drTotCnt":1,"mdeptSdrCnt":1,"lat":33.4900843,"lng":126.5377234},{"id":"JDQ4MTYyMiM4MSMkMiMkOCMkMDAkMzgxMzUxIzMxIyQxIyQ3IyQ5OSQ0NjEwMDIjNDEjJDEjJDgjJDgz","name":"서울정형외과의원","clCd":"31","clCdNm":"의원","sidoCd":"390000","sidoCdNm":"제주","sgguCd":"390100","sgguCdNm":"서귀포시","addr":"제주특별자치도 서귀포시 월드컵로 8, (강정동, 서울정형외과의원)","phone":"064-763-4973","hospUrl":"","estbDd":"20080205","drTotCnt":1,"mdeptSdrCnt":1,"lat":33.2490026,"lng":126.50732},{"id":"JDQ4MTYyMiM4MSMkMiMkOCMkMDAkMzgxMzUxIzUxIyQxIyQ1IyQ2MiQzNjEwMDIjNTEjJDEjJDIjJDgz","name":"서울준마취통증의학과의원","clCd":"31","clCdNm":"의원","sidoCd":"390000","sidoCdNm":"제주","sgguCd":"390200","sgguCdNm":"제주시","addr":"제주특별자치도 제주시 관덕로 67, 2층 (일도일동)","phone":"064-723-7511","hospUrl":"","estbDd":"20180307","drTotCnt":1,"mdeptSdrCnt":1,"lat":33.5133149,"lng":126.5265558},{"id":"JDQ4MTYyMiM4MSMkMiMkOCMkMDAkMzgxMzUxIzUxIyQxIyQxIyQ5MiQzNjE0ODEjNDEjJDEjJDQjJDgz","name":"서울탑외과의원","clCd":"31","clCdNm":"의원","sidoCd":"390000","sidoCdNm":"제주","sgguCd":"390200","sgguCdNm":"제주시","addr":"제주특별자치도 제주시 1100로 3321, 다솜빌딩 301호 (노형동)","phone":"064-745-7282","hospUrl":"","estbDd":"20180105","drTotCnt":1,"mdeptSdrCnt":1,"lat":33.4828345,"lng":126.4805621},{"id":"JDQ4MTYyMiM4MSMkMiMkOCMkMDAkMzgxMzUxIzUxIyQxIyQxIyQ5MiQzNjEwMDIjODEjJDEjJDIjJDgz","name":"서울탑정신건강의학과의원","clCd":"31","clCdNm":"의원","sidoCd":"390000","sidoCdNm":"제주","sgguCd":"390200","sgguCdNm":"제주시","addr":"제주특별자치도 제주시 1100로 3321, 303호 (노형동)","phone":"064-746-7282","hospUrl":"","estbDd":"20180105","drTotCnt":1,"mdeptSdrCnt":1,"lat":33.4828345,"lng":126.4805621},{"id":"JDQ4MTYyMiM4MSMkMiMkOCMkMDAkMzgxMzUxIzUxIyQxIyQ1IyQwMyQ0NjE0ODEjNjEjJDEjJDgjJDgz","name":"서울푸른정신건강의학과의원","clCd":"31","clCdNm":"의원","sidoCd":"390000","sidoCdNm":"제주","sgguCd":"390200","sgguCdNm":"제주시","addr":"제주특별자치도 제주시 노형로 407, 노형타워 4층 404호 (노형동)","phone":"064-901-0177","hospUrl":"","estbDd":"20220826","drTotCnt":1,"mdeptSdrCnt":1,"lat":33.4858236,"lng":126.4782833},{"id":"JDQ4MTYyMiM4MSMkMiMkOCMkMDAkMzgxMzUxIzUxIyQxIyQ1IyQxMyQ0NjEwMDIjNDEjJDEjJDgjJDgz","name":"서정소아청소년과의원","clCd":"31","clCdNm":"의원","sidoCd":"390000","sidoCdNm":"제주","sgguCd":"390200","sgguCdNm":"제주시","addr":"제주특별자치도 제주시 수덕로 69, 2층 (노형동)","phone":"064-746-8077","hospUrl":"","estbDd":"20221116","drTotCnt":1,"mdeptSdrCnt":1,"lat":33.4844129,"lng":126.4705754},{"id":"JDQ4MTYyMiM4MSMkMiMkOCMkMDAkMzgxMzUxIzMxIyQxIyQzIyQxMyQyNjE4MzIjNzEjJDEjJDgjJDgz","name":"서해산부인과의원","clCd":"31","clCdNm":"의원","sidoCd":"390000","sidoCdNm":"제주","sgguCd":"390200","sgguCdNm":"제주시","addr":"제주특별자치도 제주시 동광로 131, (일도이동)","phone":"064-758-8866","hospUrl":"","estbDd":"19990401","drTotCnt":3,"mdeptSdrCnt":3,"lat":33.5079414,"lng":126.5404718},{"id":"JDQ4MTYyMiM4MSMkMiMkOCMkMDAkMzgxOTYxIzExIyQxIyQzIyQ3OSQzNjE4MzIjODEjJDEjJDIjJDgz","name":"선유외과의원","clCd":"31","clCdNm":"의원","sidoCd":"390000","sidoCdNm":"제주","sgguCd":"390200","sgguCdNm":"제주시","addr":"제주특별자치도 제주시 중앙로 299, 401호 (이도이동)","phone":"064-803-0311","hospUrl":"","estbDd":"20230315","drTotCnt":1,"mdeptSdrCnt":1,"lat":33.4944019,"lng":126.5346422},{"id":"JDQ4MTYyMiM4MSMkMiMkOCMkMDAkMzgxOTYxIzExIyQxIyQzIyQ4MiQyNjEwMDIjNTEjJDEjJDIjJDgz","name":"선한드림의원","clCd":"31","clCdNm":"의원","sidoCd":"390000","sidoCdNm":"제주","sgguCd":"390200","sgguCdNm":"제주시","addr":"제주특별자치도 제주시 조천읍 신북로 241, 2층 (영재아트빌)","phone":"064-782-0100","hospUrl":"","estbDd":"20250429","drTotCnt":1,"mdeptSdrCnt":1,"lat":33.5371256,"lng":126.6380955},{"id":"JDQ4MTYyMiM4MSMkMiMkOCMkMDAkMzgxOTYxIzExIyQxIyQzIyQ3MiQyNjEwMDIjNjEjJDEjJDQjJDgz","name":"성모자인내과의원","clCd":"31","clCdNm":"의원","sidoCd":"390000","sidoCdNm":"제주","sgguCd":"390200","sgguCdNm":"제주시","addr":"제주특별자치도 제주시 노형로 380, 202호 (노형동)","phone":"064-900-1616","hospUrl":"","estbDd":"20241114","drTotCnt":1,"mdeptSdrCnt":1,"lat":33.4837952,"lng":126.4765987},{"id":"JDQ4MTYyMiM4MSMkMiMkOCMkMDAkMzgxOTYxIzExIyQxIyQzIyQ3OSQ0NjE0ODEjNjEjJDEjJDgjJDgz","name":"성모정신건강의학과의원","clCd":"31","clCdNm":"의원","sidoCd":"390000","sidoCdNm":"제주","sgguCd":"390200","sgguCdNm":"제주시","addr":"제주특별자치도 제주시 노형로 388, 2층 (노형동)","phone":"064-742-5539","hospUrl":"","estbDd":"20230321","drTotCnt":1,"mdeptSdrCnt":1,"lat":33.4842183,"lng":126.4770373},{"id":"JDQ4MTYyMiM4MSMkMiMkOCMkMDAkMzgxMzUxIzIxIyQxIyQxIyQxMyQzNjEwMDIjNjEjJDEjJDAjJDgz","name":"성산의원","clCd":"31","clCdNm":"의원","sidoCd":"390000","sidoCdNm":"제주","sgguCd":"390100","sgguCdNm":"서귀포시","addr":"제주특별자치도 서귀포시 성산읍 고성동서로56번길 16, (성산읍)","phone":"064-782-4472","hospUrl":"","estbDd":"19970225","drTotCnt":1,"mdeptSdrCnt":0,"lat":33.4497706,"lng":126.9145036},{"id":"JDQ4MTYyMiM4MSMkMiMkOCMkMDAkMzgxMzUxIzQxIyQxIyQ3IyQ4MiQyNjEyMjIjNDEjJDEjJDQjJDgz","name":"성산제일정형외과의원","clCd":"31","clCdNm":"의원","sidoCd":"390000","sidoCdNm":"제주","sgguCd":"390100","sgguCdNm":"서귀포시","addr":"제주특별자치도 서귀포시 성산읍 동류암로36번길 16, (성산읍)","phone":"064-900-2456","hospUrl":"","estbDd":"20150416","drTotCnt":1,"mdeptSdrCnt":1,"lat":33.4499119,"lng":126.9157461},{"id":"JDQ4MTYyMiM4MSMkMiMkOCMkMDAkMzgxMzUxIzIxIyQxIyQ5IyQwMyQzNjEyMjIjODEjJDEjJDIjJDgz","name":"성연내과의원","clCd":"31","clCdNm":"의원","sidoCd":"390000","sidoCdNm":"제주","sgguCd":"390200","sgguCdNm":"제주시","addr":"제주특별자치도 제주시 월랑로 39, 동마빌딩 501호 (노형동)","phone":"064-749-7227","hospUrl":"","estbDd":"20021211","drTotCnt":1,"mdeptSdrCnt":1,"lat":33.4889256,"lng":126.4756076},{"id":"JDQ4MTYyMiM4MSMkMiMkOCMkMDAkMzgxMzUxIzExIyQxIyQ3IyQ4OSQyNjE0ODEjODEjJDEjJDYjJDgz","name":"성이시돌복지의원","clCd":"31","clCdNm":"의원","sidoCd":"390000","sidoCdNm":"제주","sgguCd":"390200","sgguCdNm":"제주시","addr":"제주특별자치도 제주시 한림읍 산록남로 50, 50","phone":"064-796-2244","hospUrl":"www.isidorehospice.kr/","estbDd":"19811105","drTotCnt":1,"mdeptSdrCnt":1,"lat":33.3442044,"lng":126.3210996},{"id":"JDQ4MTYyMiM4MSMkMiMkOCMkMDAkMzgxMzUxIzIxIyQxIyQxIyQ4MiQzNjEwMDIjNTEjJDEjJDIjJDgz","name":"세화의원","clCd":"31","clCdNm":"의원","sidoCd":"390000","sidoCdNm":"제주","sgguCd":"390200","sgguCdNm":"제주시","addr":"제주특별자치도 제주시 구좌읍 세화5길 2, (구좌읍)","phone":"064-783-3196","hospUrl":"","estbDd":"19890710","drTotCnt":1,"mdeptSdrCnt":1,"lat":33.5234295,"lng":126.8566783},{"id":"JDQ4MTYyMiM4MSMkMiMkOCMkMDAkMzgxOTYxIzExIyQxIyQzIyQ3OSQzNjEyMjIjNDEjJDEjJDQjJDgz","name":"세화정형외과의원","clCd":"31","clCdNm":"의원","sidoCd":"390000","sidoCdNm":"제주","sgguCd":"390200","sgguCdNm":"제주시","addr":"제주특별자치도 제주시 구좌읍 구좌로 40, (구좌읍)","phone":"064-782-2473","hospUrl":"","estbDd":"20230314","drTotCnt":1,"mdeptSdrCnt":1,"lat":33.5232904,"lng":126.8556658},{"id":"JDQ4MTYyMiM4MSMkMiMkOCMkMDAkMzgxOTYxIzExIyQyIyQzIyQwMCQyNjE0ODEjNTEjJDEjJDIjJDgz","name":"센트럴스타의원","clCd":"31","clCdNm":"의원","sidoCd":"390000","sidoCdNm":"제주","sgguCd":"390100","sgguCdNm":"서귀포시","addr":"제주특별자치도 서귀포시 대정읍 영어도시로 44, 1~3층","phone":"064-792-1155","hospUrl":"","estbDd":"20240105","drTotCnt":1,"mdeptSdrCnt":1,"lat":33.2762519,"lng":126.2792297},{"id":"JDQ4MTYyMiM4MSMkMiMkOCMkMDAkMzgxOTYxIzExIyQxIyQzIyQ2MiQ0NjEwMDIjNTEjJDEjJDYjJDgz","name":"센트럴아이안과의원","clCd":"31","clCdNm":"의원","sidoCd":"390000","sidoCdNm":"제주","sgguCd":"390200","sgguCdNm":"제주시","addr":"제주특별자치도 제주시 일주서로 7356, 3층 (외도이동)","phone":"064-742-7112","hospUrl":"","estbDd":"20240516","drTotCnt":1,"mdeptSdrCnt":1,"lat":33.4932697,"lng":126.4330509},{"id":"JDQ4MTYyMiM4MSMkMiMkOCMkMDAkMzgxMzUxIzQxIyQxIyQ3IyQxMyQyNjEwMDIjNTEjJDEjJDYjJDgz","name":"소길의원","clCd":"31","clCdNm":"의원","sidoCd":"390000","sidoCdNm":"제주","sgguCd":"390200","sgguCdNm":"제주시","addr":"제주특별자치도 제주시 애월읍 평화로 2072, (애월읍)","phone":"064-799-5606","hospUrl":"","estbDd":"19900308","drTotCnt":1,"mdeptSdrCnt":1,"lat":33.4063495,"lng":126.3880623},{"id":"JDQ4MTYyMiM4MSMkMiMkOCMkMDAkMzgxMzUxIzUxIyQxIyQ1IyQ4OSQ0NjE0ODEjNjEjJDEjJDQjJDgz","name":"소리나소아청소년과의원","clCd":"31","clCdNm":"의원","sidoCd":"390000","sidoCdNm":"제주","sgguCd":"390200","sgguCdNm":"제주시","addr":"제주특별자치도 제주시 중앙로 380, 2층 (이도이동)","phone":"064-752-7900","hospUrl":"","estbDd":"20190701","drTotCnt":1,"mdeptSdrCnt":1,"lat":33.4882534,"lng":126.5393861},{"id":"JDQ4MTYyMiM4MSMkMiMkOCMkMDAkMzgxMzUxIzExIyQxIyQ3IyQxMyQ0NjEwMDIjNDEjJDEjJDgjJDgz","name":"소리이비인후과의원","clCd":"31","clCdNm":"의원","sidoCd":"390000","sidoCdNm":"제주","sgguCd":"390200","sgguCdNm":"제주시","addr":"제주특별자치도 제주시 연북로 76, 4층 (연동, 한성빌딩)","phone":"744-4458","hospUrl":"http://www.soreeclinic.com/index.asp","estbDd":"19910315","drTotCnt":1,"mdeptSdrCnt":1,"lat":33.4815322,"lng":126.4893872},{"id":"JDQ4MTYyMiM4MSMkMiMkOCMkMDAkMzgxMzUxIzMxIyQxIyQzIyQ2MiQzNjE4MzIjNTEjJDEjJDYjJDgz","name":"속편한내과의원","clCd":"31","clCdNm":"의원","sidoCd":"390000","sidoCdNm":"제주","sgguCd":"390200","sgguCdNm":"제주시","addr":"제주특별자치도 제주시 중앙로 359, 3층 (이도이동, 신해빌딩)","phone":"064-756-7500","hospUrl":"","estbDd":"20050203","drTotCnt":1,"mdeptSdrCnt":1,"lat":33.489977,"lng":126.5386836},{"id":"JDQ4MTYyMiM4MSMkMiMkOCMkMDAkMzgxMzUxIzUxIyQxIyQ1IyQxMyQyNjE0ODEjODEjJDEjJDIjJDgz","name":"속편한드림내과의원","clCd":"31","clCdNm":"의원","sidoCd":"390000","sidoCdNm":"제주","sgguCd":"390200","sgguCdNm":"제주시","addr":"제주특별자치도 제주시 1100로 3323-1, 3·4·5층 (노형동)","phone":"064-712-8575","hospUrl":"","estbDd":"20220907","drTotCnt":3,"mdeptSdrCnt":2,"lat":33.4831914,"lng":126.4803604},{"id":"JDQ4MTYyMiM4MSMkMiMkOCMkMDAkMzgxMzUxIzQxIyQxIyQ3IyQ3OSQzNjEyMjIjODEjJDEjJDYjJDgz","name":"송악의원","clCd":"31","clCdNm":"의원","sidoCd":"390000","sidoCdNm":"제주","sgguCd":"390100","sgguCdNm":"서귀포시","addr":"제주특별자치도 서귀포시 태평로 508, 3층 (동홍동)","phone":"064-792-7585","hospUrl":"","estbDd":"20130307","drTotCnt":1,"mdeptSdrCnt":0,"lat":33.2503058,"lng":126.5721709},{"id":"JDQ4MTYyMiM4MSMkMiMkOCMkMDAkMzgxMzUxIzUxIyQxIyQ1IyQ4OSQyNjE4MzIjNjEjJDEjJDAjJDgz","name":"수내과의원","clCd":"31","clCdNm":"의원","sidoCd":"390000","sidoCdNm":"제주","sgguCd":"390100","sgguCdNm":"서귀포시","addr":"제주특별자치도 서귀포시 일주동로 8675, (서귀동)","phone":"064-732-1211","hospUrl":"","estbDd":"20190412","drTotCnt":1,"mdeptSdrCnt":1,"lat":33.2530047,"lng":126.5616933},