[{"id":"804111d9421a","name":"세종충남대학교병원","clCd":"11","clCdNm":"종합병원","sidoCd":"410000","sidoCdNm":"세종시","sgguCdNm":"세종시","addr":"세종특별자치시 보듬7로 20, 세종충남대학교병원 (도담동)","phone":"1800-3114","hospUrl":"","estbDd":"20200623","drTotCnt":127,"mdeptSdrCnt":122,"lat":36.51951,"lng":127.25794},{"id":"7723dd6d706d","name":"의료법인 영제 의료재단 엔케이세종병원","clCd":"11","clCdNm":"종합병원","sidoCd":"410000","sidoCdNm":"세종시","sgguCdNm":"세종시","addr":"세종특별자치시 한누리대로 161, 세종시 NK리움힐 상가 1~8층 (나성동)","phone":"044-850-7700","hospUrl":"","estbDd":"20190430","drTotCnt":18,"mdeptSdrCnt":16,"lat":36.47962,"lng":127.26226},{"id":"7c92c157fdc2","name":"서울현병원","clCd":"21","clCdNm":"병원","sidoCd":"410000","sidoCdNm":"세종시","sgguCdNm":"세종시","addr":"세종특별자치시 나성북로 15, MVG 4-7층 (나성동)","phone":"1600-5626","hospUrl":"","estbDd":"20230818","drTotCnt":4,"mdeptSdrCnt":4,"lat":36.48973,"lng":127.25839},{"id":"4504aef34c9f","name":"아름드리나무어린이병원","clCd":"21","clCdNm":"병원","sidoCd":"410000","sidoCdNm":"세종시","sgguCdNm":"세종시","addr":"세종특별자치시 보듬3로 101, 5~7층 (아름동)","phone":"044-715-7200","hospUrl":"","estbDd":"20230803","drTotCnt":7,"mdeptSdrCnt":7,"lat":36.5114,"lng":127.24841},{"id":"31b813891ac3","name":"트리니움여성병원","clCd":"21","clCdNm":"병원","sidoCd":"410000","sidoCdNm":"세종시","sgguCdNm":"세종시","addr":"세종특별자치시 한누리대로 1934, 메인타워 (반곡동)","phone":"044-270-0114","hospUrl":"","estbDd":"20200310","drTotCnt":10,"mdeptSdrCnt":8,"lat":36.4916,"lng":127.30353},{"id":"d7ebe540b600","name":"운주산성요양병원","clCd":"28","clCdNm":"요양병원","sidoCd":"410000","sidoCdNm":"세종시","sgguCdNm":"세종시","addr":"세종특별자치시 전동면 모산고개길 96-25, (전동면)","phone":"1544-0240","hospUrl":"http://www.ujhospital.co.kr","estbDd":"20111214","drTotCnt":3,"mdeptSdrCnt":2,"lat":36.66894,"lng":127.22419},{"id":"93915f8d629b","name":"의료법인 씨지예스의료재단 세종중앙요양병원","clCd":"28","clCdNm":"요양병원","sidoCd":"410000","sidoCdNm":"세종시","sgguCdNm":"세종시","addr":"세종특별자치시 조치원읍 섭골길 37, (조치원읍)","phone":"044-865-0066","hospUrl":"jungangcare.kr","estbDd":"20050223","drTotCnt":4,"mdeptSdrCnt":3,"lat":36.61339,"lng":127.28834},{"id":"549ea4670b3e","name":"조치원노인전문병원","clCd":"28","clCdNm":"요양병원","sidoCd":"410000","sidoCdNm":"세종시","sgguCdNm":"세종시","addr":"세종특별자치시  연서면 도신고복로 789-17, 789","phone":"044-862-7607","hospUrl":"www.jcw.or.kr/","estbDd":"20061226","drTotCnt":4,"mdeptSdrCnt":3,"lat":36.61302,"lng":127.23787},{"id":"bf91cdbffdfe","name":"한마음효요양병원","clCd":"28","clCdNm":"요양병원","sidoCd":"410000","sidoCdNm":"세종시","sgguCdNm":"세종시","addr":"세종특별자치시 조치원읍 금이로 53-11, (조치원읍)","phone":"044-863-7200","hospUrl":"http://www.onelovehyo.com","estbDd":"20080623","drTotCnt":"","mdeptSdrCnt":"","lat":36.63285,"lng":127.28312},{"id":"0e8dcc2af3ba","name":"의료법인은혜의료재단 은혜병원","clCd":"29","clCdNm":"정신병원","sidoCd":"410000","sidoCdNm":"세종시","sgguCdNm":"세종시","addr":"세종특별자치시 연서면 효교로 135-16, 은혜병원","phone":"044-868-5004","hospUrl":"","estbDd":"20121005","drTotCnt":2,"mdeptSdrCnt":2,"lat":36.57269,"lng":127.23734},{"id":"4fe884f32947","name":"365열린연합의원","clCd":"31","clCdNm":"의원","sidoCd":"410000","sidoCdNm":"세종시","sgguCdNm":"세종시","addr":"세종특별자치시 마음로 74, 302.303호 (고운동, 그랜드프라자)","phone":"044-864-7757","hospUrl":"","estbDd":"20151130","drTotCnt":1,"mdeptSdrCnt":1,"lat":36.50531,"lng":127.23406},{"id":"65df2c8bd4a4","name":"가온산부인과의원","clCd":"31","clCdNm":"의원","sidoCd":"410000","sidoCdNm":"세종시","sgguCdNm":"세종시","addr":"세종특별자치시  나성로 96, 520-526호 (나성동)","phone":"044-864-3552","hospUrl":"","estbDd":"20250219","drTotCnt":1,"mdeptSdrCnt":1,"lat":36.48788,"lng":127.261},{"id":"2070a0e60e19","name":"강남 더 뷰티 성형외과의원","clCd":"31","clCdNm":"의원","sidoCd":"410000","sidoCdNm":"세종시","sgguCdNm":"세종시","addr":"세종특별자치시 한누리대로 169, 세종행복타워 3층 303, 305호 (나성동)","phone":"044-864-8008","hospUrl":"","estbDd":"20161027","drTotCnt":1,"mdeptSdrCnt":1,"lat":36.48023,"lng":127.26182},{"id":"568f2412e694","name":"건강한가족의원","clCd":"31","clCdNm":"의원","sidoCd":"410000","sidoCdNm":"세종시","sgguCdNm":"세종시","addr":"세종특별자치시 보듬3로 8-12, 101-2.102호 (도담동, 라온프라이빗시티1상가)","phone":"044-858-7555","hospUrl":"","estbDd":"20150526","drTotCnt":1,"mdeptSdrCnt":1,"lat":36.51343,"lng":127.25878},{"id":"c1ca05c5dc2d","name":"고명철정형외과의원","clCd":"31","clCdNm":"의원","sidoCd":"410000","sidoCdNm":"세종시","sgguCdNm":"세종시","addr":"세종특별자치시 조치원읍 새내로 77, 77","phone":"044-865-3414","hospUrl":"","estbDd":"20070529","drTotCnt":1,"mdeptSdrCnt":1,"lat":36.59866,"lng":127.29841},{"id":"aa683aad2ad6","name":"고운맘소아청소년과의원","clCd":"31","clCdNm":"의원","sidoCd":"410000","sidoCdNm":"세종시","sgguCdNm":"세종시","addr":"세종특별자치시 마음로 70, 304호 (고운동, 에셀프라자)","phone":"044-862-5252","hospUrl":"","estbDd":"20150901","drTotCnt":1,"mdeptSdrCnt":1,"lat":36.50508,"lng":127.23437},{"id":"b41df6bca73b","name":"고운소아청소년과의원","clCd":"31","clCdNm":"의원","sidoCd":"410000","sidoCdNm":"세종시","sgguCdNm":"세종시","addr":"세종특별자치시 남세종로 454, 405호 (보람동, 강남제일타워)","phone":"044-868-9545","hospUrl":"","estbDd":"20171122","drTotCnt":1,"mdeptSdrCnt":1,"lat":36.47725,"lng":127.28971},{"id":"80dec6c7799a","name":"곰돌이 소아청소년과의원","clCd":"31","clCdNm":"의원","sidoCd":"410000","sidoCdNm":"세종시","sgguCdNm":"세종시","addr":"세종특별자치시 달빛로 47, 302호 (종촌동, 종촌파크프라자)","phone":"044-866-0275","hospUrl":"","estbDd":"20140325","drTotCnt":1,"mdeptSdrCnt":1,"lat":36.50316,"lng":127.24991},{"id":"f6dc0d900ace","name":"굿모닝가정의학과의원","clCd":"31","clCdNm":"의원","sidoCd":"410000","sidoCdNm":"세종시","sgguCdNm":"세종시","addr":"세종특별자치시 조치원읍 으뜸길 208, 208","phone":"044-868-7582","hospUrl":"","estbDd":"20040209","drTotCnt":1,"mdeptSdrCnt":1,"lat":36.6008,"lng":127.29706},{"id":"685d1101b591","name":"굿제이산부인과의원","clCd":"31","clCdNm":"의원","sidoCd":"410000","sidoCdNm":"세종시","sgguCdNm":"세종시","addr":"세종특별자치시 절재로 194, 중앙타운 303호 (어진동)","phone":"044-715-7677","hospUrl":"","estbDd":"20210324","drTotCnt":1,"mdeptSdrCnt":1,"lat":36.50823,"lng":127.26246},{"id":"a03a60609e65","name":"김내과의원","clCd":"31","clCdNm":"의원","sidoCd":"410000","sidoCdNm":"세종시","sgguCdNm":"세종시","addr":"세종특별자치시 조치원읍 새내로 98, 98","phone":"044-862-3575","hospUrl":"","estbDd":"19971201","drTotCnt":1,"mdeptSdrCnt":1,"lat":36.60057,"lng":127.2986},{"id":"164191e3d4ba","name":"김승환이비인후과의원","clCd":"31","clCdNm":"의원","sidoCd":"410000","sidoCdNm":"세종시","sgguCdNm":"세종시","addr":"세종특별자치시 조치원읍 새내로 88-1, 88","phone":"044-862-8575","hospUrl":"","estbDd":"20070913","drTotCnt":1,"mdeptSdrCnt":1,"lat":36.59973,"lng":127.29865},{"id":"72492c41c526","name":"꿈담소아청소년과의원","clCd":"31","clCdNm":"의원","sidoCd":"410000","sidoCdNm":"세종시","sgguCdNm":"세종시","addr":"세종특별자치시 마음로 264, 고운프라자 2층 201-1호, 201-2호 (고운동)","phone":"044-715-7545","hospUrl":"","estbDd":"20230327","drTotCnt":1,"mdeptSdrCnt":1,"lat":36.51932,"lng":127.23469},{"id":"df41614d8727","name":"나은정형외과의원","clCd":"31","clCdNm":"의원","sidoCd":"410000","sidoCdNm":"세종시","sgguCdNm":"세종시","addr":"세종특별자치시 보듬3로 143, 502,503호 (아름동, 대영프라자)","phone":"044-863-7579","hospUrl":"","estbDd":"20160928","drTotCnt":1,"mdeptSdrCnt":1,"lat":36.51163,"lng":127.24362},{"id":"f4729719cfa4","name":"노블클라쎄산부인과의원","clCd":"31","clCdNm":"의원","sidoCd":"410000","sidoCdNm":"세종시","sgguCdNm":"세종시","addr":"세종특별자치시 한누리대로 2165, 호려울마을7단지 근린생활시설 752동 A302~308-1, A315~A320호 (보람동)","phone":"044-866-3575","hospUrl":"","estbDd":"20210106","drTotCnt":1,"mdeptSdrCnt":1,"lat":36.47731,"lng":127.2865},{"id":"10150105e3c5","name":"누가연합의원","clCd":"31","clCdNm":"의원","sidoCd":"410000","sidoCdNm":"세종시","sgguCdNm":"세종시","addr":"세종특별자치시 전의면 읍내길 7, (전의면)","phone":"044-863-0494","hospUrl":"","estbDd":"19910918","drTotCnt":1,"mdeptSdrCnt":1,"lat":36.68002,"lng":127.20441},{"id":"b2e7de5a600c","name":"다솜가정의학과의원","clCd":"31","clCdNm":"의원","sidoCd":"410000","sidoCdNm":"세종시","sgguCdNm":"세종시","addr":"세종특별자치시 조치원읍 도원1로 16, (푸르지오 상가 208. 209호)","phone":"044-865-0075","hospUrl":"","estbDd":"20070906","drTotCnt":1,"mdeptSdrCnt":1,"lat":36.59257,"lng":127.28988},{"id":"37e663cf4dbd","name":"다정내과의원","clCd":"31","clCdNm":"의원","sidoCd":"410000","sidoCdNm":"세종시","sgguCdNm":"세종시","addr":"세종특별자치시 다정중앙로 57, 다정센타프라자 306,307호 (다정동)","phone":"044-864-1911","hospUrl":"","estbDd":"20180402","drTotCnt":2,"mdeptSdrCnt":2,"lat":36.49563,"lng":127.24851},{"id":"b6357e88f301","name":"다정서문365정형외과의원","clCd":"31","clCdNm":"의원","sidoCd":"410000","sidoCdNm":"세종시","sgguCdNm":"세종시","addr":"세종특별자치시 다정중앙로 52, 페스티발2 605~614호 (다정동)","phone":"044-865-1039","hospUrl":"","estbDd":"20190318","drTotCnt":1,"mdeptSdrCnt":1,"lat":36.49518,"lng":127.24926},{"id":"a8e4c8452262","name":"다정소아청소년과의원","clCd":"31","clCdNm":"의원","sidoCd":"410000","sidoCdNm":"세종시","sgguCdNm":"세종시","addr":"세종특별자치시 다정북로 109, 204,205호 (다정동, 가온마을3단지)","phone":"044-998-7711","hospUrl":"","estbDd":"20180806","drTotCnt":1,"mdeptSdrCnt":1,"lat":36.49776,"lng":127.24273},{"id":"f84d03cb233d","name":"더 보드레 의원","clCd":"31","clCdNm":"의원","sidoCd":"410000","sidoCdNm":"세종시","sgguCdNm":"세종시","addr":"세종특별자치시 한누리대로 2022, 아이콤스타타워 3층 304~305호 (소담동)","phone":"044-715-7513","hospUrl":"","estbDd":"20251224","drTotCnt":1,"mdeptSdrCnt":1,"lat":36.48449,"lng":127.29916},{"id":"e956f320cc9b","name":"더공감정신건강의학과의원","clCd":"31","clCdNm":"의원","sidoCd":"410000","sidoCdNm":"세종시","sgguCdNm":"세종시","addr":"세종특별자치시 한누리대로 2135, 스타힐타워1 304호 (보람동)","phone":"044-715-7678","hospUrl":"","estbDd":"20190321","drTotCnt":1,"mdeptSdrCnt":1,"lat":36.47835,"lng":127.2891},{"id":"8f4722d6adf8","name":"더블유성형외과의원","clCd":"31","clCdNm":"의원","sidoCd":"410000","sidoCdNm":"세종시","sgguCdNm":"세종시","addr":"세종특별자치시 한누리대로 245, 401호 (나성동, 에스알파크원)","phone":"044-863-6673","hospUrl":"","estbDd":"20170329","drTotCnt":1,"mdeptSdrCnt":1,"lat":36.4861,"lng":127.25765},{"id":"bd762c41942c","name":"더블유세종어진건강의원","clCd":"31","clCdNm":"의원","sidoCd":"410000","sidoCdNm":"세종시","sgguCdNm":"세종시","addr":"세종특별자치시 한누리대로 350, 뱅크빌딩 4층 401호 (어진동)","phone":"044-715-5262","hospUrl":"","estbDd":"20230327","drTotCnt":1,"mdeptSdrCnt":1,"lat":36.49542,"lng":127.25723},{"id":"6319189605e4","name":"도담도담소아청소년과의원","clCd":"31","clCdNm":"의원","sidoCd":"410000","sidoCdNm":"세종시","sgguCdNm":"세종시","addr":"세종특별자치시 보듬3로 6, 212호 (도담동, 라온프라이빗시티2상가)","phone":"044-867-3211","hospUrl":"","estbDd":"20150225","drTotCnt":1,"mdeptSdrCnt":1,"lat":36.51284,"lng":127.25894},{"id":"a711bbaeb3ca","name":"도란도란소아청소년과의원","clCd":"31","clCdNm":"의원","sidoCd":"410000","sidoCdNm":"세종시","sgguCdNm":"세종시","addr":"세종특별자치시 다정중앙로 57, 다정센타프라자 303호 (다정동)","phone":"044-863-3275","hospUrl":"","estbDd":"20180312","drTotCnt":1,"mdeptSdrCnt":1,"lat":36.49563,"lng":127.24851},{"id":"c8f642cf60b8","name":"동행정신건강의학과의원","clCd":"31","clCdNm":"의원","sidoCd":"410000","sidoCdNm":"세종시","sgguCdNm":"세종시","addr":"세종특별자치시 절재로 194, 중앙타운 704호 (어진동)","phone":"044-867-7579","hospUrl":"","estbDd":"20221205","drTotCnt":1,"mdeptSdrCnt":1,"lat":36.50823,"lng":127.26246},{"id":"c20db8993f68","name":"두리이비인후과의원","clCd":"31","clCdNm":"의원","sidoCd":"410000","sidoCdNm":"세종시","sgguCdNm":"세종시","addr":"세종특별자치시 절재로 194, 중앙타운 801,802호 (어진동)","phone":"044-865-7577","hospUrl":"","estbDd":"20150820","drTotCnt":1,"mdeptSdrCnt":1,"lat":36.50823,"lng":127.26246},{"id":"bec4f3495252","name":"두미소신경과의원","clCd":"31","clCdNm":"의원","sidoCd":"410000","sidoCdNm":"세종시","sgguCdNm":"세종시","addr":"세종특별자치시 한누리대로 249, 에스제이타워 408~410,507호 (나성동)","phone":"044-867-6119","hospUrl":"","estbDd":"20170314","drTotCnt":2,"mdeptSdrCnt":2,"lat":36.48644,"lng":127.25744},{"id":"67555145ea08","name":"드림내과의원","clCd":"31","clCdNm":"의원","sidoCd":"410000","sidoCdNm":"세종시","sgguCdNm":"세종시","addr":"세종특별자치시 새롬중앙로 55, 401호,402호403호 (새롬동, 행운빌딩)","phone":"044-715-7582","hospUrl":"","estbDd":"20170822","drTotCnt":2,"mdeptSdrCnt":2,"lat":36.4858,"lng":127.25042},{"id":"18804597d3ac","name":"드림이비인후과의원","clCd":"31","clCdNm":"의원","sidoCd":"410000","sidoCdNm":"세종시","sgguCdNm":"세종시","addr":"세종특별자치시 남세종로 458, 아리랑빌딩 201,202호 (보람동)","phone":"044-865-1275","hospUrl":"","estbDd":"20170821","drTotCnt":1,"mdeptSdrCnt":1,"lat":36.47705,"lng":127.28922},{"id":"c65742f42e61","name":"따뜻한 정신건강의학과의원","clCd":"31","clCdNm":"의원","sidoCd":"410000","sidoCdNm":"세종시","sgguCdNm":"세종시","addr":"세종특별자치시 한누리대로 2257, 판타지타워 304호 (대평동)","phone":"044-715-7507","hospUrl":"","estbDd":"20200803","drTotCnt":1,"mdeptSdrCnt":1,"lat":36.47262,"lng":127.278},{"id":"1fc2b0653a71","name":"라메종의원","clCd":"31","clCdNm":"의원","sidoCd":"410000","sidoCdNm":"세종시","sgguCdNm":"세종시","addr":"세종특별자치시 해밀3로 43, 스카이드림 503호 (해밀동)","phone":"044-715-7878","hospUrl":"","estbDd":"20240521","drTotCnt":1,"mdeptSdrCnt":1,"lat":36.52858,"lng":127.26449},{"id":"53940cf80fce","name":"라비에피부과의원","clCd":"31","clCdNm":"의원","sidoCd":"410000","sidoCdNm":"세종시","sgguCdNm":"세종시","addr":"세종특별자치시 다정중앙로 51, 더다정빌딩 501,502,503호 (다정동)","phone":"044-864-5005","hospUrl":"","estbDd":"20180315","drTotCnt":1,"mdeptSdrCnt":1,"lat":36.495,"lng":127.24856},{"id":"da5571cbdb38","name":"라온소아청소년과의원","clCd":"31","clCdNm":"의원","sidoCd":"410000","sidoCdNm":"세종시","sgguCdNm":"세종시","addr":"세종특별자치시 새롬중앙로 62-15, 해피라움W 303,304호 (새롬동)","phone":"044-866-1350","hospUrl":"","estbDd":"20160317","drTotCnt":3,"mdeptSdrCnt":3,"lat":36.48693,"lng":127.25125},{"id":"b3a67abaa285","name":"로뎀소아청소년과의원","clCd":"31","clCdNm":"의원","sidoCd":"410000","sidoCdNm":"세종시","sgguCdNm":"세종시","addr":"세종특별자치시 다정중앙로 52, 페스티발2 402~404호 (다정동)","phone":"044-863-0033","hospUrl":"","estbDd":"20200420","drTotCnt":1,"mdeptSdrCnt":1,"lat":36.49518,"lng":127.24926},{"id":"f58ac4ca04e5","name":"류마플러스내과의원","clCd":"31","clCdNm":"의원","sidoCd":"410000","sidoCdNm":"세종시","sgguCdNm":"세종시","addr":"세종특별자치시 한누리대로 499, 청암빌딩 401호 (어진동)","phone":"044-715-7550","hospUrl":"https://rmplus.co.kr","estbDd":"20241004","drTotCnt":1,"mdeptSdrCnt":1,"lat":36.50808,"lng":127.26112},{"id":"9de4b5faee43","name":"리더본재활의학과의원","clCd":"31","clCdNm":"의원","sidoCd":"410000","sidoCdNm":"세종시","sgguCdNm":"세종시","addr":"세종특별자치시 나성북로 30, 퍼스트원 6층 648호~655호 (나성동)","phone":"044-865-0700","hospUrl":"","estbDd":"20210722","drTotCnt":1,"mdeptSdrCnt":1,"lat":36.48907,"lng":127.26025},{"id":"f75c50a89ccb","name":"마음현정신건강의학과의원","clCd":"31","clCdNm":"의원","sidoCd":"410000","sidoCdNm":"세종시","sgguCdNm":"세종시","addr":"세종특별자치시 한누리대로 275, 형성프라자 6층 606,607호 (나성동)","phone":"044-862-3217","hospUrl":"","estbDd":"20230412","drTotCnt":1,"mdeptSdrCnt":1,"lat":36.48881,"lng":127.25638},{"id":"500031772c19","name":"마인드랩공간정신건강의학과의원","clCd":"31","clCdNm":"의원","sidoCd":"410000","sidoCdNm":"세종시","sgguCdNm":"세종시","addr":"세종특별자치시 한누리대로 265, 명동프라자 406~407호 (나성동)","phone":"044-715-5670","hospUrl":"","estbDd":"20220502","drTotCnt":2,"mdeptSdrCnt":2,"lat":36.48782,"lng":127.25674},{"id":"6dbfd4bcc198","name":"맑은내과외과의원","clCd":"31","clCdNm":"의원","sidoCd":"410000","sidoCdNm":"세종시","sgguCdNm":"세종시","addr":"세종특별자치시 달빛로 45, The Riverside 401~404, 503호 (종촌동)","phone":"044-863-6777","hospUrl":"","estbDd":"20150625","drTotCnt":2,"mdeptSdrCnt":2,"lat":36.50294,"lng":127.24997},{"id":"4a53aafedf52","name":"메디캐치 정형외과의원","clCd":"31","clCdNm":"의원","sidoCd":"410000","sidoCdNm":"세종시","sgguCdNm":"세종시","addr":"세종특별자치시  마음로 272-17, 세종 NS타워 3차 4층 (고운동)","phone":"044-417-6273","hospUrl":"","estbDd":"20230220","drTotCnt":1,"mdeptSdrCnt":1,"lat":36.5185,"lng":127.23529},{"id":"e6c47fb549a7","name":"메디캐치의원","clCd":"31","clCdNm":"의원","sidoCd":"410000","sidoCdNm":"세종시","sgguCdNm":"세종시","addr":"세종특별자치시  마음로 272-17, 세종NS타워 3차 3층 (고운동)","phone":"044-417-6271","hospUrl":"","estbDd":"20230214","drTotCnt":3,"mdeptSdrCnt":3,"lat":36.5185,"lng":127.23529},{"id":"922339a732bc","name":"문내과의원","clCd":"31","clCdNm":"의원","sidoCd":"410000","sidoCdNm":"세종시","sgguCdNm":"세종시","addr":"세종특별자치시 조치원읍 조치원로 22, 22","phone":"044-867-6551","hospUrl":"","estbDd":"20010331","drTotCnt":1,"mdeptSdrCnt":1,"lat":36.6012,"lng":127.29913},{"id":"72e1dc16df81","name":"미애로여성의원","clCd":"31","clCdNm":"의원","sidoCd":"410000","sidoCdNm":"세종시","sgguCdNm":"세종시","addr":"세종특별자치시 한누리대로 253, 에스빌딩 603호,604호 (나성동)","phone":"044-863-7475","hospUrl":"","estbDd":"20171218","drTotCnt":1,"mdeptSdrCnt":1,"lat":36.48681,"lng":127.25723},{"id":"88f0f2aa8eed","name":"백내과의원","clCd":"31","clCdNm":"의원","sidoCd":"410000","sidoCdNm":"세종시","sgguCdNm":"세종시","addr":"세종특별자치시 조치원읍 조치원2길 5, 2~4층","phone":"044-862-3838","hospUrl":"","estbDd":"19950307","drTotCnt":3,"mdeptSdrCnt":3,"lat":36.60102,"lng":127.29759},{"id":"0d27e3c8c7a3","name":"백룡의원","clCd":"31","clCdNm":"의원","sidoCd":"410000","sidoCdNm":"세종시","sgguCdNm":"세종시","addr":"세종특별자치시 금남면 채나무길 71, (금남면)","phone":"042-829-6171","hospUrl":"","estbDd":"20240328","drTotCnt":2,"mdeptSdrCnt":2,"lat":36.42622,"lng":127.26894},{"id":"026787b5f4c5","name":"본편한정형외과의원","clCd":"31","clCdNm":"의원","sidoCd":"410000","sidoCdNm":"세종시","sgguCdNm":"세종시","addr":"세종특별자치시 한누리대로 1844, 행복드림타워 3층 308~313호 (반곡동)","phone":"044-715-5900","hospUrl":"http://www.본편한정형외과.com","estbDd":"20251125","drTotCnt":1,"mdeptSdrCnt":1,"lat":36.49788,"lng":127.30994},{"id":"d65f13a6c825","name":"봄봄 이비인후과의원","clCd":"31","clCdNm":"의원","sidoCd":"410000","sidoCdNm":"세종시","sgguCdNm":"세종시","addr":"세종특별자치시 마음로 78, 세종 스마트큐브Ⅱ 203,204호 (고운동)","phone":"044-715-5915","hospUrl":"","estbDd":"20230221","drTotCnt":1,"mdeptSdrCnt":1,"lat":36.50557,"lng":127.23374},{"id":"40763c584e8e","name":"부강제일의원","clCd":"31","clCdNm":"의원","sidoCd":"410000","sidoCdNm":"세종시","sgguCdNm":"세종시","addr":"세종특별자치시 부강면 부강5길 11-1, (부강면)","phone":"044-275-3330","hospUrl":"","estbDd":"19940228","drTotCnt":1,"mdeptSdrCnt":1,"lat":36.52865,"lng":127.36827},{"id":"7b7cf7bd6b4a","name":"부부내과의원","clCd":"31","clCdNm":"의원","sidoCd":"410000","sidoCdNm":"세종시","sgguCdNm":"세종시","addr":"세종특별자치시 금남면 용포로 113, 113","phone":"044-866-0345","hospUrl":"","estbDd":"19990828","drTotCnt":2,"mdeptSdrCnt":2,"lat":36.46836,"lng":127.28119},{"id":"c65c23ca7883","name":"부영의원","clCd":"31","clCdNm":"의원","sidoCd":"410000","sidoCdNm":"세종시","sgguCdNm":"세종시","addr":"세종특별자치시 부강면 부강로 37-1, 1~2층","phone":"044-275-3782","hospUrl":"","estbDd":"20010529","drTotCnt":1,"mdeptSdrCnt":1,"lat":36.52924,"lng":127.36603},{"id":"a566bb277131","name":"브릭스피부과의원","clCd":"31","clCdNm":"의원","sidoCd":"410000","sidoCdNm":"세종시","sgguCdNm":"세종시","addr":"세종특별자치시 소담로 87, 6층 602호 (소담동)","phone":"044-715-7587","hospUrl":"","estbDd":"20251104","drTotCnt":1,"mdeptSdrCnt":1,"lat":36.48548,"lng":127.30188},{"id":"c128e88a6446","name":"브이유의원","clCd":"31","clCdNm":"의원","sidoCd":"410000","sidoCdNm":"세종시","sgguCdNm":"세종시","addr":"세종특별자치시  나성북로 21, 센트럴타워 506호 (나성동)","phone":"044-866-6222","hospUrl":"","estbDd":"20160125","drTotCnt":1,"mdeptSdrCnt":1,"lat":36.48982,"lng":127.25892},{"id":"75d2ccc73b2c","name":"블랑피부과의원","clCd":"31","clCdNm":"의원","sidoCd":"410000","sidoCdNm":"세종시","sgguCdNm":"세종시","addr":"세종특별자치시 절재로 194, 중앙타운 301호,302(일부)호 (어진동)","phone":"044-905-1100","hospUrl":"","estbDd":"20180125","drTotCnt":1,"mdeptSdrCnt":1,"lat":36.50823,"lng":127.26246},{"id":"d80afe529321","name":"블리비의원","clCd":"31","clCdNm":"의원","sidoCd":"410000","sidoCdNm":"세종시","sgguCdNm":"세종시","addr":"세종특별자치시 한누리대로 275, 형성프라자 301호~303호 (나성동)","phone":"1833-7390","hospUrl":"","estbDd":"20210617","drTotCnt":2,"mdeptSdrCnt":2,"lat":36.48881,"lng":127.25638},{"id":"0f06c4180397","name":"비쥬얼피부과의원","clCd":"31","clCdNm":"의원","sidoCd":"410000","sidoCdNm":"세종시","sgguCdNm":"세종시","addr":"세종특별자치시 한누리대로 273, 새롬씨티 3층 302,303,304호 (나성동)","phone":"044-715-7585","hospUrl":"","estbDd":"20190409","drTotCnt":1,"mdeptSdrCnt":1,"lat":36.48848,"lng":127.25648},{"id":"23babc4e7b77","name":"삼성마음그린정신건강의학과의원","clCd":"31","clCdNm":"의원","sidoCd":"410000","sidoCdNm":"세종시","sgguCdNm":"세종시","addr":"세종특별자치시 한누리대로 253, 에스빌딩 301호 (나성동)","phone":"044-867-1000","hospUrl":"smaumgreen.modoo.at","estbDd":"20150817","drTotCnt":1,"mdeptSdrCnt":1,"lat":36.48681,"lng":127.25723},{"id":"da031f738f08","name":"삼성미의원","clCd":"31","clCdNm":"의원","sidoCd":"410000","sidoCdNm":"세종시","sgguCdNm":"세종시","addr":"세종특별자치시 도움1로 108, 몰리브(Mallive) 4층 405~406호 (종촌동)","phone":"044-868-7570","hospUrl":"","estbDd":"20220228","drTotCnt":1,"mdeptSdrCnt":1,"lat":36.50264,"lng":127.24758},{"id":"10cc4b662a67","name":"삼성밸런스이비인후과의원","clCd":"31","clCdNm":"의원","sidoCd":"410000","sidoCdNm":"세종시","sgguCdNm":"세종시","addr":"세종특별자치시 아름서1길 13-12, 세종 제이디빌딩 201,202호 (아름동)","phone":"044-715-7517","hospUrl":"","estbDd":"20220331","drTotCnt":1,"mdeptSdrCnt":1,"lat":36.51165,"lng":127.24324},{"id":"66b7b28ebeb2","name":"삼성전기(주) 부속의원","clCd":"31","clCdNm":"의원","sidoCd":"410000","sidoCdNm":"세종시","sgguCdNm":"세종시","addr":"세종특별자치시 연동면 삼성길 25, 4동 1층","phone":"044-861-1348","hospUrl":"","estbDd":"20120111","drTotCnt":1,"mdeptSdrCnt":1,"lat":36.54064,"lng":127.3343},{"id":"bc621634c6fd","name":"삼성필성형외과의원","clCd":"31","clCdNm":"의원","sidoCd":"410000","sidoCdNm":"세종시","sgguCdNm":"세종시","addr":"세종특별자치시 한누리대로 265, 명동프라자 3층 (나성동)","phone":"044-867-1233","hospUrl":"","estbDd":"20210727","drTotCnt":2,"mdeptSdrCnt":2,"lat":36.48782,"lng":127.25674},{"id":"6dd461b4ac23","name":"상쾌한이비인후과의원","clCd":"31","clCdNm":"의원","sidoCd":"410000","sidoCdNm":"세종시","sgguCdNm":"세종시","addr":"세종특별자치시 새롬중앙로 59, 403호 (새롬동, 새롬빌딩)","phone":"044-862-7584","hospUrl":"","estbDd":"20170410","drTotCnt":1,"mdeptSdrCnt":1,"lat":36.48607,"lng":127.25032},{"id":"e97739db4b2b","name":"새롬정형외과의원","clCd":"31","clCdNm":"의원","sidoCd":"410000","sidoCdNm":"세종시","sgguCdNm":"세종시","addr":"세종특별자치시 새롬중앙로 34, 415호,416호,417호 (새롬동, 크리스마스빌딩)","phone":"044-998-3369","hospUrl":"","estbDd":"20170830","drTotCnt":1,"mdeptSdrCnt":1,"lat":36.48459,"lng":127.25249},{"id":"dcc05abdeda1","name":"서문365정형외과의원","clCd":"31","clCdNm":"의원","sidoCd":"410000","sidoCdNm":"세종시","sgguCdNm":"세종시","addr":"세종특별자치시 한누리대로 2281, SM메디컬센터 3층 301~305, 311~,312호 (대평동)","phone":"044-868-1039","hospUrl":"","estbDd":"20180912","drTotCnt":1,"mdeptSdrCnt":1,"lat":36.47129,"lng":127.27591},{"id":"3433340c290b","name":"서산부인과의원","clCd":"31","clCdNm":"의원","sidoCd":"410000","sidoCdNm":"세종시","sgguCdNm":"세종시","addr":"세종특별자치시 보듬3로 150, 아름 행복타워 3,4층 (아름동)","phone":"044-905-3575","hospUrl":"","estbDd":"20180223","drTotCnt":3,"mdeptSdrCnt":3,"lat":36.51226,"lng":127.24301},{"id":"8b0cee15953e","name":"서울굿닥터의원","clCd":"31","clCdNm":"의원","sidoCd":"410000","sidoCdNm":"세종시","sgguCdNm":"세종시","addr":"세종특별자치시 새롬중앙로 55, 3층 (새롬동, 행운빌딩)","phone":"044-867-9933","hospUrl":"","estbDd":"20171124","drTotCnt":1,"mdeptSdrCnt":1,"lat":36.48576,"lng":127.25034},{"id":"5b078996b741","name":"서울봄빛안과의원","clCd":"31","clCdNm":"의원","sidoCd":"410000","sidoCdNm":"세종시","sgguCdNm":"세종시","addr":"세종특별자치시 한누리대로 265, 명동프라자 603~607호 (나성동)","phone":"044-865-1400","hospUrl":"www.bombiteye.com","estbDd":"20221024","drTotCnt":1,"mdeptSdrCnt":1,"lat":36.48782,"lng":127.25674},{"id":"b9e597262434","name":"서울삼성안과의원","clCd":"31","clCdNm":"의원","sidoCd":"410000","sidoCdNm":"세종시","sgguCdNm":"세종시","addr":"세종특별자치시 도움1로 106, 메가시티 403,404,414호 (종촌동)","phone":"044-862-0014","hospUrl":"","estbDd":"20160404","drTotCnt":3,"mdeptSdrCnt":3,"lat":36.50282,"lng":127.24812},{"id":"8cdc566cbf2f","name":"서울삼성이비인후과의원","clCd":"31","clCdNm":"의원","sidoCd":"410000","sidoCdNm":"세종시","sgguCdNm":"세종시","addr":"세종특별자치시 한누리대로 275, 형성프라자 401~404호 (나성동)","phone":"044-864-1864","hospUrl":"","estbDd":"20180104","drTotCnt":4,"mdeptSdrCnt":4,"lat":36.48881,"lng":127.25638},{"id":"56028640bb9e","name":"서울신통마취통증의학과의원","clCd":"31","clCdNm":"의원","sidoCd":"410000","sidoCdNm":"세종시","sgguCdNm":"세종시","addr":"세종특별자치시 조치원읍 새내로 97, 3층","phone":"044-862-7582","hospUrl":"","estbDd":"20061201","drTotCnt":1,"mdeptSdrCnt":1,"lat":36.6004,"lng":127.29804},{"id":"b61123e0af0c","name":"서울아산내과의원","clCd":"31","clCdNm":"의원","sidoCd":"410000","sidoCdNm":"세종시","sgguCdNm":"세종시","addr":"세종특별자치시 조치원읍 새내로 97, 2층, 7층","phone":"044-862-7559","hospUrl":"","estbDd":"20180611","drTotCnt":5,"mdeptSdrCnt":5,"lat":36.6004,"lng":127.29804},{"id":"2cdc4db6928a","name":"서울아산신경외과의원","clCd":"31","clCdNm":"의원","sidoCd":"410000","sidoCdNm":"세종시","sgguCdNm":"세종시","addr":"세종특별자치시 나성북로 9, 701,702호 (나성동, 메가타워1)","phone":"044-868-5288","hospUrl":"","estbDd":"20160923","drTotCnt":1,"mdeptSdrCnt":1,"lat":36.48966,"lng":127.25788},{"id":"2ebe0706237e","name":"서울아산재활의학과의원","clCd":"31","clCdNm":"의원","sidoCd":"410000","sidoCdNm":"세종시","sgguCdNm":"세종시","addr":"세종특별자치시 절재로 194, 중앙타운 4층 406호 (어진동)","phone":"044-715-7591","hospUrl":"","estbDd":"20221012","drTotCnt":1,"mdeptSdrCnt":1,"lat":36.50823,"lng":127.26246},{"id":"efcdf96c6c01","name":"서울연합외과의원","clCd":"31","clCdNm":"의원","sidoCd":"410000","sidoCdNm":"세종시","sgguCdNm":"세종시","addr":"세종특별자치시 조치원읍 조치원로 22, 3층","phone":"044-865-3838","hospUrl":"","estbDd":"20090701","drTotCnt":1,"mdeptSdrCnt":1,"lat":36.6012,"lng":127.29913},{"id":"bf7139198771","name":"서울연합의원","clCd":"31","clCdNm":"의원","sidoCd":"410000","sidoCdNm":"세종시","sgguCdNm":"세종시","addr":"세종특별자치시 소정면 소정구길 164, 103,201호","phone":"044-523-3375","hospUrl":"","estbDd":"20080305","drTotCnt":1,"mdeptSdrCnt":1,"lat":36.71865,"lng":127.15681},{"id":"689b0160b83e","name":"서울외과의원","clCd":"31","clCdNm":"의원","sidoCd":"410000","sidoCdNm":"세종시","sgguCdNm":"세종시","addr":"세종특별자치시 조치원읍 새내로 68-1, (조치원읍)","phone":"044-863-4912","hospUrl":"","estbDd":"19900521","drTotCnt":1,"mdeptSdrCnt":1,"lat":36.59806,"lng":127.29884},{"id":"5918206d7e27","name":"선비뇨기과의원","clCd":"31","clCdNm":"의원","sidoCd":"410000","sidoCdNm":"세종시","sgguCdNm":"세종시","addr":"세종특별자치시 조치원읍 조치원로 26, (조치원읍)","phone":"044-868-8866","hospUrl":"","estbDd":"20011107","drTotCnt":1,"mdeptSdrCnt":1,"lat":36.60131,"lng":127.29957},{"id":"60246d50c001","name":"성가정신건강의학과의원","clCd":"31","clCdNm":"의원","sidoCd":"410000","sidoCdNm":"세종시","sgguCdNm":"세종시","addr":"세종특별자치시 조치원읍 새내로 97, 5층 1호","phone":"044-867-5357","hospUrl":"","estbDd":"19950306","drTotCnt":1,"mdeptSdrCnt":1,"lat":36.6004,"lng":127.29804},{"id":"ba67313cd0d2","name":"성모안과의원","clCd":"31","clCdNm":"의원","sidoCd":"410000","sidoCdNm":"세종시","sgguCdNm":"세종시","addr":"세종특별자치시 조치원읍 새내로 97, 601호","phone":"044-868-0021","hospUrl":"http://www.smeyehall.co.kr/","estbDd":"20061117","drTotCnt":1,"mdeptSdrCnt":1,"lat":36.6004,"lng":127.29804},{"id":"691549682ee3","name":"성심외과의원","clCd":"31","clCdNm":"의원","sidoCd":"410000","sidoCdNm":"세종시","sgguCdNm":"세종시","addr":"세종특별자치시 조치원읍 새내로 113, (조치원읍)","phone":"044-865-3616","hospUrl":"","estbDd":"19870108","drTotCnt":1,"mdeptSdrCnt":1,"lat":36.60193,"lng":127.29771},{"id":"d1a6c78a3fc9","name":"세미이비인후과의원","clCd":"31","clCdNm":"의원","sidoCd":"410000","sidoCdNm":"세종시","sgguCdNm":"세종시","addr":"세종특별자치시 한누리대로 1824, 301~303호 (반곡동)","phone":"044-715-7560","hospUrl":"","estbDd":"20200928","drTotCnt":1,"mdeptSdrCnt":1,"lat":36.49809,"lng":127.31213},{"id":"c9a962d950e3","name":"세움소아청소년과의원","clCd":"31","clCdNm":"의원","sidoCd":"410000","sidoCdNm":"세종시","sgguCdNm":"세종시","addr":"세종특별자치시 보듬3로 92, 310호 (아름동, 해피라움2상가)","phone":"044-862-6075","hospUrl":"","estbDd":"20141002","drTotCnt":1,"mdeptSdrCnt":1,"lat":36.51191,"lng":127.24947},{"id":"d0a710a0861a","name":"세종 장내과의원","clCd":"31","clCdNm":"의원","sidoCd":"410000","sidoCdNm":"세종시","sgguCdNm":"세종시","addr":"세종특별자치시 나성북로 15, MVG 2층 204~207, 211~212호 (나성동)","phone":"044-715-7554","hospUrl":"","estbDd":"20251013","drTotCnt":1,"mdeptSdrCnt":1,"lat":36.48973,"lng":127.25839},{"id":"fc82e49c0869","name":"세종 정형외과의원","clCd":"31","clCdNm":"의원","sidoCd":"410000","sidoCdNm":"세종시","sgguCdNm":"세종시","addr":"세종특별자치시 한누리대로 583, 도담센트럴프라자 501,502,506호 (도담동)","phone":"867-2191","hospUrl":"","estbDd":"20150610","drTotCnt":2,"mdeptSdrCnt":2,"lat":36.5153,"lng":127.25846},{"id":"ab38a4115e7d","name":"세종365믿음정형외과의원","clCd":"31","clCdNm":"의원","sidoCd":"410000","sidoCdNm":"세종시","sgguCdNm":"세종시","addr":"세종특별자치시  세종로 1229, 스타플레이스 201~209, 301~303, 308~310호 (고운동) (고운동)","phone":"044-866-7582","hospUrl":"","estbDd":"20250814","drTotCnt":3,"mdeptSdrCnt":3,"lat":36.51245,"lng":127.24106},{"id":"4f59c5b476f8","name":"세종365의원","clCd":"31","clCdNm":"의원","sidoCd":"410000","sidoCdNm":"세종시","sgguCdNm":"세종시","addr":"세종특별자치시 한누리대로 1958, 법조타운A 4층 401~410호 (소담동)","phone":"1661-3561","hospUrl":"","estbDd":"20220105","drTotCnt":2,"mdeptSdrCnt":2,"lat":36.48949,"lng":127.30224},{"id":"82576389d2a0","name":"세종가톨릭정형외과의원","clCd":"31","clCdNm":"의원","sidoCd":"410000","sidoCdNm":"세종시","sgguCdNm":"세종시","addr":"세종특별자치시 도움1로 106, 401~402호,405~408호,416호 (종촌동, 메가시티)","phone":"044-867-7171","hospUrl":"","estbDd":"20170411","drTotCnt":2,"mdeptSdrCnt":2,"lat":36.50282,"lng":127.24812},{"id":"c1ab48109497","name":"세종고려정형외과의원","clCd":"31","clCdNm":"의원","sidoCd":"410000","sidoCdNm":"세종시","sgguCdNm":"세종시","addr":"세종특별자치시 한누리대로 2143, 금강시티타워 303~306호 (보람동)","phone":"044-865-3888","hospUrl":"","estbDd":"20180829","drTotCnt":1,"mdeptSdrCnt":1,"lat":36.47806,"lng":127.28843},{"id":"4eeaa11a802f","name":"세종국민건강의원","clCd":"31","clCdNm":"의원","sidoCd":"410000","sidoCdNm":"세종시","sgguCdNm":"세종시","addr":"세종특별자치시 가온로 8, 혜원빌딩 2~3층 (다정동)","phone":"1522-3466","hospUrl":"","estbDd":"20170307","drTotCnt":10,"mdeptSdrCnt":10,"lat":36.49147,"lng":127.2549},{"id":"af3d363e64ab","name":"세종김안과의원","clCd":"31","clCdNm":"의원","sidoCd":"410000","sidoCdNm":"세종시","sgguCdNm":"세종시","addr":"세종특별자치시 보듬3로 150, 아름 행복타워 5층 501,502,503호 (아름동)","phone":"044-864-2360","hospUrl":"","estbDd":"20180702","drTotCnt":1,"mdeptSdrCnt":1,"lat":36.51226,"lng":127.24301},{"id":"99a353adfacb","name":"세종김연수피부과의원","clCd":"31","clCdNm":"의원","sidoCd":"410000","sidoCdNm":"세종시","sgguCdNm":"세종시","addr":"세종특별자치시 새롬중앙로 64, 세종영광프라자 4층 403호 (새롬동)","phone":"044-866-7534","hospUrl":"","estbDd":"20200128","drTotCnt":1,"mdeptSdrCnt":1,"lat":36.48665,"lng":127.25098},{"id":"af02afcbd8a0","name":"세종내과의원","clCd":"31","clCdNm":"의원","sidoCd":"410000","sidoCdNm":"세종시","sgguCdNm":"세종시","addr":"세종특별자치시 보듬3로 6, 204.205호 (도담동, 라온프라이빗시티2상가)","phone":"044-868-1070","hospUrl":"","estbDd":"20150529","drTotCnt":1,"mdeptSdrCnt":1,"lat":36.51284,"lng":127.25894},{"id":"a44050eb708d","name":"세종다사랑가정의학과의원","clCd":"31","clCdNm":"의원","sidoCd":"410000","sidoCdNm":"세종시","sgguCdNm":"세종시","addr":"세종특별자치시 도움3로 105-7, 401호 (종촌동, 메디케어)","phone":"044-863-7523","hospUrl":"","estbDd":"20150731","drTotCnt":1,"mdeptSdrCnt":1,"lat":36.50451,"lng":127.24965},{"id":"e35d37ece2c9","name":"세종더튼튼의원","clCd":"31","clCdNm":"의원","sidoCd":"410000","sidoCdNm":"세종시","sgguCdNm":"세종시","addr":"세종특별자치시  한누리대로 1820, 왕관빌딩 4층 404, 405-1호 (반곡동)","phone":"044-862-9680","hospUrl":"","estbDd":"20010521","drTotCnt":1,"mdeptSdrCnt":1,"lat":36.49814,"lng":127.31271},{"id":"e9e19ab709b2","name":"세종드림연합의원","clCd":"31","clCdNm":"의원","sidoCd":"410000","sidoCdNm":"세종시","sgguCdNm":"세종시","addr":"세종특별자치시 한누리대로 2264, 3층 (대평동, 씨티오브드림)","phone":"1577-4713","hospUrl":"","estbDd":"20170811","drTotCnt":1,"mdeptSdrCnt":1,"lat":36.473,"lng":127.27678},{"id":"3d7d15fb5ac9","name":"세종맑은이비인후과의원","clCd":"31","clCdNm":"의원","sidoCd":"410000","sidoCdNm":"세종시","sgguCdNm":"세종시","addr":"세종특별자치시 도움3로 105-7, 메디케어빌딩 303호 (종촌동)","phone":"044-862-2358","hospUrl":"","estbDd":"20200428","drTotCnt":1,"mdeptSdrCnt":1,"lat":36.50451,"lng":127.24965},{"id":"60a6f42ee205","name":"세종미즈산부인과의원","clCd":"31","clCdNm":"의원","sidoCd":"410000","sidoCdNm":"세종시","sgguCdNm":"세종시","addr":"세종특별자치시 도움3로 105-5, 504호 (종촌동, 종촌중앙프라자)","phone":"044-868-3582","hospUrl":"","estbDd":"20150428","drTotCnt":1,"mdeptSdrCnt":1,"lat":36.50476,"lng":127.24954},{"id":"4807ef4f1c71","name":"세종미체원365의원","clCd":"31","clCdNm":"의원","sidoCd":"410000","sidoCdNm":"세종시","sgguCdNm":"세종시","addr":"세종특별자치시 한누리대로 1834, 401,402,403호 (반곡동)","phone":"044-865-3651","hospUrl":"","estbDd":"20240610","drTotCnt":"","mdeptSdrCnt":"","lat":36.49799,"lng":127.3111},{"id":"06c2cf8d6274","name":"세종바른유외과의원","clCd":"31","clCdNm":"의원","sidoCd":"410000","sidoCdNm":"세종시","sgguCdNm":"세종시","addr":"세종특별자치시 한누리대로 169, 세종행복타워 503~505호 (나성동)","phone":"044-998-7575","hospUrl":"","estbDd":"20220406","drTotCnt":1,"mdeptSdrCnt":1,"lat":36.48023,"lng":127.26182},{"id":"06b4edca8fa1","name":"세종반석정형외과의원","clCd":"31","clCdNm":"의원","sidoCd":"410000","sidoCdNm":"세종시","sgguCdNm":"세종시","addr":"세종특별자치시 한누리대로 157, 601-609호 (나성동, 금강프라자)","phone":"044-863-7551","hospUrl":"","estbDd":"20140627","drTotCnt":1,"mdeptSdrCnt":1,"lat":36.47931,"lng":127.2625},{"id":"f7a2633cab2c","name":"세종밴스의원","clCd":"31","clCdNm":"의원","sidoCd":"410000","sidoCdNm":"세종시","sgguCdNm":"세종시","addr":"세종특별자치시 나성북로 15, MVG 8층 801, 802,803,804호 (나성동)","phone":"","hospUrl":"","estbDd":"20260410","drTotCnt":1,"mdeptSdrCnt":"","lat":36.48973,"lng":127.25839},{"id":"ebebcc162cb5","name":"세종뷰티의원","clCd":"31","clCdNm":"의원","sidoCd":"410000","sidoCdNm":"세종시","sgguCdNm":"세종시","addr":"세종특별자치시 한누리대로 492, 청암빌딩 405,406호 (어진동)","phone":"044-863-0492","hospUrl":"http://www.iaanclinic.co.kr/","estbDd":"20190128","drTotCnt":1,"mdeptSdrCnt":1,"lat":36.50739,"lng":127.26229},{"id":"91fa13105d0c","name":"세종서울정신건강의학과의원","clCd":"31","clCdNm":"의원","sidoCd":"410000","sidoCdNm":"세종시","sgguCdNm":"세종시","addr":"세종특별자치시 보듬3로 143, 대영프라자 603호 (아름동)","phone":"044-715-5432","hospUrl":"http://sejongseoul-mind.com","estbDd":"20240325","drTotCnt":1,"mdeptSdrCnt":1,"lat":36.51163,"lng":127.24362},{"id":"03b4f07f1796","name":"세종서울정형외과의원","clCd":"31","clCdNm":"의원","sidoCd":"410000","sidoCdNm":"세종시","sgguCdNm":"세종시","addr":"세종특별자치시 한누리대로 492, 청암빌딩 403,404,407호 (어진동)","phone":"044-862-8833","hospUrl":"","estbDd":"20190510","drTotCnt":1,"mdeptSdrCnt":1,"lat":36.50739,"lng":127.26229},{"id":"04595681c37a","name":"세종성모내과의원","clCd":"31","clCdNm":"의원","sidoCd":"410000","sidoCdNm":"세종시","sgguCdNm":"세종시","addr":"세종특별자치시 한누리대로 492, 청암빌딩 401,402호 (어진동)","phone":"044-905-0606","hospUrl":"","estbDd":"20180918","drTotCnt":1,"mdeptSdrCnt":1,"lat":36.50739,"lng":127.26229},{"id":"3f62cd47c092","name":"세종성모소아청소년과의원","clCd":"31","clCdNm":"의원","sidoCd":"410000","sidoCdNm":"세종시","sgguCdNm":"세종시","addr":"세종특별자치시 한누리대로 2129, 스타힐타워Ⅱ 401~405,409,412~415호 (보람동)","phone":"044-865-4003","hospUrl":"","estbDd":"20170119","drTotCnt":3,"mdeptSdrCnt":3,"lat":36.47858,"lng":127.28975},{"id":"a8b2bcfd277a","name":"세종소아청소년과의원","clCd":"31","clCdNm":"의원","sidoCd":"410000","sidoCdNm":"세종시","sgguCdNm":"세종시","addr":"세종특별자치시 한누리대로 157, 405호 (나성동, 금강프라자)","phone":"044-866-1275","hospUrl":"http://","estbDd":"20120710","drTotCnt":1,"mdeptSdrCnt":1,"lat":36.47931,"lng":127.2625},{"id":"1b69ada2a0a3","name":"세종속편한내과의원","clCd":"31","clCdNm":"의원","sidoCd":"410000","sidoCdNm":"세종시","sgguCdNm":"세종시","addr":"세종특별자치시 보듬3로 95, 해피라움3 3층 301,302,304-2,305호 (아름동)","phone":"044-862-1401","hospUrl":"","estbDd":"20141001","drTotCnt":2,"mdeptSdrCnt":2,"lat":36.51138,"lng":127.24891},{"id":"1ca8295c4f2b","name":"세종수이비인후과의원","clCd":"31","clCdNm":"의원","sidoCd":"410000","sidoCdNm":"세종시","sgguCdNm":"세종시","addr":"세종특별자치시 해밀3로 43, 스카이드림 501,502호 (해밀동)","phone":"044-715-7730","hospUrl":"","estbDd":"20220304","drTotCnt":1,"mdeptSdrCnt":1,"lat":36.52858,"lng":127.26449},{"id":"5cff3bc80e3e","name":"세종숲정신건강의학과의원","clCd":"31","clCdNm":"의원","sidoCd":"410000","sidoCdNm":"세종시","sgguCdNm":"세종시","addr":"세종특별자치시 도움1로 106, 메가시티 3층 301호 (종촌동)","phone":"044-865-7560","hospUrl":"","estbDd":"20180305","drTotCnt":1,"mdeptSdrCnt":1,"lat":36.50282,"lng":127.24812},{"id":"78424aeef453","name":"세종쉼정신건강의학과의원","clCd":"31","clCdNm":"의원","sidoCd":"410000","sidoCdNm":"세종시","sgguCdNm":"세종시","addr":"세종특별자치시 한누리대로 583, 503호 (도담동, 도담센트럴프라자)","phone":"044-864-1181","hospUrl":"","estbDd":"20150605","drTotCnt":1,"mdeptSdrCnt":1,"lat":36.5153,"lng":127.25846},{"id":"f5fe35466ee4","name":"세종스노우의원","clCd":"31","clCdNm":"의원","sidoCd":"410000","sidoCdNm":"세종시","sgguCdNm":"세종시","addr":"세종특별자치시 나성북로 30, 퍼스트원 550~562호 (나성동)","phone":"044-903-3090","hospUrl":"","estbDd":"20220527","drTotCnt":4,"mdeptSdrCnt":"","lat":36.48907,"lng":127.26025},{"id":"247cfdac175c","name":"세종스카이내과의원","clCd":"31","clCdNm":"의원","sidoCd":"410000","sidoCdNm":"세종시","sgguCdNm":"세종시","addr":"세종특별자치시 해밀3로 43, 스카이드림 6층 602,603,604호 (해밀동)","phone":"044-715-7320","hospUrl":"","estbDd":"20220119","drTotCnt":1,"mdeptSdrCnt":1,"lat":36.52858,"lng":127.26449},{"id":"9cbbe9672bcb","name":"세종시원마취통증의학과의원","clCd":"31","clCdNm":"의원","sidoCd":"410000","sidoCdNm":"세종시","sgguCdNm":"세종시","addr":"세종특별자치시 보듬3로 100, 해피라움1 201~203호 (아름동)","phone":"044-867-7585","hospUrl":"","estbDd":"20160309","drTotCnt":1,"mdeptSdrCnt":1,"lat":36.51195,"lng":127.24862},{"id":"914945062f21","name":"세종시청점오라클피부과의원","clCd":"31","clCdNm":"의원","sidoCd":"410000","sidoCdNm":"세종시","sgguCdNm":"세종시","addr":"세종특별자치시 한누리대로 2143, 금강시티타워 204~206호 (보람동)","phone":"044-715-7716","hospUrl":"","estbDd":"20210405","drTotCnt":2,"mdeptSdrCnt":2,"lat":36.47806,"lng":127.28843},{"id":"aae3f75eda20","name":"세종아이소아청소년과의원","clCd":"31","clCdNm":"의원","sidoCd":"410000","sidoCdNm":"세종시","sgguCdNm":"세종시","addr":"세종특별자치시 달빛로 59, 303.304호 (종촌동, 호만빌딩)","phone":"044-864-0800","hospUrl":"","estbDd":"20140925","drTotCnt":2,"mdeptSdrCnt":2,"lat":36.50424,"lng":127.24976},{"id":"d56d3129ef82","name":"세종연세에스의원","clCd":"31","clCdNm":"의원","sidoCd":"410000","sidoCdNm":"세종시","sgguCdNm":"세종시","addr":"세종특별자치시 한누리대로 265, 명동프라자 403~405호 (나성동)","phone":"044-864-8610","hospUrl":"","estbDd":"20150417","drTotCnt":1,"mdeptSdrCnt":1,"lat":36.48782,"lng":127.25674},{"id":"f1e45dc054e5","name":"세종연합비뇨기과의원","clCd":"31","clCdNm":"의원","sidoCd":"410000","sidoCdNm":"세종시","sgguCdNm":"세종시","addr":"세종특별자치시 한누리대로 273, 새롬씨티 403,404,407,408호 (나성동)","phone":"044-867-2800","hospUrl":"http://www.sejonguro.co.kr/","estbDd":"20150910","drTotCnt":3,"mdeptSdrCnt":3,"lat":36.48848,"lng":127.25648},{"id":"6a157da783c2","name":"세종영상의학과의원","clCd":"31","clCdNm":"의원","sidoCd":"410000","sidoCdNm":"세종시","sgguCdNm":"세종시","addr":"세종특별자치시 금남면 용포로 116, 3층","phone":"044-866-0009","hospUrl":"","estbDd":"20040913","drTotCnt":1,"mdeptSdrCnt":1,"lat":36.46886,"lng":127.28121},{"id":"40bd95ae056c","name":"세종우리성모안과의원","clCd":"31","clCdNm":"의원","sidoCd":"410000","sidoCdNm":"세종시","sgguCdNm":"세종시","addr":"세종특별자치시 한누리대로 273, 601~604호 (나성동)","phone":"044-864-3370","hospUrl":"","estbDd":"20160303","drTotCnt":3,"mdeptSdrCnt":3,"lat":36.48848,"lng":127.25648},{"id":"ea7debf38d20","name":"세종우리의원","clCd":"31","clCdNm":"의원","sidoCd":"410000","sidoCdNm":"세종시","sgguCdNm":"세종시","addr":"세종특별자치시 다정중앙로 52, 페스티발2 510,511,512,513호 (다정동)","phone":"044-867-1170","hospUrl":"","estbDd":"20180212","drTotCnt":1,"mdeptSdrCnt":1,"lat":36.49518,"lng":127.24926},{"id":"bcaeb36f7c11","name":"세종위드정형외과의원","clCd":"31","clCdNm":"의원","sidoCd":"410000","sidoCdNm":"세종시","sgguCdNm":"세종시","addr":"세종특별자치시 한누리대로 265, 명동프라자 7층 701,702,703호 (나성동)","phone":"044-715-7574","hospUrl":"","estbDd":"20230306","drTotCnt":2,"mdeptSdrCnt":2,"lat":36.48782,"lng":127.25674},{"id":"2f6615f25d93","name":"세종유영상의학과의원","clCd":"31","clCdNm":"의원","sidoCd":"410000","sidoCdNm":"세종시","sgguCdNm":"세종시","addr":"세종특별자치시 나성북로 15, MVG 307, 308호 (나성동)","phone":"044-417-6107","hospUrl":"","estbDd":"20260303","drTotCnt":1,"mdeptSdrCnt":1,"lat":36.48973,"lng":127.25839},{"id":"d79be972c442","name":"세종이안과의원","clCd":"31","clCdNm":"의원","sidoCd":"410000","sidoCdNm":"세종시","sgguCdNm":"세종시","addr":"세종특별자치시 새롬중앙로 62-15, 해피라움W 403,404호 (새롬동)","phone":"044-868-7228","hospUrl":"","estbDd":"20200204","drTotCnt":1,"mdeptSdrCnt":1,"lat":36.48693,"lng":127.25125},{"id":"bcf49beff6fc","name":"세종이엠365의원","clCd":"31","clCdNm":"의원","sidoCd":"410000","sidoCdNm":"세종시","sgguCdNm":"세종시","addr":"세종특별자치시 국세청로 32, 마크원애비뉴 D-406,407,410,411,412,413A,413B,414A,414B,415, C-401 (나성동)","phone":"044-863-7119","hospUrl":"","estbDd":"20240208","drTotCnt":2,"mdeptSdrCnt":2,"lat":36.48642,"lng":127.26197},{"id":"5a0fa6c9ccef","name":"세종이지항외과의원","clCd":"31","clCdNm":"의원","sidoCd":"410000","sidoCdNm":"세종시","sgguCdNm":"세종시","addr":"세종특별자치시 한누리대로 331, 3층 320~323호 (나성동, SR파크센텀)","phone":"044-863-6131","hospUrl":"","estbDd":"20221025","drTotCnt":1,"mdeptSdrCnt":1,"lat":36.49393,"lng":127.25584},{"id":"e7681227685f","name":"세종장사랑내과의원","clCd":"31","clCdNm":"의원","sidoCd":"410000","sidoCdNm":"세종시","sgguCdNm":"세종시","addr":"세종특별자치시 보듬3로 158, 아름메디컬센터 4층 401~405호 (아름동)","phone":"044-715-7520","hospUrl":"","estbDd":"20220816","drTotCnt":1,"mdeptSdrCnt":1,"lat":36.5123,"lng":127.24221},{"id":"b02c3315675c","name":"세종정신건강의학과의원","clCd":"31","clCdNm":"의원","sidoCd":"410000","sidoCdNm":"세종시","sgguCdNm":"세종시","addr":"세종특별자치시 한누리대로 350, 뱅크빌딩 4층 404호 (어진동)","phone":"070-5029-1449","hospUrl":"","estbDd":"20240308","drTotCnt":1,"mdeptSdrCnt":1,"lat":36.49542,"lng":127.25723},{"id":"dee0c1d60696","name":"세종제이피부과의원","clCd":"31","clCdNm":"의원","sidoCd":"410000","sidoCdNm":"세종시","sgguCdNm":"세종시","addr":"세종특별자치시 보듬3로 92, 해피라움2 403,404,405호 (아름동)","phone":"044-865-1675","hospUrl":"","estbDd":"20151120","drTotCnt":1,"mdeptSdrCnt":1,"lat":36.51191,"lng":127.24947},{"id":"feba88af19f0","name":"세종제일산부인과의원","clCd":"31","clCdNm":"의원","sidoCd":"410000","sidoCdNm":"세종시","sgguCdNm":"세종시","addr":"세종특별자치시 한누리대로 2265, 세종메디컬센터 5층, 6층층 (대평동)","phone":"044-866-3582","hospUrl":"","estbDd":"20180518","drTotCnt":1,"mdeptSdrCnt":1,"lat":36.4721,"lng":127.27719},{"id":"269d5304fdef","name":"세종조은내과의원","clCd":"31","clCdNm":"의원","sidoCd":"410000","sidoCdNm":"세종시","sgguCdNm":"세종시","addr":"세종특별자치시 한누리대로 1828, 시드니블루 401호,402호 (반곡동)","phone":"044-715-7570","hospUrl":"","estbDd":"20210115","drTotCnt":1,"mdeptSdrCnt":1,"lat":36.49805,"lng":127.31174},{"id":"d21214b98128","name":"세종코아이비인후과의원","clCd":"31","clCdNm":"의원","sidoCd":"410000","sidoCdNm":"세종시","sgguCdNm":"세종시","addr":"세종특별자치시 마음로 272-4, 고운메디프라자 201호 (고운동)","phone":"044-868-7585","hospUrl":"","estbDd":"20200608","drTotCnt":1,"mdeptSdrCnt":1,"lat":36.51959,"lng":127.23534},{"id":"1e2b2d55a87c","name":"세종탑재활의학과의원","clCd":"31","clCdNm":"의원","sidoCd":"410000","sidoCdNm":"세종시","sgguCdNm":"세종시","addr":"세종특별자치시 한누리대로 2018, 사이언스타운 501호, 506~508호호 (소담동)","phone":"044-864-1620","hospUrl":"","estbDd":"20200123","drTotCnt":1,"mdeptSdrCnt":1,"lat":36.48474,"lng":127.29936},{"id":"9323ee0d424a","name":"세종톡스앤필의원","clCd":"31","clCdNm":"의원","sidoCd":"410000","sidoCdNm":"세종시","sgguCdNm":"세종시","addr":"세종특별자치시 한누리대로 253, 에스빌딩 501호 (나성동)","phone":"044-414-9200","hospUrl":"","estbDd":"20220627","drTotCnt":1,"mdeptSdrCnt":"","lat":36.48681,"lng":127.25723},{"id":"a7427c39e6d7","name":"세종퍼스트피부과의원","clCd":"31","clCdNm":"의원","sidoCd":"410000","sidoCdNm":"세종시","sgguCdNm":"세종시","addr":"세종특별자치시 달빛로 59, 호만빌딩 601~603호 (종촌동)","phone":"044-864-9969","hospUrl":"","estbDd":"20150520","drTotCnt":2,"mdeptSdrCnt":2,"lat":36.50424,"lng":127.24976},{"id":"d5b55b7218fe","name":"세종프라우메디산부인과의원","clCd":"31","clCdNm":"의원","sidoCd":"410000","sidoCdNm":"세종시","sgguCdNm":"세종시","addr":"세종특별자치시 한누리대로 165, (나성동, 세종메디피아6,7층)","phone":"044-716-1000","hospUrl":"","estbDd":"20140206","drTotCnt":1,"mdeptSdrCnt":1,"lat":36.47994,"lng":127.26204},{"id":"6fef2fab178c","name":"세종항도외과의원","clCd":"31","clCdNm":"의원","sidoCd":"410000","sidoCdNm":"세종시","sgguCdNm":"세종시","addr":"세종특별자치시 한누리대로 253, 503호 (나성동, 에스빌딩)","phone":"044-867-4475","hospUrl":"","estbDd":"20160329","drTotCnt":1,"mdeptSdrCnt":1,"lat":36.48681,"lng":127.25723},{"id":"1b1bb34f8161","name":"센텀비뇨기과의원","clCd":"31","clCdNm":"의원","sidoCd":"410000","sidoCdNm":"세종시","sgguCdNm":"세종시","addr":"세종특별자치시 한누리대로 2149, 엔젤타워 404호~407호 (보람동)","phone":"044-867-6553","hospUrl":"","estbDd":"20210311","drTotCnt":1,"mdeptSdrCnt":1,"lat":36.47781,"lng":127.28785},{"id":"08358418a2e7","name":"소담내과의원","clCd":"31","clCdNm":"의원","sidoCd":"410000","sidoCdNm":"세종시","sgguCdNm":"세종시","addr":"세종특별자치시 한누리대로 2016, 302~309호 (소담동, 타임빌딩)","phone":"044-863-4100","hospUrl":"","estbDd":"20170522","drTotCnt":2,"mdeptSdrCnt":2,"lat":36.48504,"lng":127.29964},{"id":"d6819f5cd0d5","name":"소담에스정형외과의원","clCd":"31","clCdNm":"의원","sidoCd":"410000","sidoCdNm":"세종시","sgguCdNm":"세종시","addr":"세종특별자치시 한누리대로 2022, 아이콤스타타워 301,302,303,308호 (소담동)","phone":"044-867-8400","hospUrl":"","estbDd":"20221205","drTotCnt":1,"mdeptSdrCnt":1,"lat":36.48449,"lng":127.29916},{"id":"2bb91687d4de","name":"소담튼튼소아청소년과의원","clCd":"31","clCdNm":"의원","sidoCd":"410000","sidoCdNm":"세종시","sgguCdNm":"세종시","addr":"세종특별자치시 한누리대로 2016, 404호,405호 (소담동, 타임빌딩)","phone":"044-868-8276","hospUrl":"","estbDd":"20170907","drTotCnt":1,"mdeptSdrCnt":1,"lat":36.48504,"lng":127.29964},{"id":"b2b589159ca1","name":"소리숨이비인후과의원","clCd":"31","clCdNm":"의원","sidoCd":"410000","sidoCdNm":"세종시","sgguCdNm":"세종시","addr":"세종특별자치시 나성로 96, 더센트럴 421호 (나성동)","phone":"044-868-1177","hospUrl":"","estbDd":"20170322","drTotCnt":1,"mdeptSdrCnt":1,"lat":36.48788,"lng":127.261},{"id":"6128557749fc","name":"소망안과의원","clCd":"31","clCdNm":"의원","sidoCd":"410000","sidoCdNm":"세종시","sgguCdNm":"세종시","addr":"세종특별자치시 한누리대로 2018, 사이언스타운 307,308호 (소담동)","phone":"044-868-8224","hospUrl":"","estbDd":"20180503","drTotCnt":1,"mdeptSdrCnt":1,"lat":36.48474,"lng":127.29936},{"id":"4e2221eeefae","name":"소신내과의원","clCd":"31","clCdNm":"의원","sidoCd":"410000","sidoCdNm":"세종시","sgguCdNm":"세종시","addr":"세종특별자치시 한누리대로 589, 해피라움7 304,305-1,305-2,305-3,702-1,702-2호(도담동) (도담동)","phone":"044-862-8875","hospUrl":"","estbDd":"20190311","drTotCnt":2,"mdeptSdrCnt":2,"lat":36.51593,"lng":127.25845},{"id":"53866d2dc5ad","name":"손근형소아청소년과의원","clCd":"31","clCdNm":"의원","sidoCd":"410000","sidoCdNm":"세종시","sgguCdNm":"세종시","addr":"세종특별자치시 나성북로 30, 퍼스트원 632,633,634,635호 (나성동)","phone":"044-715-5975","hospUrl":"","estbDd":"20230306","drTotCnt":1,"mdeptSdrCnt":1,"lat":36.48907,"lng":127.26025},{"id":"682c58e2e17e","name":"송창헌내과의원","clCd":"31","clCdNm":"의원","sidoCd":"410000","sidoCdNm":"세종시","sgguCdNm":"세종시","addr":"세종특별자치시 한누리대로 275, 형성프라자 405,406,407호 (나성동)","phone":"044-866-0966","hospUrl":"","estbDd":"20220826","drTotCnt":1,"mdeptSdrCnt":1,"lat":36.48881,"lng":127.25638},{"id":"1437414f76b7","name":"수앤미의원","clCd":"31","clCdNm":"의원","sidoCd":"410000","sidoCdNm":"세종시","sgguCdNm":"세종시","addr":"세종특별자치시 한누리대로 583, 도담센트럴프라자 4층 401,402호 (도담동)","phone":"044-865-1174","hospUrl":"","estbDd":"20190819","drTotCnt":1,"mdeptSdrCnt":"","lat":36.5153,"lng":127.25846},{"id":"42176f387fda","name":"스마트정신건강의학과의원","clCd":"31","clCdNm":"의원","sidoCd":"410000","sidoCdNm":"세종시","sgguCdNm":"세종시","addr":"세종특별자치시 절재로 194, 504호 (어진동, 세종드림)","phone":"044-862-7392","hospUrl":"","estbDd":"20150908","drTotCnt":1,"mdeptSdrCnt":1,"lat":36.50823,"lng":127.26246},{"id":"6aff8b42e018","name":"신화비뇨기과의원","clCd":"31","clCdNm":"의원","sidoCd":"410000","sidoCdNm":"세종시","sgguCdNm":"세종시","addr":"세종특별자치시 조치원읍 조치원1길 6, 6","phone":"044-865-9999","hospUrl":"","estbDd":"20030701","drTotCnt":1,"mdeptSdrCnt":1,"lat":36.60143,"lng":127.29751},{"id":"71b07df29bdd","name":"싱긋삼성이비인후과의원","clCd":"31","clCdNm":"의원","sidoCd":"410000","sidoCdNm":"세종시","sgguCdNm":"세종시","addr":"세종특별자치시 다정중앙로 52, 페스티발2 507,508,509호 (다정동)","phone":"044-998-9274","hospUrl":"","estbDd":"20240115","drTotCnt":1,"mdeptSdrCnt":1,"lat":36.49518,"lng":127.24926},{"id":"3044a5b9702b","name":"씨엘비뇨기과의원","clCd":"31","clCdNm":"의원","sidoCd":"410000","sidoCdNm":"세종시","sgguCdNm":"세종시","addr":"세종특별자치시 도움3로 105-5, 603.604호 (종촌동, 종촌중앙프라자)","phone":"044-865-0052","hospUrl":"","estbDd":"20141208","drTotCnt":1,"mdeptSdrCnt":1,"lat":36.50476,"lng":127.24954},{"id":"c1396d8a2fdc","name":"아름누리소아청소년과의원","clCd":"31","clCdNm":"의원","sidoCd":"410000","sidoCdNm":"세종시","sgguCdNm":"세종시","addr":"세종특별자치시 한누리대로 2022, 아이콤스타타워 402,403호 (소담동)","phone":"044-865-7522","hospUrl":"","estbDd":"20180312","drTotCnt":1,"mdeptSdrCnt":1,"lat":36.48449,"lng":127.29916},{"id":"de67449ea43a","name":"아름튼튼정형외과의원","clCd":"31","clCdNm":"의원","sidoCd":"410000","sidoCdNm":"세종시","sgguCdNm":"세종시","addr":"세종특별자치시 보듬3로 92, 해피라움2 3층 301,302,315호 (아름동)","phone":"044-715-5375","hospUrl":"","estbDd":"20230622","drTotCnt":1,"mdeptSdrCnt":1,"lat":36.51191,"lng":127.24947},{"id":"9f53c909a5e4","name":"아이닉안과의원","clCd":"31","clCdNm":"의원","sidoCd":"410000","sidoCdNm":"세종시","sgguCdNm":"세종시","addr":"세종특별자치시 절재로 194, 403,404호 (어진동, 세종드림)","phone":"044-868-1288","hospUrl":"","estbDd":"20150907","drTotCnt":2,"mdeptSdrCnt":2,"lat":36.50823,"lng":127.26246},{"id":"be3071e10e7a","name":"양규준산부인과의원","clCd":"31","clCdNm":"의원","sidoCd":"410000","sidoCdNm":"세종시","sgguCdNm":"세종시","addr":"세종특별자치시 조치원읍 새내로 96, 96","phone":"044-862-8811","hospUrl":"","estbDd":"19990422","drTotCnt":1,"mdeptSdrCnt":1,"lat":36.60042,"lng":127.29846},{"id":"5cb5ba57e2cb","name":"에스지연합의원","clCd":"31","clCdNm":"의원","sidoCd":"410000","sidoCdNm":"세종시","sgguCdNm":"세종시","addr":"세종특별자치시 갈매로 58, 황산프라자 5층 501~511호 (대평동)","phone":"044-864-9991","hospUrl":"","estbDd":"20230912","drTotCnt":1,"mdeptSdrCnt":1,"lat":36.47105,"lng":127.27546},{"id":"e78c321bf1e2","name":"여러분소통내과의원","clCd":"31","clCdNm":"의원","sidoCd":"410000","sidoCdNm":"세종시","sgguCdNm":"세종시","addr":"세종특별자치시 조치원읍 새내로 88-1, 3층","phone":"044-868-7588","hospUrl":"","estbDd":"20130315","drTotCnt":1,"mdeptSdrCnt":1,"lat":36.59973,"lng":127.29865},{"id":"972d387fd726","name":"연세가정의학과의원","clCd":"31","clCdNm":"의원","sidoCd":"410000","sidoCdNm":"세종시","sgguCdNm":"세종시","addr":"세종특별자치시 조치원읍 대첩로 17, 17","phone":"044-863-8275","hospUrl":"","estbDd":"20070514","drTotCnt":1,"mdeptSdrCnt":1,"lat":36.59534,"lng":127.2942},{"id":"88383498b9f4","name":"연세나무 정신건강의학과의원","clCd":"31","clCdNm":"의원","sidoCd":"410000","sidoCdNm":"세종시","sgguCdNm":"세종시","addr":"세종특별자치시 나성북로 30, 퍼스트원 533,534,535,547,548,549호 (나성동)","phone":"044-865-5272","hospUrl":"","estbDd":"20230213","drTotCnt":1,"mdeptSdrCnt":1,"lat":36.48907,"lng":127.26025},{"id":"4b39c4c822cf","name":"연세더아름의원","clCd":"31","clCdNm":"의원","sidoCd":"410000","sidoCdNm":"세종시","sgguCdNm":"세종시","addr":"세종특별자치시 보듬3로 101, 2층 203,204,205호 (아름동)","phone":"044-715-7911","hospUrl":"","estbDd":"20230501","drTotCnt":1,"mdeptSdrCnt":1,"lat":36.5114,"lng":127.24841},{"id":"d014bf8c3dd2","name":"연세미니성형외과의원","clCd":"31","clCdNm":"의원","sidoCd":"410000","sidoCdNm":"세종시","sgguCdNm":"세종시","addr":"세종특별자치시 한누리대로 273, 새롬씨티 502호, 503호 (나성동)","phone":"044-867-3655","hospUrl":"","estbDd":"20210601","drTotCnt":1,"mdeptSdrCnt":1,"lat":36.48848,"lng":127.25648},{"id":"80485b8c63b5","name":"연세신경외과의원","clCd":"31","clCdNm":"의원","sidoCd":"410000","sidoCdNm":"세종시","sgguCdNm":"세종시","addr":"세종특별자치시 조치원읍 새내로 75, 75","phone":"044-865-2116","hospUrl":"","estbDd":"20000720","drTotCnt":2,"mdeptSdrCnt":2,"lat":36.59854,"lng":127.29843},{"id":"b0b18926c662","name":"연세정담정신건강의학과의원","clCd":"31","clCdNm":"의원","sidoCd":"410000","sidoCdNm":"세종시","sgguCdNm":"세종시","addr":"세종특별자치시 한누리대로 499, 세종포스트빌딩 201-3,301호 (어진동)","phone":"044-866-3824","hospUrl":"","estbDd":"20180201","drTotCnt":1,"mdeptSdrCnt":1,"lat":36.50808,"lng":127.26112},{"id":"2d75c8b355fb","name":"연세하트내과의원","clCd":"31","clCdNm":"의원","sidoCd":"410000","sidoCdNm":"세종시","sgguCdNm":"세종시","addr":"세종특별자치시 새롬중앙로 59, 새롬빌딩 5층 502,503호 (새롬동)","phone":"044-715-7580","hospUrl":"","estbDd":"20231010","drTotCnt":1,"mdeptSdrCnt":1,"lat":36.48607,"lng":127.25032},{"id":"00cd55933120","name":"열린이비인후과의원","clCd":"31","clCdNm":"의원","sidoCd":"410000","sidoCdNm":"세종시","sgguCdNm":"세종시","addr":"세종특별자치시 다정중앙로 45, 다정프라자 303호 (다정동)","phone":"044-867-7550","hospUrl":"","estbDd":"20170228","drTotCnt":1,"mdeptSdrCnt":1,"lat":36.49444,"lng":127.2486},{"id":"ef69d8502ca7","name":"오라클피부과의원","clCd":"31","clCdNm":"의원","sidoCd":"410000","sidoCdNm":"세종시","sgguCdNm":"세종시","addr":"세종특별자치시 한누리대로 245, 404~405호 (나성동, 에스알파크원)","phone":"044-868-0075","hospUrl":"","estbDd":"20170518","drTotCnt":2,"mdeptSdrCnt":2,"lat":36.4861,"lng":127.25765},{"id":"69abf54267dc","name":"오케이마취통증의학과의원","clCd":"31","clCdNm":"의원","sidoCd":"410000","sidoCdNm":"세종시","sgguCdNm":"세종시","addr":"세종특별자치시 조치원읍 새내8길 7, 3~4층","phone":"044-867-7575","hospUrl":"","estbDd":"20220314","drTotCnt":2,"mdeptSdrCnt":2,"lat":36.59947,"lng":127.29887},{"id":"e86c35d9edd6","name":"올마취통증의학과의원","clCd":"31","clCdNm":"의원","sidoCd":"410000","sidoCdNm":"세종시","sgguCdNm":"세종시","addr":"세종특별자치시 도움3로 105-7, 403.404.405호 (종촌동, 메디케어)","phone":"044-863-0648","hospUrl":"","estbDd":"20160125","drTotCnt":1,"mdeptSdrCnt":1,"lat":36.50451,"lng":127.24965},{"id":"d8a34350de01","name":"우리들의원","clCd":"31","clCdNm":"의원","sidoCd":"410000","sidoCdNm":"세종시","sgguCdNm":"세종시","addr":"세종특별자치시 장군면 장척로 401, (장군면)","phone":"044-857-2345","hospUrl":"","estbDd":"19960318","drTotCnt":1,"mdeptSdrCnt":"","lat":36.49716,"lng":127.20519},{"id":"726a7fabb00f","name":"우리메디컬의원","clCd":"31","clCdNm":"의원","sidoCd":"410000","sidoCdNm":"세종시","sgguCdNm":"세종시","addr":"세종특별자치시 고운서길 19, 세종 스마트큐브Ⅰ 301~303,305~308호 (고운동)","phone":"044-868-5375","hospUrl":"http://www.wooridoctor.com","estbDd":"20200518","drTotCnt":2,"mdeptSdrCnt":1,"lat":36.50586,"lng":127.23399},{"id":"0758eb131d21","name":"우리연합의원","clCd":"31","clCdNm":"의원","sidoCd":"410000","sidoCdNm":"세종시","sgguCdNm":"세종시","addr":"세종특별자치시 남세종로 454, 404호 (보람동, 강남제일타워)","phone":"044-867-7803","hospUrl":"http://","estbDd":"20170717","drTotCnt":1,"mdeptSdrCnt":1,"lat":36.47725,"lng":127.28971},{"id":"0ab3e9dad94e","name":"우리이비인후과의원","clCd":"31","clCdNm":"의원","sidoCd":"410000","sidoCdNm":"세종시","sgguCdNm":"세종시","addr":"세종특별자치시 보듬3로 92, 409호 (아름동, 해피라움2상가)","phone":"044-865-8575","hospUrl":"","estbDd":"20141021","drTotCnt":1,"mdeptSdrCnt":1,"lat":36.51191,"lng":127.24947},{"id":"cfa6da90c807","name":"웰가정의학과의원","clCd":"31","clCdNm":"의원","sidoCd":"410000","sidoCdNm":"세종시","sgguCdNm":"세종시","addr":"세종특별자치시 조치원읍 도원2로 39, 3층","phone":"044-868-7507","hospUrl":"","estbDd":"20200731","drTotCnt":1,"mdeptSdrCnt":1,"lat":36.59273,"lng":127.28703},{"id":"a2b7024be52f","name":"웰에스테의원","clCd":"31","clCdNm":"의원","sidoCd":"410000","sidoCdNm":"세종시","sgguCdNm":"세종시","addr":"세종특별자치시 도움1로 106, 메가시티 409호 (종촌동)","phone":"044-863-8271","hospUrl":"http://www.medream.co.kr/","estbDd":"20170210","drTotCnt":1,"mdeptSdrCnt":"","lat":36.50282,"lng":127.24812},{"id":"c993fff40be9","name":"웰키즈소아청소년과의원","clCd":"31","clCdNm":"의원","sidoCd":"410000","sidoCdNm":"세종시","sgguCdNm":"세종시","addr":"세종특별자치시 보듬3로 95, 해피라움3 307,308,309-1,310-2,401~5,410,603~8,705~6호(아름동) (아름동)","phone":"044-868-4880","hospUrl":"","estbDd":"20150417","drTotCnt":8,"mdeptSdrCnt":8,"lat":36.51138,"lng":127.24891},{"id":"e253d0e92a69","name":"위대한내과의원","clCd":"31","clCdNm":"의원","sidoCd":"410000","sidoCdNm":"세종시","sgguCdNm":"세종시","addr":"세종특별자치시 절재로 194, 505호,506호 (어진동, 중앙타운)","phone":"044-865-3375","hospUrl":"","estbDd":"20150916","drTotCnt":1,"mdeptSdrCnt":1,"lat":36.50823,"lng":127.26246},{"id":"47474239b691","name":"위하는내과의원","clCd":"31","clCdNm":"의원","sidoCd":"410000","sidoCdNm":"세종시","sgguCdNm":"세종시","addr":"세종특별자치시 한누리대로 1844, 행복드림타워 3층 301호~306호 (반곡동)","phone":"044-715-5110","hospUrl":"","estbDd":"20221128","drTotCnt":2,"mdeptSdrCnt":2,"lat":36.49788,"lng":127.30994},{"id":"cddc0aaab3c2","name":"유경의원","clCd":"31","clCdNm":"의원","sidoCd":"410000","sidoCdNm":"세종시","sgguCdNm":"세종시","addr":"세종특별자치시 부강면 부강2길 14, (부강면)","phone":"044-275-2160","hospUrl":"","estbDd":"19950531","drTotCnt":1,"mdeptSdrCnt":"","lat":36.53017,"lng":127.36716},{"id":"3cc1e566474b","name":"유성연합의원","clCd":"31","clCdNm":"의원","sidoCd":"410000","sidoCdNm":"세종시","sgguCdNm":"세종시","addr":"세종특별자치시 조치원읍 새내로 132, (조치원읍)","phone":"044-868-6617","hospUrl":"","estbDd":"20190617","drTotCnt":1,"mdeptSdrCnt":"","lat":36.60366,"lng":127.29797},{"id":"cc124ea164c1","name":"유소아청소년과의원","clCd":"31","clCdNm":"의원","sidoCd":"410000","sidoCdNm":"세종시","sgguCdNm":"세종시","addr":"세종특별자치시 도움1로 108, 408.409호 (종촌동, 몰리브)","phone":"044-866-8025","hospUrl":"","estbDd":"20160315","drTotCnt":1,"mdeptSdrCnt":1,"lat":36.50264,"lng":127.24758},{"id":"ca4f907938b3","name":"유스앤영서울뷰의원","clCd":"31","clCdNm":"의원","sidoCd":"410000","sidoCdNm":"세종시","sgguCdNm":"세종시","addr":"세종특별자치시 나성로 96, 더센트럴 519호 (나성동)","phone":"044-715-5199","hospUrl":"","estbDd":"20220112","drTotCnt":2,"mdeptSdrCnt":1,"lat":36.48788,"lng":127.261},{"id":"2718c5c91f32","name":"유앤이내과의원","clCd":"31","clCdNm":"의원","sidoCd":"410000","sidoCdNm":"세종시","sgguCdNm":"세종시","addr":"세종특별자치시 도움3로 105-5, 501.502.503.507호 (종촌동, 종촌중앙프라자)","phone":"044-862-7511","hospUrl":"","estbDd":"20150427","drTotCnt":2,"mdeptSdrCnt":2,"lat":36.50476,"lng":127.24954},{"id":"c82977dcdb9c","name":"유웰비뇨의학과의원","clCd":"31","clCdNm":"의원","sidoCd":"410000","sidoCdNm":"세종시","sgguCdNm":"세종시","addr":"세종특별자치시 한누리대로 265, 명동프라자 501~504호 (나성동)","phone":"044-865-1190","hospUrl":"","estbDd":"20201202","drTotCnt":4,"mdeptSdrCnt":4,"lat":36.48782,"lng":127.25674},{"id":"f9d0cf00f6f7","name":"윤빛소아청소년과의원","clCd":"31","clCdNm":"의원","sidoCd":"410000","sidoCdNm":"세종시","sgguCdNm":"세종시","addr":"세종특별자치시 해밀3로 43, 스카이드림 303호 (해밀동)","phone":"044-865-8124","hospUrl":"","estbDd":"20230118","drTotCnt":1,"mdeptSdrCnt":1,"lat":36.52858,"lng":127.26449},{"id":"ba7eba212c11","name":"이내과의원","clCd":"31","clCdNm":"의원","sidoCd":"410000","sidoCdNm":"세종시","sgguCdNm":"세종시","addr":"세종특별자치시 조치원읍 조치원로 31, 31","phone":"044-865-3571","hospUrl":"www.imdrlee.co.kr/","estbDd":"19861128","drTotCnt":1,"mdeptSdrCnt":1,"lat":36.60169,"lng":127.30012},{"id":"8a0df77bb27e","name":"이도내과의원","clCd":"31","clCdNm":"의원","sidoCd":"410000","sidoCdNm":"세종시","sgguCdNm":"세종시","addr":"세종특별자치시 한누리대로 2143, 금강시티타워 403~404호 (보람동)","phone":"044-905-2500","hospUrl":"","estbDd":"20200724","drTotCnt":1,"mdeptSdrCnt":1,"lat":36.47806,"lng":127.28843},{"id":"a4cedc47352a","name":"이삭소아청소년과의원","clCd":"31","clCdNm":"의원","sidoCd":"410000","sidoCdNm":"세종시","sgguCdNm":"세종시","addr":"세종특별자치시 한누리대로 169, 세종행복타워 301,307,401호 (나성동)","phone":"044-865-8275","hospUrl":"","estbDd":"20140402","drTotCnt":3,"mdeptSdrCnt":3,"lat":36.48023,"lng":127.26182},{"id":"056e3f8f01b9","name":"이안과의원","clCd":"31","clCdNm":"의원","sidoCd":"410000","sidoCdNm":"세종시","sgguCdNm":"세종시","addr":"세종특별자치시 조치원읍 새내로 98, 98","phone":"044-866-7863","hospUrl":"","estbDd":"19980126","drTotCnt":1,"mdeptSdrCnt":1,"lat":36.60057,"lng":127.2986},{"id":"34ba3e2852bc","name":"이안정신건강의학과의원","clCd":"31","clCdNm":"의원","sidoCd":"410000","sidoCdNm":"세종시","sgguCdNm":"세종시","addr":"세종특별자치시 한누리대로 273, 새롬씨티 307,402,706,707호 (나성동)","phone":"044-999-1102","hospUrl":"","estbDd":"20170719","drTotCnt":1,"mdeptSdrCnt":1,"lat":36.48848,"lng":127.25648},{"id":"487cc1740502","name":"이유경내과의원","clCd":"31","clCdNm":"의원","sidoCd":"410000","sidoCdNm":"세종시","sgguCdNm":"세종시","addr":"세종특별자치시 한누리대로 2265, 세종메디컬센터 304~306호, 505호 (대평동)","phone":"044-868-0261","hospUrl":"","estbDd":"20170418","drTotCnt":2,"mdeptSdrCnt":1,"lat":36.4721,"lng":127.27719},{"id":"889a7988d933","name":"이은경소아청소년과의원","clCd":"31","clCdNm":"의원","sidoCd":"410000","sidoCdNm":"세종시","sgguCdNm":"세종시","addr":"세종특별자치시 조치원읍 새내로 77, (조치원읍)","phone":"044-868-3414","hospUrl":"","estbDd":"20070529","drTotCnt":1,"mdeptSdrCnt":1,"lat":36.59866,"lng":127.29841},{"id":"ea4e7842e02d","name":"잇츠미의원","clCd":"31","clCdNm":"의원","sidoCd":"410000","sidoCdNm":"세종시","sgguCdNm":"세종시","addr":"세종특별자치시 한누리대로 253, 에스빌딩 302~304호 (나성동)","phone":"044-867-1108","hospUrl":"","estbDd":"20190111","drTotCnt":3,"mdeptSdrCnt":"","lat":36.48681,"lng":127.25723},{"id":"03e86a360e95","name":"장동석내과의원","clCd":"31","clCdNm":"의원","sidoCd":"410000","sidoCdNm":"세종시","sgguCdNm":"세종시","addr":"세종특별자치시 조치원읍 새내로 122, 메가박스 3층 306,307,308,309,310,311,312호","phone":"044-868-8841","hospUrl":"","estbDd":"20110307","drTotCnt":2,"mdeptSdrCnt":2,"lat":36.60287,"lng":127.29815},{"id":"7d1b790dcd68","name":"장현진정형외과의원","clCd":"31","clCdNm":"의원","sidoCd":"410000","sidoCdNm":"세종시","sgguCdNm":"세종시","addr":"세종특별자치시 조치원읍 조치원로 62, 62","phone":"044-863-1150","hospUrl":"","estbDd":"19950508","drTotCnt":1,"mdeptSdrCnt":1,"lat":36.60228,"lng":127.3034},{"id":"c7e7c6971fc2","name":"전의의원","clCd":"31","clCdNm":"의원","sidoCd":"410000","sidoCdNm":"세종시","sgguCdNm":"세종시","addr":"세종특별자치시 전의면 읍내길 13, 13","phone":"044-863-2828","hospUrl":"","estbDd":"19740712","drTotCnt":1,"mdeptSdrCnt":"","lat":36.68052,"lng":127.20421},{"id":"43d0612bcdfd","name":"정마취통증의학과의원","clCd":"31","clCdNm":"의원","sidoCd":"410000","sidoCdNm":"세종시","sgguCdNm":"세종시","addr":"세종특별자치시 한누리대로 2016, 타임빌딩 401호,402호 (소담동)","phone":"044-905-3300","hospUrl":"","estbDd":"20171220","drTotCnt":1,"mdeptSdrCnt":1,"lat":36.48504,"lng":127.29964},{"id":"dae0acf162a3","name":"정부세종청사 중앙동 부속의원","clCd":"31","clCdNm":"의원","sidoCd":"410000","sidoCdNm":"세종시","sgguCdNm":"세종시","addr":"세종특별자치시 도움6로 42, 정부세종청사 중앙동 2층 일부호 (어진동)","phone":"044-200-3871","hospUrl":"","estbDd":"20141211","drTotCnt":1,"mdeptSdrCnt":1,"lat":36.50251,"lng":127.26534},{"id":"674f9f772f06","name":"정비뇨기과의원","clCd":"31","clCdNm":"의원","sidoCd":"410000","sidoCdNm":"세종시","sgguCdNm":"세종시","addr":"세종특별자치시 조치원읍 새내로 97, 4층 402호","phone":"044-867-5350","hospUrl":"http://","estbDd":"19950828","drTotCnt":1,"mdeptSdrCnt":1,"lat":36.6004,"lng":127.29804},{"id":"5580688ad501","name":"정석이비인후과의원","clCd":"31","clCdNm":"의원","sidoCd":"410000","sidoCdNm":"세종시","sgguCdNm":"세종시","addr":"세종특별자치시 조치원읍 새내로 97, 조치원메디컬센터 502호","phone":"044-715-7579","hospUrl":"","estbDd":"20190814","drTotCnt":1,"mdeptSdrCnt":1,"lat":36.6004,"lng":127.29804},{"id":"0aedd44a3827","name":"제일마취통증의학과의원","clCd":"31","clCdNm":"의원","sidoCd":"410000","sidoCdNm":"세종시","sgguCdNm":"세종시","addr":"세종특별자치시 절재로 194, 604호 (어진동, 세종드림)","phone":"044-862-0008","hospUrl":"","estbDd":"20150813","drTotCnt":1,"mdeptSdrCnt":1,"lat":36.50823,"lng":127.26246},{"id":"67fe54f8dc99","name":"제일신경과의원","clCd":"31","clCdNm":"의원","sidoCd":"410000","sidoCdNm":"세종시","sgguCdNm":"세종시","addr":"세종특별자치시 조치원읍 새내로 88-1, 2층","phone":"044-862-8275","hospUrl":"","estbDd":"19990401","drTotCnt":1,"mdeptSdrCnt":1,"lat":36.59973,"lng":127.29865},{"id":"7a8becae20b6","name":"제일연합내과의원","clCd":"31","clCdNm":"의원","sidoCd":"410000","sidoCdNm":"세종시","sgguCdNm":"세종시","addr":"세종특별자치시 새롬중앙로 62-15, 401호,402(일부)호 (새롬동, 해피라움W)","phone":"044-715-5501","hospUrl":"","estbDd":"20170810","drTotCnt":2,"mdeptSdrCnt":2,"lat":36.48693,"lng":127.25125},{"id":"0637b419ecd4","name":"종촌제일연합내과의원","clCd":"31","clCdNm":"의원","sidoCd":"410000","sidoCdNm":"세종시","sgguCdNm":"세종시","addr":"세종특별자치시 도움1로 106, 메가시티 610,615-1호 (종촌동)","phone":"044-715-7511","hospUrl":"","estbDd":"20200402","drTotCnt":1,"mdeptSdrCnt":1,"lat":36.50282,"lng":127.24812},{"id":"aac6b23e9cd9","name":"좋은하루이비인후과의원","clCd":"31","clCdNm":"의원","sidoCd":"410000","sidoCdNm":"세종시","sgguCdNm":"세종시","addr":"세종특별자치시 보듬4로 9, 3층 6,7호 (도담동, 도램마을11단지)","phone":"044-998-7582","hospUrl":"","estbDd":"20141222","drTotCnt":1,"mdeptSdrCnt":1,"lat":36.51388,"lng":127.26001},{"id":"354a7e6afd09","name":"중앙소아청소년과의원","clCd":"31","clCdNm":"의원","sidoCd":"410000","sidoCdNm":"세종시","sgguCdNm":"세종시","addr":"세종특별자치시 한누리대로 2257, 판타지타워 404, 405호 (대평동)","phone":"044-715-7475","hospUrl":"","estbDd":"20230313","drTotCnt":1,"mdeptSdrCnt":1,"lat":36.47262,"lng":127.278},{"id":"a81e17656823","name":"중앙외과의원","clCd":"31","clCdNm":"의원","sidoCd":"410000","sidoCdNm":"세종시","sgguCdNm":"세종시","addr":"세종특별자치시 조치원읍 새내4길 3, 3","phone":"044-867-0001","hospUrl":"","estbDd":"19950227","drTotCnt":1,"mdeptSdrCnt":1,"lat":36.59743,"lng":127.29924},{"id":"e41b617c76b1","name":"중앙의원","clCd":"31","clCdNm":"의원","sidoCd":"410000","sidoCdNm":"세종시","sgguCdNm":"세종시","addr":"세종특별자치시 전의면 읍내길 20, (전의면)","phone":"044-862-4408","hospUrl":"","estbDd":"19980611","drTotCnt":1,"mdeptSdrCnt":1,"lat":36.6811,"lng":127.20444},{"id":"4feab6e140a3","name":"지에프정형외과의원","clCd":"31","clCdNm":"의원","sidoCd":"410000","sidoCdNm":"세종시","sgguCdNm":"세종시","addr":"세종특별자치시 달빛로 43, 3층 (종촌동, 금강빌딩)","phone":"044-868-7506","hospUrl":"","estbDd":"20140409","drTotCnt":2,"mdeptSdrCnt":2,"lat":36.50272,"lng":127.25003},{"id":"70625774e528","name":"참좋은서울아산내과의원","clCd":"31","clCdNm":"의원","sidoCd":"410000","sidoCdNm":"세종시","sgguCdNm":"세종시","addr":"세종특별자치시 다정중앙로 58, 다정메디프라자 5층 502~505호 (다정동)","phone":"044-866-5900","hospUrl":"","estbDd":"20190311","drTotCnt":1,"mdeptSdrCnt":1,"lat":36.49562,"lng":127.24923},{"id":"534a8711ab49","name":"청담와이즈의원","clCd":"31","clCdNm":"의원","sidoCd":"410000","sidoCdNm":"세종시","sgguCdNm":"세종시","addr":"세종특별자치시 한누리대로 499, 청암빌딩 403호 (어진동)","phone":"044-868-7575","hospUrl":"","estbDd":"20240730","drTotCnt":1,"mdeptSdrCnt":"","lat":36.50808,"lng":127.26112},{"id":"939707271a78","name":"최훈내과의원","clCd":"31","clCdNm":"의원","sidoCd":"410000","sidoCdNm":"세종시","sgguCdNm":"세종시","addr":"세종특별자치시 보듬3로 91, 303.304호 (아름동, 해피라움4)","phone":"044-865-5575","hospUrl":"","estbDd":"20151102","drTotCnt":1,"mdeptSdrCnt":1,"lat":36.51135,"lng":127.24959},{"id":"d4f19ba95905","name":"코끼리마취통증의학과의원","clCd":"31","clCdNm":"의원","sidoCd":"410000","sidoCdNm":"세종시","sgguCdNm":"세종시","addr":"세종특별자치시 보듬3로 150, 아름 행복타워 502호 (아름동)","phone":"044-862-7505","hospUrl":"","estbDd":"20180711","drTotCnt":2,"mdeptSdrCnt":2,"lat":36.51226,"lng":127.24301},{"id":"f16283ef6e8f","name":"코끼리소아청소년과의원","clCd":"31","clCdNm":"의원","sidoCd":"410000","sidoCdNm":"세종시","sgguCdNm":"세종시","addr":"세종특별자치시 한누리대로 2012, 코끼리타워 401호,402호 (소담동)","phone":"044-867-8867","hospUrl":"","estbDd":"20180104","drTotCnt":1,"mdeptSdrCnt":1,"lat":36.48531,"lng":127.29985},{"id":"176e60b24380","name":"코난소아청소년과의원","clCd":"31","clCdNm":"의원","sidoCd":"410000","sidoCdNm":"세종시","sgguCdNm":"세종시","addr":"세종특별자치시 남세종로 73, 1층 109,110호 (집현동)","phone":"044-715-7551","hospUrl":"","estbDd":"20230503","drTotCnt":1,"mdeptSdrCnt":1,"lat":36.49198,"lng":127.32566},{"id":"ea8f045d269e","name":"코알이비인후과의원","clCd":"31","clCdNm":"의원","sidoCd":"410000","sidoCdNm":"세종시","sgguCdNm":"세종시","addr":"세종특별자치시 한누리대로 2018, 사이언스타운 4층 403~406호 (소담동)","phone":"044-865-3650","hospUrl":"","estbDd":"20170306","drTotCnt":2,"mdeptSdrCnt":2,"lat":36.48474,"lng":127.29936},{"id":"7a3180f9e62a","name":"크로바내과의원","clCd":"31","clCdNm":"의원","sidoCd":"410000","sidoCdNm":"세종시","sgguCdNm":"세종시","addr":"세종특별자치시 한누리대로 253, 606~607호 (나성동, 에스빌딩)","phone":"044-863-7975","hospUrl":"","estbDd":"20140818","drTotCnt":1,"mdeptSdrCnt":1,"lat":36.48681,"lng":127.25723},{"id":"d01faaf59e10","name":"크리미의원","clCd":"31","clCdNm":"의원","sidoCd":"410000","sidoCdNm":"세종시","sgguCdNm":"세종시","addr":"세종특별자치시 다정중앙로 46, 2층 (다정동)","phone":"044-715-7750","hospUrl":"","estbDd":"20210514","drTotCnt":1,"mdeptSdrCnt":1,"lat":36.49447,"lng":127.24931},{"id":"6343a5872700","name":"클레르피부과의원","clCd":"31","clCdNm":"의원","sidoCd":"410000","sidoCdNm":"세종시","sgguCdNm":"세종시","addr":"세종특별자치시 한누리대로 1820, 왕관빌딩 401,402,403-1호 (반곡동)","phone":"044-715-5910","hospUrl":"","estbDd":"20220519","drTotCnt":1,"mdeptSdrCnt":1,"lat":36.49814,"lng":127.31271},{"id":"6601bdbd69a3","name":"킹세종 이비인후과의원","clCd":"31","clCdNm":"의원","sidoCd":"410000","sidoCdNm":"세종시","sgguCdNm":"세종시","addr":"세종특별자치시 한누리대로 492, 청암빌딩 303,304호 (어진동)","phone":"044-868-1443","hospUrl":"www.kingsejongorlhns.com","estbDd":"20140702","drTotCnt":1,"mdeptSdrCnt":1,"lat":36.50739,"lng":127.26229},{"id":"47842c6df001","name":"퍼스트아이소아청소년과의원","clCd":"31","clCdNm":"의원","sidoCd":"410000","sidoCdNm":"세종시","sgguCdNm":"세종시","addr":"세종특별자치시 갈매로 740, 201~207호 (해밀동)","phone":"044-905-1110","hospUrl":"","estbDd":"20250225","drTotCnt":2,"mdeptSdrCnt":2,"lat":36.52614,"lng":127.2718},{"id":"21c2abc83204","name":"핑크유외과의원","clCd":"31","clCdNm":"의원","sidoCd":"410000","sidoCdNm":"세종시","sgguCdNm":"세종시","addr":"세종특별자치시 한누리대로 492, 청암홈빌딩 501~504호 (어진동)","phone":"044-417-6688","hospUrl":"","estbDd":"20190307","drTotCnt":2,"mdeptSdrCnt":2,"lat":36.50739,"lng":127.26229},{"id":"f30279f9e496","name":"하나로내과의원","clCd":"31","clCdNm":"의원","sidoCd":"410000","sidoCdNm":"세종시","sgguCdNm":"세종시","addr":"세종특별자치시 조치원읍 새내로 102, 1,2층","phone":"044-862-5900","hospUrl":"","estbDd":"20180220","drTotCnt":1,"mdeptSdrCnt":1,"lat":36.60096,"lng":127.29842},{"id":"959f044f0e84","name":"하나의원","clCd":"31","clCdNm":"의원","sidoCd":"410000","sidoCdNm":"세종시","sgguCdNm":"세종시","addr":"세종특별자치시 조치원읍 조치원로 42, 1층","phone":"044-864-7612","hospUrl":"","estbDd":"20070228","drTotCnt":1,"mdeptSdrCnt":"","lat":36.60148,"lng":127.3015},{"id":"c5549d8bad83","name":"하늘소아청소년과의원","clCd":"31","clCdNm":"의원","sidoCd":"410000","sidoCdNm":"세종시","sgguCdNm":"세종시","addr":"세종특별자치시 한누리대로 1820, 왕관빌딩 302,306-1,306-2,307,314-2,315호 (반곡동)","phone":"044-867-5151","hospUrl":"","estbDd":"20210217","drTotCnt":1,"mdeptSdrCnt":1,"lat":36.49814,"lng":127.31271},{"id":"e6359708ced5","name":"한마음의원","clCd":"31","clCdNm":"의원","sidoCd":"410000","sidoCdNm":"세종시","sgguCdNm":"세종시","addr":"세종특별자치시 부강면 부강4길 10, (부강면)","phone":"044-277-6446","hospUrl":"","estbDd":"19990531","drTotCnt":1,"mdeptSdrCnt":"","lat":36.52897,"lng":127.36754},{"id":"5303d4e76b73","name":"한사랑메디칼의원","clCd":"31","clCdNm":"의원","sidoCd":"410000","sidoCdNm":"세종시","sgguCdNm":"세종시","addr":"세종특별자치시 누리로 106, 302호 (한솔동, 송원프라자)","phone":"044-866-7580","hospUrl":"","estbDd":"20140218","drTotCnt":1,"mdeptSdrCnt":1,"lat":36.47985,"lng":127.25263},{"id":"d3cde19540ef","name":"한사랑산부인과의원","clCd":"31","clCdNm":"의원","sidoCd":"410000","sidoCdNm":"세종시","sgguCdNm":"세종시","addr":"세종특별자치시 조치원읍 새내로 122, (세종시네마 1동 301호, 302호, 303호, 304호,305호)","phone":"044-867-8433","hospUrl":"","estbDd":"20000424","drTotCnt":1,"mdeptSdrCnt":1,"lat":36.60287,"lng":127.29815},{"id":"051e048a04f7","name":"한사랑의원","clCd":"31","clCdNm":"의원","sidoCd":"410000","sidoCdNm":"세종시","sgguCdNm":"세종시","addr":"세종특별자치시 도움1로 106, 메가시티 501,505,506,507호 (종촌동)","phone":"044-867-3569","hospUrl":"","estbDd":"20160426","drTotCnt":1,"mdeptSdrCnt":1,"lat":36.50282,"lng":127.24812},{"id":"7c453aa409ce","name":"해밀바른정형외과의원","clCd":"31","clCdNm":"의원","sidoCd":"410000","sidoCdNm":"세종시","sgguCdNm":"세종시","addr":"세종특별자치시 해밀3로 51, 스카이허브 7층 701호~703호 (해밀동)","phone":"044-715-5755","hospUrl":"","estbDd":"20250515","drTotCnt":1,"mdeptSdrCnt":1,"lat":36.5291,"lng":127.26502},{"id":"1cdec823dc79","name":"허브연합내과의원","clCd":"31","clCdNm":"의원","sidoCd":"410000","sidoCdNm":"세종시","sgguCdNm":"세종시","addr":"세종특별자치시 해밀3로 51, 스카이허브 303,304호 (해밀동)","phone":"044-715-7588","hospUrl":"","estbDd":"20211130","drTotCnt":2,"mdeptSdrCnt":2,"lat":36.5291,"lng":127.26502},{"id":"bb4f13a50de5","name":"현대정형외과의원","clCd":"31","clCdNm":"의원","sidoCd":"410000","sidoCdNm":"세종시","sgguCdNm":"세종시","addr":"세종특별자치시 조치원읍 새내로 63, 2층","phone":"044-862-5161","hospUrl":"","estbDd":"20160929","drTotCnt":1,"mdeptSdrCnt":1,"lat":36.59769,"lng":127.29856},{"id":"13e14482f5c7","name":"홍은표외과의원","clCd":"31","clCdNm":"의원","sidoCd":"410000","sidoCdNm":"세종시","sgguCdNm":"세종시","addr":"세종특별자치시 조치원읍 새내로 122, 메가박스 210~212호","phone":"044-863-7502","hospUrl":"","estbDd":"20051026","drTotCnt":1,"mdeptSdrCnt":1,"lat":36.60287,"lng":127.29815},{"id":"eb38d9ced46b","name":"화인마취통증의학과의원","clCd":"31","clCdNm":"의원","sidoCd":"410000","sidoCdNm":"세종시","sgguCdNm":"세종시","addr":"세종특별자치시 한누리대로 249, 에스제이타워 508,509호 (나성동)","phone":"044-715-5875","hospUrl":"","estbDd":"20231019","drTotCnt":1,"mdeptSdrCnt":1,"lat":36.48644,"lng":127.25744},{"id":"406b713e5ec0","name":"힘내라신경외과의원","clCd":"31","clCdNm":"의원","sidoCd":"410000","sidoCdNm":"세종시","sgguCdNm":"세종시","addr":"세종특별자치시 새롬중앙로 67, 503호,504호,505호,506호 (새롬동, 오렌지빌딩)","phone":"044-417-6881","hospUrl":"","estbDd":"20170809","drTotCnt":1,"mdeptSdrCnt":1,"lat":36.48689,"lng":127.25023},{"id":"133c90388aa0","name":"단국대학교 치과대학 세종치과병원","clCd":"41","clCdNm":"치과병원","sidoCd":"410000","sidoCdNm":"세종시","sgguCdNm":"세종시","addr":"세종특별자치시 도움8로 87, 단국빌딩 1(일부), 3층 (어진동)","phone":"044-410-5000","hospUrl":"","estbDd":"20170822","drTotCnt":12,"mdeptSdrCnt":"","lat":36.50441,"lng":127.27115},{"id":"d099299e20a5","name":"강남세종치과의원","clCd":"51","clCdNm":"치과의원","sidoCd":"410000","sidoCdNm":"세종시","sgguCdNm":"세종시","addr":"세종특별자치시 마음로 264, 고운프라자 2층 205호 (고운동)","phone":"044-864-8111","hospUrl":"","estbDd":"20230829","drTotCnt":1,"mdeptSdrCnt":"","lat":36.51932,"lng":127.23469},{"id":"d0a95bab46e2","name":"강남치과의원","clCd":"51","clCdNm":"치과의원","sidoCd":"410000","sidoCdNm":"세종시","sgguCdNm":"세종시","addr":"세종특별자치시  금남면 용포로 63, 2층","phone":"044-867-7528","hospUrl":"","estbDd":"20140922","drTotCnt":1,"mdeptSdrCnt":"","lat":36.46439,"lng":127.28059},{"id":"9532bd5e4e28","name":"금동치과의원","clCd":"51","clCdNm":"치과의원","sidoCd":"410000","sidoCdNm":"세종시","sgguCdNm":"세종시","addr":"세종특별자치시 새롬중앙로 62-15, 505호 (새롬동, 해피라움W)","phone":"044-866-9037","hospUrl":"","estbDd":"20170807","drTotCnt":1,"mdeptSdrCnt":"","lat":36.48693,"lng":127.25125},{"id":"56aca5be7030","name":"김만주정성치과의원","clCd":"51","clCdNm":"치과의원","sidoCd":"410000","sidoCdNm":"세종시","sgguCdNm":"세종시","addr":"세종특별자치시 소담1로 16, 지엘플렉스2 404호 (소담동)","phone":"044-865-2080","hospUrl":"","estbDd":"20180423","drTotCnt":1,"mdeptSdrCnt":"","lat":36.48458,"lng":127.30111},{"id":"889ca2eeb1ff","name":"김진용치과의원","clCd":"51","clCdNm":"치과의원","sidoCd":"410000","sidoCdNm":"세종시","sgguCdNm":"세종시","addr":"세종특별자치시 조치원읍 조치원로 22, 22","phone":"041-866-9281","hospUrl":"","estbDd":"19960523","drTotCnt":1,"mdeptSdrCnt":"","lat":36.6012,"lng":127.29913},{"id":"8173d8847c48","name":"누가치과의원","clCd":"51","clCdNm":"치과의원","sidoCd":"410000","sidoCdNm":"세종시","sgguCdNm":"세종시","addr":"세종특별자치시 조치원읍 새내로 88-1, 4층","phone":"041-864-2872","hospUrl":"","estbDd":"20040130","drTotCnt":2,"mdeptSdrCnt":"","lat":36.59973,"lng":127.29865},{"id":"37ac6021eb08","name":"누리마루치과의원","clCd":"51","clCdNm":"치과의원","sidoCd":"410000","sidoCdNm":"세종시","sgguCdNm":"세종시","addr":"세종특별자치시 도움8로 81, A동 301호 (어진동)","phone":"044-865-2275","hospUrl":"","estbDd":"20140120","drTotCnt":1,"mdeptSdrCnt":"","lat":36.50469,"lng":127.27085},{"id":"768a8cf1f186","name":"다인치과의원","clCd":"51","clCdNm":"치과의원","sidoCd":"410000","sidoCdNm":"세종시","sgguCdNm":"세종시","addr":"세종특별자치시 조치원읍 새내9길 3, 2,3층","phone":"044-868-7527","hospUrl":"","estbDd":"20070316","drTotCnt":3,"mdeptSdrCnt":"","lat":36.60018,"lng":127.29811},{"id":"189da8fe331b","name":"당신의치과의원","clCd":"51","clCdNm":"치과의원","sidoCd":"410000","sidoCdNm":"세종시","sgguCdNm":"세종시","addr":"세종특별자치시 해밀3로 51, 스카이허브 404,405호 (해밀동)","phone":"044-862-0028","hospUrl":"","estbDd":"20211203","drTotCnt":2,"mdeptSdrCnt":"","lat":36.5291,"lng":127.26502},{"id":"04283d9c05e8","name":"더플랜트치과의원","clCd":"51","clCdNm":"치과의원","sidoCd":"410000","sidoCdNm":"세종시","sgguCdNm":"세종시","addr":"세종특별자치시 아름서1길 13-12, 403,404호 (아름동, 제이디빌딩)","phone":"044-998-2875","hospUrl":"","estbDd":"20160825","drTotCnt":1,"mdeptSdrCnt":"","lat":36.51165,"lng":127.24324},{"id":"a618fb3644bf","name":"덴탈365치과의원","clCd":"51","clCdNm":"치과의원","sidoCd":"410000","sidoCdNm":"세종시","sgguCdNm":"세종시","addr":"세종특별자치시 한누리대로 1958, 법조타운A 3층 301~310호 (소담동)","phone":"1661-3275","hospUrl":"","estbDd":"20210805","drTotCnt":1,"mdeptSdrCnt":"","lat":36.48949,"lng":127.30224},{"id":"304e04ed2fd9","name":"도담민들레치과의원","clCd":"51","clCdNm":"치과의원","sidoCd":"410000","sidoCdNm":"세종시","sgguCdNm":"세종시","addr":"세종특별자치시 보듬3로 8-27, 403-1호 (도담동, 새한빌딩)","phone":"044-865-0102","hospUrl":"","estbDd":"20160122","drTotCnt":1,"mdeptSdrCnt":"","lat":36.51469,"lng":127.25782},{"id":"c09955565d4a","name":"도치소아치과의원","clCd":"51","clCdNm":"치과의원","sidoCd":"410000","sidoCdNm":"세종시","sgguCdNm":"세종시","addr":"세종특별자치시 다정중앙로 51, 더다정빌딩 505호 (다정동)","phone":"044-865-5200","hospUrl":"","estbDd":"20180312","drTotCnt":1,"mdeptSdrCnt":"","lat":36.495,"lng":127.24856},{"id":"b83c2774e9e4","name":"독일브라운치과의원","clCd":"51","clCdNm":"치과의원","sidoCd":"410000","sidoCdNm":"세종시","sgguCdNm":"세종시","addr":"세종특별자치시 마음로 272-3, 고운에듀프라자 303,304호 (고운동)","phone":"044-865-2929","hospUrl":"","estbDd":"20190514","drTotCnt":1,"mdeptSdrCnt":"","lat":36.51973,"lng":127.23585},{"id":"8401fd37625a","name":"두치과의원","clCd":"51","clCdNm":"치과의원","sidoCd":"410000","sidoCdNm":"세종시","sgguCdNm":"세종시","addr":"세종특별자치시 달빛로 59, 402.403.404호 (종촌동, 호만빌딩)","phone":"044-868-2877","hospUrl":"","estbDd":"20141106","drTotCnt":2,"mdeptSdrCnt":"","lat":36.50424,"lng":127.24976},{"id":"18b9468f4ff4","name":"디어트치과의원","clCd":"51","clCdNm":"치과의원","sidoCd":"410000","sidoCdNm":"세종시","sgguCdNm":"세종시","addr":"세종특별자치시 한누리대로 2275, 알파메디컬센터 303~306호 (대평동)","phone":"1522-1998","hospUrl":"","estbDd":"20201005","drTotCnt":1,"mdeptSdrCnt":"","lat":36.47155,"lng":127.27639},{"id":"30ba53e0eea7","name":"마음편한치과의원","clCd":"51","clCdNm":"치과의원","sidoCd":"410000","sidoCdNm":"세종시","sgguCdNm":"세종시","addr":"세종특별자치시 남세종로 458, 아리랑빌딩 303호 (보람동)","phone":"044-867-2804","hospUrl":"","estbDd":"20211123","drTotCnt":1,"mdeptSdrCnt":"","lat":36.47705,"lng":127.28922},{"id":"c0b8901b2af7","name":"맘애든치과의원","clCd":"51","clCdNm":"치과의원","sidoCd":"410000","sidoCdNm":"세종시","sgguCdNm":"세종시","addr":"세종특별자치시 도움3로 105-8, 501.502호 (종촌동, 신목빌딩)","phone":"044-862-2874","hospUrl":"","estbDd":"20141216","drTotCnt":1,"mdeptSdrCnt":"","lat":36.50431,"lng":127.24922},{"id":"ff3ecc1f0ec4","name":"모드니치과의원","clCd":"51","clCdNm":"치과의원","sidoCd":"410000","sidoCdNm":"세종시","sgguCdNm":"세종시","addr":"세종특별자치시 금송로 687, 3층 (가람동, 이마트세종점)","phone":"044-864-2876","hospUrl":"","estbDd":"20150129","drTotCnt":1,"mdeptSdrCnt":"","lat":36.47091,"lng":127.25095},{"id":"c40bcbc1b921","name":"문치과의원","clCd":"51","clCdNm":"치과의원","sidoCd":"410000","sidoCdNm":"세종시","sgguCdNm":"세종시","addr":"세종특별자치시 조치원읍 대첩로 75, 75","phone":"044-862-2875","hospUrl":"","estbDd":"20081017","drTotCnt":1,"mdeptSdrCnt":"","lat":36.5947,"lng":127.28791},{"id":"d8ca50072692","name":"바른명치과의원","clCd":"51","clCdNm":"치과의원","sidoCd":"410000","sidoCdNm":"세종시","sgguCdNm":"세종시","addr":"세종특별자치시 한누리대로 583, 도담센트럴프라자 302,303,304,504,505호 (도담동)","phone":"044-864-2824","hospUrl":"","estbDd":"20141226","drTotCnt":2,"mdeptSdrCnt":"","lat":36.5153,"lng":127.25846},{"id":"3581cc27d5d8","name":"바른뿌리치과의원","clCd":"51","clCdNm":"치과의원","sidoCd":"410000","sidoCdNm":"세종시","sgguCdNm":"세종시","addr":"세종특별자치시 조치원읍 새내8길 7, 2층","phone":"044-868-2804","hospUrl":"","estbDd":"20201230","drTotCnt":1,"mdeptSdrCnt":"","lat":36.59947,"lng":127.29887},{"id":"415fd6342f41","name":"바른우리치과교정과치과의원","clCd":"51","clCdNm":"치과의원","sidoCd":"410000","sidoCdNm":"세종시","sgguCdNm":"세종시","addr":"세종특별자치시 새롬중앙로 64, 301~302호 (새롬동, 세종영광프라자)","phone":"044-998-2080","hospUrl":"","estbDd":"20170601","drTotCnt":1,"mdeptSdrCnt":"","lat":36.48665,"lng":127.25098},{"id":"7e7d4e8a8483","name":"바른치과의원","clCd":"51","clCdNm":"치과의원","sidoCd":"410000","sidoCdNm":"세종시","sgguCdNm":"세종시","addr":"세종특별자치시 한누리대로 253, 에스빌딩 502호 (나성동)","phone":"044-868-2882","hospUrl":"","estbDd":"20200219","drTotCnt":1,"mdeptSdrCnt":"","lat":36.48681,"lng":127.25723},{"id":"3ff70a38f185","name":"박종석치과의원","clCd":"51","clCdNm":"치과의원","sidoCd":"410000","sidoCdNm":"세종시","sgguCdNm":"세종시","addr":"세종특별자치시 조치원읍 장안로 1, (조치원읍)","phone":"044-862-4500","hospUrl":"","estbDd":"19881124","drTotCnt":1,"mdeptSdrCnt":"","lat":36.60143,"lng":127.30136},{"id":"1a0f192393f2","name":"백룡치과의원","clCd":"51","clCdNm":"치과의원","sidoCd":"410000","sidoCdNm":"세종시","sgguCdNm":"세종시","addr":"세종특별자치시 금남면 채나무길 71, (금남면)","phone":"042-829-6171","hospUrl":"","estbDd":"20240328","drTotCnt":1,"mdeptSdrCnt":"","lat":36.42622,"lng":127.26894},{"id":"8b0aad45f998","name":"보성치과의원","clCd":"51","clCdNm":"치과의원","sidoCd":"410000","sidoCdNm":"세종시","sgguCdNm":"세종시","addr":"세종특별자치시 조치원읍 조치원2길 5, 5","phone":"044-865-8879","hospUrl":"","estbDd":"20040813","drTotCnt":1,"mdeptSdrCnt":"","lat":36.60102,"lng":127.29759},{"id":"f873faca74d1","name":"부강부부치과의원","clCd":"51","clCdNm":"치과의원","sidoCd":"410000","sidoCdNm":"세종시","sgguCdNm":"세종시","addr":"세종특별자치시 부강면 부촌길 39, 1층","phone":"044-275-2855","hospUrl":"","estbDd":"20120404","drTotCnt":1,"mdeptSdrCnt":"","lat":36.52966,"lng":127.36672},{"id":"d4749aa98ccd","name":"부강수플란트치과의원","clCd":"51","clCdNm":"치과의원","sidoCd":"410000","sidoCdNm":"세종시","sgguCdNm":"세종시","addr":"세종특별자치시 부강면 부촌길 29, (부강면)","phone":"044-275-5585","hospUrl":"","estbDd":"20080526","drTotCnt":1,"mdeptSdrCnt":"","lat":36.52893,"lng":127.36729},{"id":"4ed3cefe9607","name":"부부치과의원","clCd":"51","clCdNm":"치과의원","sidoCd":"410000","sidoCdNm":"세종시","sgguCdNm":"세종시","addr":"세종특별자치시 조치원읍 도원2로 39, 2층","phone":"044-868-2275","hospUrl":"","estbDd":"20081121","drTotCnt":1,"mdeptSdrCnt":"","lat":36.59273,"lng":127.28703},{"id":"6373bffd7916","name":"빛을보는치과의원","clCd":"51","clCdNm":"치과의원","sidoCd":"410000","sidoCdNm":"세종시","sgguCdNm":"세종시","addr":"세종특별자치시 절재로 194, 중앙타운 401,402,405호 (어진동)","phone":"044-867-1575","hospUrl":"","estbDd":"20150811","drTotCnt":3,"mdeptSdrCnt":"","lat":36.50823,"lng":127.26246},{"id":"a03e770b9ba2","name":"삼성온가족치과의원","clCd":"51","clCdNm":"치과의원","sidoCd":"410000","sidoCdNm":"세종시","sgguCdNm":"세종시","addr":"세종특별자치시 도움1로 106, 510호 (종촌동, 메가시티)","phone":"044-865-2843","hospUrl":"","estbDd":"20160323","drTotCnt":2,"mdeptSdrCnt":"","lat":36.50282,"lng":127.24812},{"id":"f29cc99ca224","name":"새롬숲치과의원","clCd":"51","clCdNm":"치과의원","sidoCd":"410000","sidoCdNm":"세종시","sgguCdNm":"세종시","addr":"세종특별자치시 새롬중앙로 34, 311호 (새롬동, 크리스마스빌딩)","phone":"044-999-2577","hospUrl":"http://saeromforest.modoo.at","estbDd":"20170705","drTotCnt":1,"mdeptSdrCnt":"","lat":36.48459,"lng":127.25249},{"id":"b46b22dbe78e","name":"새서울치과의원","clCd":"51","clCdNm":"치과의원","sidoCd":"410000","sidoCdNm":"세종시","sgguCdNm":"세종시","addr":"세종특별자치시 금남면 용포로 113, 113","phone":"044-866-2875","hospUrl":"","estbDd":"19990112","drTotCnt":1,"mdeptSdrCnt":"","lat":36.46836,"lng":127.28119},{"id":"df34273d9f90","name":"새온치과의원","clCd":"51","clCdNm":"치과의원","sidoCd":"410000","sidoCdNm":"세종시","sgguCdNm":"세종시","addr":"세종특별자치시 새롬중앙로 67, 304호 (새롬동, 오렌지빌딩)","phone":"044-867-2842","hospUrl":"","estbDd":"20170809","drTotCnt":1,"mdeptSdrCnt":"","lat":36.48689,"lng":127.25023},{"id":"9d8d6283323e","name":"서울굿모닝치과의원","clCd":"51","clCdNm":"치과의원","sidoCd":"410000","sidoCdNm":"세종시","sgguCdNm":"세종시","addr":"세종특별자치시 도움3로 105-5, 505.506호 (종촌동, 종촌중앙프라자)","phone":"044-865-2833","hospUrl":"","estbDd":"20140402","drTotCnt":1,"mdeptSdrCnt":"","lat":36.50476,"lng":127.24954},{"id":"01569c24da15","name":"서울바른이치과의원","clCd":"51","clCdNm":"치과의원","sidoCd":"410000","sidoCdNm":"세종시","sgguCdNm":"세종시","addr":"세종특별자치시 다정중앙로 39, 다정센터프라자2 504호 (다정동)","phone":"044-863-2282","hospUrl":"","estbDd":"20150413","drTotCnt":1,"mdeptSdrCnt":"","lat":36.49401,"lng":127.24867},{"id":"0b545e8d877c","name":"서울소담치과의원","clCd":"51","clCdNm":"치과의원","sidoCd":"410000","sidoCdNm":"세종시","sgguCdNm":"세종시","addr":"세종특별자치시 한누리대로 2018, 304~305호 (소담동, 사이언스타운)","phone":"044-865-2811","hospUrl":"","estbDd":"20170317","drTotCnt":2,"mdeptSdrCnt":"","lat":36.48474,"lng":127.29936},{"id":"5802e8769581","name":"서울온가족치과의원","clCd":"51","clCdNm":"치과의원","sidoCd":"410000","sidoCdNm":"세종시","sgguCdNm":"세종시","addr":"세종특별자치시 한누리대로 1844, 404,405,406호 (반곡동)","phone":"044-862-2275","hospUrl":"","estbDd":"20240226","drTotCnt":1,"mdeptSdrCnt":"","lat":36.49788,"lng":127.30994},{"id":"17d04099167a","name":"서울이사랑치과의원","clCd":"51","clCdNm":"치과의원","sidoCd":"410000","sidoCdNm":"세종시","sgguCdNm":"세종시","addr":"세종특별자치시 조치원읍 세종로 2282, 502호, 503호, 504호","phone":"044-864-2840","hospUrl":"","estbDd":"20190620","drTotCnt":2,"mdeptSdrCnt":"","lat":36.59106,"lng":127.29211},{"id":"fb5bfc1f0d6e","name":"서울좋은치과의원","clCd":"51","clCdNm":"치과의원","sidoCd":"410000","sidoCdNm":"세종시","sgguCdNm":"세종시","addr":"세종특별자치시 한누리대로 193, 301호 (나성동, 참미르빌딩)","phone":"044-862-7528","hospUrl":"","estbDd":"20140312","drTotCnt":1,"mdeptSdrCnt":"","lat":36.48207,"lng":127.26051},{"id":"c3b6254dc639","name":"서울치과의원","clCd":"51","clCdNm":"치과의원","sidoCd":"410000","sidoCdNm":"세종시","sgguCdNm":"세종시","addr":"세종특별자치시 조치원읍 새내로 91, 1.2.3층","phone":"044-867-2875","hospUrl":"","estbDd":"19980608","drTotCnt":2,"mdeptSdrCnt":"","lat":36.59998,"lng":127.29801},{"id":"2d9cadf21993","name":"성원치과의원","clCd":"51","clCdNm":"치과의원","sidoCd":"410000","sidoCdNm":"세종시","sgguCdNm":"세종시","addr":"세종특별자치시 절재로 194, 408.409호 (어진동, 세종드림)","phone":"044-868-6091","hospUrl":"","estbDd":"20150805","drTotCnt":1,"mdeptSdrCnt":"","lat":36.50823,"lng":127.26246},{"id":"0d859fd5b9db","name":"세움치과의원","clCd":"51","clCdNm":"치과의원","sidoCd":"410000","sidoCdNm":"세종시","sgguCdNm":"세종시","addr":"세종특별자치시 보듬3로 92, 310호 (아름동, 해피라움2상가)","phone":"044-862-2755","hospUrl":"","estbDd":"20141002","drTotCnt":1,"mdeptSdrCnt":"","lat":36.51191,"lng":127.24947},{"id":"4c196a125dcb","name":"세종365치과의원","clCd":"51","clCdNm":"치과의원","sidoCd":"410000","sidoCdNm":"세종시","sgguCdNm":"세종시","addr":"세종특별자치시 한누리대로 245, 에스알파크원 402,403호 (나성동)","phone":"044-715-5365","hospUrl":"","estbDd":"20211012","drTotCnt":1,"mdeptSdrCnt":"","lat":36.4861,"lng":127.25765},{"id":"288aff3215bd","name":"세종금남치과의원","clCd":"51","clCdNm":"치과의원","sidoCd":"410000","sidoCdNm":"세종시","sgguCdNm":"세종시","addr":"세종특별자치시 금남면 용포로 80, 2층","phone":"044-863-5275","hospUrl":"","estbDd":"20151229","drTotCnt":1,"mdeptSdrCnt":"","lat":36.46576,"lng":127.28149},{"id":"971d146c7250","name":"세종꾸러기소아치과의원","clCd":"51","clCdNm":"치과의원","sidoCd":"410000","sidoCdNm":"세종시","sgguCdNm":"세종시","addr":"세종특별자치시 한누리대로 2012, 코끼리타워 301,302,303호 (소담동)","phone":"044-417-6991","hospUrl":"","estbDd":"20220414","drTotCnt":2,"mdeptSdrCnt":"","lat":36.48531,"lng":127.29985},{"id":"32d6492e41b5","name":"세종드림치과의원","clCd":"51","clCdNm":"치과의원","sidoCd":"410000","sidoCdNm":"세종시","sgguCdNm":"세종시","addr":"세종특별자치시 한누리대로 2143, 금강시티타워 405,406호 (보람동)","phone":"044-868-2815","hospUrl":"","estbDd":"20200114","drTotCnt":1,"mdeptSdrCnt":"","lat":36.47806,"lng":127.28843},{"id":"6631a513ff17","name":"세종미소치과의원","clCd":"51","clCdNm":"치과의원","sidoCd":"410000","sidoCdNm":"세종시","sgguCdNm":"세종시","addr":"세종특별자치시  한누리대로 2135, 302,303,301호 (보람동, 스타힐타워1) (보람동)","phone":"044-864-4936","hospUrl":"","estbDd":"20160408","drTotCnt":1,"mdeptSdrCnt":"","lat":36.47835,"lng":127.2891},{"id":"68f7e0ce0a16","name":"세종베스트치과의원","clCd":"51","clCdNm":"치과의원","sidoCd":"410000","sidoCdNm":"세종시","sgguCdNm":"세종시","addr":"세종특별자치시 보듬3로 92, 407.408호 (아름동, 해피라움2상가)","phone":"044-865-7528","hospUrl":"","estbDd":"20140922","drTotCnt":2,"mdeptSdrCnt":"","lat":36.51191,"lng":127.24947},{"id":"53cc9a1ca0f3","name":"세종보람치과의원","clCd":"51","clCdNm":"치과의원","sidoCd":"410000","sidoCdNm":"세종시","sgguCdNm":"세종시","addr":"세종특별자치시 남세종로 466, 403호 (보람동, 아평빌딩)","phone":"044-863-7522","hospUrl":"","estbDd":"20170215","drTotCnt":1,"mdeptSdrCnt":"","lat":36.4767,"lng":127.28844},{"id":"93cf95e5d31b","name":"세종서울치과의원","clCd":"51","clCdNm":"치과의원","sidoCd":"410000","sidoCdNm":"세종시","sgguCdNm":"세종시","addr":"세종특별자치시 도움3로 105-7, 501호 (종촌동, 메디케어빌딩)","phone":"044-863-7528","hospUrl":"","estbDd":"20141024","drTotCnt":1,"mdeptSdrCnt":"","lat":36.50451,"lng":127.24965},{"id":"92b4613a4727","name":"세종스타치과의원","clCd":"51","clCdNm":"치과의원","sidoCd":"410000","sidoCdNm":"세종시","sgguCdNm":"세종시","addr":"세종특별자치시 나성로 125-16, 7~8층 (나성동, 스타타워)","phone":"044-905-2222","hospUrl":"","estbDd":"20170630","drTotCnt":8,"mdeptSdrCnt":"","lat":36.4901,"lng":127.25776},{"id":"685cf720b9eb","name":"세종어린이치과의원","clCd":"51","clCdNm":"치과의원","sidoCd":"410000","sidoCdNm":"세종시","sgguCdNm":"세종시","addr":"세종특별자치시 만남로3길 7, G층 /지하 1층 (고운동)","phone":"044-865-7502","hospUrl":"","estbDd":"20150217","drTotCnt":1,"mdeptSdrCnt":"","lat":36.50032,"lng":127.23588},{"id":"ca8d46f18ef0","name":"세종치과의원","clCd":"51","clCdNm":"치과의원","sidoCd":"410000","sidoCdNm":"세종시","sgguCdNm":"세종시","addr":"세종특별자치시 전의면 만세길 5, 2층","phone":"044-862-7035","hospUrl":"","estbDd":"20130424","drTotCnt":1,"mdeptSdrCnt":"","lat":36.67906,"lng":127.2039},{"id":"4c5284f8f2e0","name":"세종탑치과의원","clCd":"51","clCdNm":"치과의원","sidoCd":"410000","sidoCdNm":"세종시","sgguCdNm":"세종시","addr":"세종특별자치시 새롬중앙로 59, 303호 (새롬동, 새롬빌딩)","phone":"044-715-7528","hospUrl":"","estbDd":"20170802","drTotCnt":1,"mdeptSdrCnt":"","lat":36.48607,"lng":127.25032},{"id":"ab50187b2426","name":"세종튼튼치과의원","clCd":"51","clCdNm":"치과의원","sidoCd":"410000","sidoCdNm":"세종시","sgguCdNm":"세종시","addr":"세종특별자치시 한누리대로 1824, 401,402호 (반곡동)","phone":"044-866-2007","hospUrl":"","estbDd":"20200629","drTotCnt":1,"mdeptSdrCnt":"","lat":36.49809,"lng":127.31213},{"id":"b28bbfcfdc01","name":"세종프라임치과의원","clCd":"51","clCdNm":"치과의원","sidoCd":"410000","sidoCdNm":"세종시","sgguCdNm":"세종시","addr":"세종특별자치시 한누리대로 499, 402호 (어진동, 세종미디어프라자)","phone":"044-868-3522","hospUrl":"","estbDd":"20160603","drTotCnt":2,"mdeptSdrCnt":"","lat":36.50808,"lng":127.26112},{"id":"aa386843fbe8","name":"세종플란트 치과의원","clCd":"51","clCdNm":"치과의원","sidoCd":"410000","sidoCdNm":"세종시","sgguCdNm":"세종시","addr":"세종특별자치시 한누리대로 157, (나성동, 금강프라자,304호)","phone":"044-868-2875","hospUrl":"","estbDd":"20131028","drTotCnt":1,"mdeptSdrCnt":"","lat":36.47931,"lng":127.2625},{"id":"36cbe2869d58","name":"세종하이치과의원","clCd":"51","clCdNm":"치과의원","sidoCd":"410000","sidoCdNm":"세종시","sgguCdNm":"세종시","addr":"세종특별자치시 한누리대로 1828, 시드니블루 403호,404호호 (반곡동)","phone":"044-862-7700","hospUrl":"http://hidentist.co.kr","estbDd":"20191106","drTotCnt":1,"mdeptSdrCnt":"","lat":36.49805,"lng":127.31174},{"id":"35996eeecb1c","name":"송태영치과의원","clCd":"51","clCdNm":"치과의원","sidoCd":"410000","sidoCdNm":"세종시","sgguCdNm":"세종시","addr":"세종특별자치시 조치원읍 조치원로 31-1, (조치원읍)","phone":"044-865-2821","hospUrl":"","estbDd":"19920728","drTotCnt":1,"mdeptSdrCnt":"","lat":36.60178,"lng":127.30021},{"id":"46c052b2818f","name":"수치과의원","clCd":"51","clCdNm":"치과의원","sidoCd":"410000","sidoCdNm":"세종시","sgguCdNm":"세종시","addr":"세종특별자치시 절재로 194, 508호 (어진동, 중앙타운)","phone":"044-864-5369","hospUrl":"","estbDd":"20160509","drTotCnt":1,"mdeptSdrCnt":"","lat":36.50823,"lng":127.26246},{"id":"059620d4cd12","name":"스마일치과의원","clCd":"51","clCdNm":"치과의원","sidoCd":"410000","sidoCdNm":"세종시","sgguCdNm":"세종시","addr":"세종특별자치시 마음로 74, 그랜드프라자 202,203호 (고운동)","phone":"044-863-8575","hospUrl":"","estbDd":"20151019","drTotCnt":1,"mdeptSdrCnt":"","lat":36.50531,"lng":127.23406},{"id":"2df04e61e715","name":"신 치과의원","clCd":"51","clCdNm":"치과의원","sidoCd":"410000","sidoCdNm":"세종시","sgguCdNm":"세종시","addr":"세종특별자치시 장군면 장척로 407, 2층","phone":"044-864-2827","hospUrl":"","estbDd":"20150421","drTotCnt":1,"mdeptSdrCnt":"","lat":36.49754,"lng":127.20574},{"id":"9bcfed3ecd6c","name":"심치과의원","clCd":"51","clCdNm":"치과의원","sidoCd":"410000","sidoCdNm":"세종시","sgguCdNm":"세종시","addr":"세종특별자치시 새롬중앙로 47, 405호 (새롬동, 세움빌딩)","phone":"044-862-2871","hospUrl":"","estbDd":"20170331","drTotCnt":1,"mdeptSdrCnt":"","lat":36.485,"lng":127.25079},{"id":"5157f5ab7f21","name":"아름치과의원","clCd":"51","clCdNm":"치과의원","sidoCd":"410000","sidoCdNm":"세종시","sgguCdNm":"세종시","addr":"세종특별자치시 보듬3로 92, 206.207호 (아름동, 해피라움2상가)","phone":"044-863-2833","hospUrl":"","estbDd":"20140818","drTotCnt":1,"mdeptSdrCnt":"","lat":36.51191,"lng":127.24947},{"id":"ea8a213f2f38","name":"안녕하유치과의원","clCd":"51","clCdNm":"치과의원","sidoCd":"410000","sidoCdNm":"세종시","sgguCdNm":"세종시","addr":"세종특별자치시 한누리대로 2149, 엔젤타워 3층 302, 303호 (보람동)","phone":"","hospUrl":"","estbDd":"20260120","drTotCnt":1,"mdeptSdrCnt":"","lat":36.47781,"lng":127.28785},{"id":"453abd77bad1","name":"앨리스치과의원","clCd":"51","clCdNm":"치과의원","sidoCd":"410000","sidoCdNm":"세종시","sgguCdNm":"세종시","addr":"세종특별자치시 한누리대로 265, 명동프라자 5층 (나성동)","phone":"044-417-1511","hospUrl":"","estbDd":"20210209","drTotCnt":1,"mdeptSdrCnt":"","lat":36.48782,"lng":127.25674},{"id":"c0a65eecc05a","name":"엔연세감동치과의원","clCd":"51","clCdNm":"치과의원","sidoCd":"410000","sidoCdNm":"세종시","sgguCdNm":"세종시","addr":"세종특별자치시 새롬중앙로 33, 새뜸프라자 303, 304호 (새롬동)","phone":"044-868-7523","hospUrl":"","estbDd":"20180316","drTotCnt":1,"mdeptSdrCnt":"","lat":36.48405,"lng":127.25184},{"id":"aeacaf52346e","name":"연세감동치과의원","clCd":"51","clCdNm":"치과의원","sidoCd":"410000","sidoCdNm":"세종시","sgguCdNm":"세종시","addr":"세종특별자치시 한누리대로 2022, 404호,405호 (소담동, 아크레타 아이콤스타타워)","phone":"044-868-7522","hospUrl":"","estbDd":"20170915","drTotCnt":1,"mdeptSdrCnt":"","lat":36.48449,"lng":127.29916},{"id":"62bd1d9a6bc7","name":"연세고마운치과의원","clCd":"51","clCdNm":"치과의원","sidoCd":"410000","sidoCdNm":"세종시","sgguCdNm":"세종시","addr":"세종특별자치시 한누리대로 249, 406~407호 (나성동, 에스제이타워)","phone":"044-866-2872","hospUrl":"","estbDd":"20170302","drTotCnt":1,"mdeptSdrCnt":"","lat":36.48644,"lng":127.25744},{"id":"033c9bb8ac89","name":"연세럭스치과의원","clCd":"51","clCdNm":"치과의원","sidoCd":"410000","sidoCdNm":"세종시","sgguCdNm":"세종시","addr":"세종특별자치시 보듬3로 100, 해피라움1 204,205호 (아름동)","phone":"044-864-2804","hospUrl":"","estbDd":"20151229","drTotCnt":1,"mdeptSdrCnt":"","lat":36.51195,"lng":127.24862},{"id":"181d3791be75","name":"연세세브란스치과의원","clCd":"51","clCdNm":"치과의원","sidoCd":"410000","sidoCdNm":"세종시","sgguCdNm":"세종시","addr":"세종특별자치시 다정중앙로 57, 다정센타프라자 305호 (다정동)","phone":"044-715-5000","hospUrl":"","estbDd":"20180208","drTotCnt":1,"mdeptSdrCnt":"","lat":36.49563,"lng":127.24851},{"id":"3afa695f2fc0","name":"연세올바른치과의원","clCd":"51","clCdNm":"치과의원","sidoCd":"410000","sidoCdNm":"세종시","sgguCdNm":"세종시","addr":"세종특별자치시 다정중앙로 58, 다정메디프라자 302,303호 (다정동)","phone":"044-862-2622","hospUrl":"","estbDd":"20180315","drTotCnt":3,"mdeptSdrCnt":"","lat":36.49562,"lng":127.24923},{"id":"e657ef636087","name":"연세크리스마스치과의원","clCd":"51","clCdNm":"치과의원","sidoCd":"410000","sidoCdNm":"세종시","sgguCdNm":"세종시","addr":"세종특별자치시 마음로 70, 302.303호 (고운동, 에셀프라자)","phone":"044-865-2075","hospUrl":"","estbDd":"20151023","drTotCnt":1,"mdeptSdrCnt":"","lat":36.50508,"lng":127.23437},{"id":"4af26a40433f","name":"연세탑치과의원","clCd":"51","clCdNm":"치과의원","sidoCd":"410000","sidoCdNm":"세종시","sgguCdNm":"세종시","addr":"세종특별자치시 조치원읍 조치원8길 6, 2층","phone":"044-863-2844","hospUrl":"","estbDd":"20180927","drTotCnt":1,"mdeptSdrCnt":"","lat":36.6012,"lng":127.30052},{"id":"98fafa2eea2b","name":"연세해밀치과의원","clCd":"51","clCdNm":"치과의원","sidoCd":"410000","sidoCdNm":"세종시","sgguCdNm":"세종시","addr":"세종특별자치시 해밀3로 43, 스카이드림 504호 (해밀동)","phone":"044-863-2879","hospUrl":"","estbDd":"20220114","drTotCnt":2,"mdeptSdrCnt":"","lat":36.52858,"lng":127.26449},{"id":"0e57b47ba44a","name":"우리치과의원","clCd":"51","clCdNm":"치과의원","sidoCd":"410000","sidoCdNm":"세종시","sgguCdNm":"세종시","addr":"세종특별자치시 도움3로 105-5, 402.403호 (종촌동, 종촌중앙프라자)","phone":"044-865-0231","hospUrl":"","estbDd":"20150107","drTotCnt":1,"mdeptSdrCnt":"","lat":36.50476,"lng":127.24954},{"id":"9dc6d075e3d9","name":"유디치과의원","clCd":"51","clCdNm":"치과의원","sidoCd":"410000","sidoCdNm":"세종시","sgguCdNm":"세종시","addr":"세종특별자치시 나성로 38, 세종가로수길 38, 세종가로수길 A301,A302a,A302,A303호 (나성동)","phone":"044-715-7188","hospUrl":"","estbDd":"20220519","drTotCnt":1,"mdeptSdrCnt":"","lat":36.48349,"lng":127.26376},{"id":"b7029e26e63f","name":"유앤성부부치과의원","clCd":"51","clCdNm":"치과의원","sidoCd":"410000","sidoCdNm":"세종시","sgguCdNm":"세종시","addr":"세종특별자치시 한누리대로 1820, 왕관빌딩 407~408호 (반곡동)","phone":"044-862-7522","hospUrl":"","estbDd":"20200525","drTotCnt":2,"mdeptSdrCnt":"","lat":36.49814,"lng":127.31271},{"id":"a61fe515c0ba","name":"윤치과의원","clCd":"51","clCdNm":"치과의원","sidoCd":"410000","sidoCdNm":"세종시","sgguCdNm":"세종시","addr":"세종특별자치시 조치원읍 조치원로 38, 38","phone":"041-8674-1112","hospUrl":"","estbDd":"19991118","drTotCnt":1,"mdeptSdrCnt":"","lat":36.60147,"lng":127.30098},{"id":"984d0cf1c2ca","name":"이도치과의원","clCd":"51","clCdNm":"치과의원","sidoCd":"410000","sidoCdNm":"세종시","sgguCdNm":"세종시","addr":"세종특별자치시 한누리대로 275, 형성프라자 501,502,503호 (나성동)","phone":"044-867-7525","hospUrl":"","estbDd":"20210929","drTotCnt":3,"mdeptSdrCnt":"","lat":36.48881,"lng":127.25638},{"id":"0e88e65603c0","name":"이병진치과의원","clCd":"51","clCdNm":"치과의원","sidoCd":"410000","sidoCdNm":"세종시","sgguCdNm":"세종시","addr":"세종특별자치시 조치원읍 조치원로 7, 3층","phone":"044-862-2812","hospUrl":"","estbDd":"20150923","drTotCnt":1,"mdeptSdrCnt":"","lat":36.60145,"lng":127.29762},{"id":"4ca74431029f","name":"이사랑치과의원","clCd":"51","clCdNm":"치과의원","sidoCd":"410000","sidoCdNm":"세종시","sgguCdNm":"세종시","addr":"세종특별자치시 한누리대로 2257, 판타지타워 203호 (대평동)","phone":"044-868-0037","hospUrl":"","estbDd":"20160503","drTotCnt":1,"mdeptSdrCnt":"","lat":36.47262,"lng":127.278},{"id":"1dd32b4796e3","name":"이종선치과의원","clCd":"51","clCdNm":"치과의원","sidoCd":"410000","sidoCdNm":"세종시","sgguCdNm":"세종시","addr":"세종특별자치시 조치원읍 조치원로 31, (조치원읍)","phone":"044-865-6352","hospUrl":"","estbDd":"19830326","drTotCnt":1,"mdeptSdrCnt":"","lat":36.60169,"lng":127.30012},{"id":"f4cfc1d12624","name":"이편한치과의원","clCd":"51","clCdNm":"치과의원","sidoCd":"410000","sidoCdNm":"세종시","sgguCdNm":"세종시","addr":"세종특별자치시 조치원읍 새내로 97, 4층 1호","phone":"044-864-2875","hospUrl":"","estbDd":"20010309","drTotCnt":1,"mdeptSdrCnt":"","lat":36.6004,"lng":127.29804},{"id":"1b6f1bb7a5a4","name":"이편한홍치과의원","clCd":"51","clCdNm":"치과의원","sidoCd":"410000","sidoCdNm":"세종시","sgguCdNm":"세종시","addr":"세종특별자치시 연서면 봉암길 8, (연서면)","phone":"044-862-2811","hospUrl":"","estbDd":"20190627","drTotCnt":1,"mdeptSdrCnt":"","lat":36.56211,"lng":127.2826},{"id":"6c46d57f515c","name":"전의부부치과의원","clCd":"51","clCdNm":"치과의원","sidoCd":"410000","sidoCdNm":"세종시","sgguCdNm":"세종시","addr":"세종특별자치시 전의면 운주산로 1191-5, 2층","phone":"044-862-2280","hospUrl":"http://gugi.yahoo.yescall.com/?id=628","estbDd":"20181018","drTotCnt":1,"mdeptSdrCnt":"","lat":36.67944,"lng":127.2046},{"id":"5ad8f20dd9c2","name":"제이와이치과의원","clCd":"51","clCdNm":"치과의원","sidoCd":"410000","sidoCdNm":"세종시","sgguCdNm":"세종시","addr":"세종특별자치시 새롬중앙로 64, 404호 (새롬동, 세종영광프라자)","phone":"044-867-5600","hospUrl":"","estbDd":"20170717","drTotCnt":1,"mdeptSdrCnt":"","lat":36.48665,"lng":127.25098},{"id":"004cb4ad10a9","name":"좋은하루 치과의원","clCd":"51","clCdNm":"치과의원","sidoCd":"410000","sidoCdNm":"세종시","sgguCdNm":"세종시","addr":"세종특별자치시 보듬4로 9, 3층 8,9호 (도담동, 도램마을11단지)","phone":"044-998-7599","hospUrl":"","estbDd":"20141222","drTotCnt":1,"mdeptSdrCnt":"","lat":36.51388,"lng":127.26001},{"id":"78ec58f5aa1e","name":"참좋아치과의원","clCd":"51","clCdNm":"치과의원","sidoCd":"410000","sidoCdNm":"세종시","sgguCdNm":"세종시","addr":"세종특별자치시 보듬3로 143, 304,305,306호 (아름동, 대영프라자)","phone":"044-864-8575","hospUrl":"","estbDd":"20161014","drTotCnt":2,"mdeptSdrCnt":"","lat":36.51163,"lng":127.24362},{"id":"3b48732a5fce","name":"첫마을치과의원","clCd":"51","clCdNm":"치과의원","sidoCd":"410000","sidoCdNm":"세종시","sgguCdNm":"세종시","addr":"세종특별자치시 한누리대로 165, 세종메디피아 302,303호 (나성동)","phone":"044-867-2275","hospUrl":"","estbDd":"20150617","drTotCnt":1,"mdeptSdrCnt":"","lat":36.47994,"lng":127.26204},{"id":"df73475389d3","name":"최진웅치과의원","clCd":"51","clCdNm":"치과의원","sidoCd":"410000","sidoCdNm":"세종시","sgguCdNm":"세종시","addr":"세종특별자치시 조치원읍 새내로 122, 메가박스(외 1필지 세종시네마 1동) 204호","phone":"044-866-2835","hospUrl":"","estbDd":"20111005","drTotCnt":1,"mdeptSdrCnt":"","lat":36.60287,"lng":127.29815},{"id":"363843041b11","name":"패밀리치과의원","clCd":"51","clCdNm":"치과의원","sidoCd":"410000","sidoCdNm":"세종시","sgguCdNm":"세종시","addr":"세종특별자치시 달빛로 47, 301호 (종촌동, 종촌파크프라자)","phone":"044-866-2804","hospUrl":"","estbDd":"20150729","drTotCnt":1,"mdeptSdrCnt":"","lat":36.50316,"lng":127.24991},{"id":"df9990abb5e3","name":"플러스치과의원","clCd":"51","clCdNm":"치과의원","sidoCd":"410000","sidoCdNm":"세종시","sgguCdNm":"세종시","addr":"세종특별자치시 조치원읍 세종로 2282, 4층 406~408호","phone":"044-867-2870","hospUrl":"","estbDd":"20080820","drTotCnt":1,"mdeptSdrCnt":"","lat":36.59106,"lng":127.29211},{"id":"e5cbdc217b20","name":"하얀치과의원","clCd":"51","clCdNm":"치과의원","sidoCd":"410000","sidoCdNm":"세종시","sgguCdNm":"세종시","addr":"세종특별자치시 조치원읍 조치원로 30, (조치원읍)","phone":"044-866-6200","hospUrl":"","estbDd":"20000426","drTotCnt":1,"mdeptSdrCnt":"","lat":36.60135,"lng":127.30001},{"id":"d2d64a8c7546","name":"한솔퍼스트치과의원","clCd":"51","clCdNm":"치과의원","sidoCd":"410000","sidoCdNm":"세종시","sgguCdNm":"세종시","addr":"세종특별자치시 새롬중앙로 62-15, 201호 (새롬동, 해피라움W)","phone":"044-866-2275","hospUrl":"","estbDd":"20120725","drTotCnt":1,"mdeptSdrCnt":"","lat":36.48693,"lng":127.25125},{"id":"5b3b9c9e9b2f","name":"해들치과의원","clCd":"51","clCdNm":"치과의원","sidoCd":"410000","sidoCdNm":"세종시","sgguCdNm":"세종시","addr":"세종특별자치시 한누리대로 2257, 판타지타워 305호 (대평동)","phone":"044-862-2804","hospUrl":"","estbDd":"20180719","drTotCnt":1,"mdeptSdrCnt":"","lat":36.47262,"lng":127.278},{"id":"6bceae9a4a16","name":"화이트부부치과의원","clCd":"51","clCdNm":"치과의원","sidoCd":"410000","sidoCdNm":"세종시","sgguCdNm":"세종시","addr":"세종특별자치시 도움1로 108, 410.411호 (종촌동, 몰리브)","phone":"044-865-2835","hospUrl":"","estbDd":"20151109","drTotCnt":2,"mdeptSdrCnt":"","lat":36.50264,"lng":127.24758},{"id":"303a56da1b3b","name":"황실치과의원","clCd":"51","clCdNm":"치과의원","sidoCd":"410000","sidoCdNm":"세종시","sgguCdNm":"세종시","addr":"세종특별자치시 한누리대로 2281, SM메디컬센터 410호 (대평동)","phone":"044-866-2888","hospUrl":"","estbDd":"20191216","drTotCnt":1,"mdeptSdrCnt":"","lat":36.47129,"lng":127.27591},{"id":"b3219f17deed","name":"세종특별자치시보건소","clCd":"71","clCdNm":"보건소","sidoCd":"410000","sidoCdNm":"세종시","sgguCdNm":"세종시","addr":"세종특별자치시 조치원읍 대첩로 32, 세종특별자치시보건소","phone":"044-301-2000","hospUrl":"http://health.sejong.go.kr","estbDd":"19850125","drTotCnt":3,"mdeptSdrCnt":"","lat":36.59595,"lng":127.29265},{"id":"84833df7f783","name":"금남면보건지소","clCd":"72","clCdNm":"보건지소","sidoCd":"410000","sidoCdNm":"세종시","sgguCdNm":"세종시","addr":"세종특별자치시 금남면 용포로 57, 금남면보건지소","phone":"044-301-2243","hospUrl":"","estbDd":"19880101","drTotCnt":"","mdeptSdrCnt":"","lat":36.46383,"lng":127.28035},{"id":"df12c51fb1f7","name":"남부통합보건지소","clCd":"72","clCdNm":"보건지소","sidoCd":"410000","sidoCdNm":"세종시","sgguCdNm":"세종시","addr":"세종특별자치시 새롬로 14, 3층 (새롬동)","phone":"044-301-2400","hospUrl":"","estbDd":"20170908","drTotCnt":1,"mdeptSdrCnt":"","lat":36.48614,"lng":127.25657},{"id":"f01e58e9868e","name":"부강면보건지소","clCd":"72","clCdNm":"보건지소","sidoCd":"410000","sidoCdNm":"세종시","sgguCdNm":"세종시","addr":"세종특별자치시 부강면 부강5길 38, (부강면사무소)","phone":"044-301-2232","hospUrl":"","estbDd":"19671104","drTotCnt":"","mdeptSdrCnt":"","lat":36.52973,"lng":127.37092},{"id":"0c0a7efd47c9","name":"소정면보건지소","clCd":"72","clCdNm":"보건지소","sidoCd":"410000","sidoCdNm":"세종시","sgguCdNm":"세종시","addr":"세종특별자치시 소정면 소정구길 201, 소정면보건지소","phone":"044-301-2292","hospUrl":"","estbDd":"19971212","drTotCnt":"","mdeptSdrCnt":"","lat":36.72201,"lng":127.15724},{"id":"0f2358f9e904","name":"연기면보건지소","clCd":"72","clCdNm":"보건지소","sidoCd":"410000","sidoCdNm":"세종시","sgguCdNm":"세종시","addr":"세종특별자치시 연기면 당산로 154, 지1층","phone":"044-301-2212","hospUrl":"","estbDd":"19880101","drTotCnt":"","mdeptSdrCnt":"","lat":36.54694,"lng":127.27919},{"id":"eafb33314d6c","name":"연동면보건지소","clCd":"72","clCdNm":"보건지소","sidoCd":"410000","sidoCdNm":"세종시","sgguCdNm":"세종시","addr":"세종특별자치시 연동면 장욱진로 7, 연동면 복합커뮤니티센터","phone":"044-301-2223","hospUrl":"","estbDd":"19880101","drTotCnt":"","mdeptSdrCnt":"","lat":36.55536,"lng":127.32732},