[{"id":"96f4cd44b572","name":"고신대학교복음병원","clCd":"01","clCdNm":"상급종합","sidoCd":"210000","sidoCdNm":"부산","sgguCdNm":"부산서구","addr":"부산광역시 서구 감천로 262, (암남동)","phone":"990-6114","hospUrl":"http://www.kosinmed.or.kr/","estbDd":"19740226","drTotCnt":293,"mdeptSdrCnt":196,"lat":35.08096,"lng":129.01396},{"id":"1b799f7c884f","name":"동아대학교병원","clCd":"01","clCdNm":"상급종합","sidoCd":"210000","sidoCdNm":"부산","sgguCdNm":"부산서구","addr":"부산광역시 서구 대신공원로 26, (동대신동3가)","phone":"051-240-2400","hospUrl":"http://www.damc.or.kr","estbDd":"19900303","drTotCnt":308,"mdeptSdrCnt":182,"lat":35.12017,"lng":129.01754},{"id":"a728888cf585","name":"부산대학교병원","clCd":"01","clCdNm":"상급종합","sidoCd":"210000","sidoCdNm":"부산","sgguCdNm":"부산서구","addr":"부산광역시 서구 구덕로 179, (아미동1가)","phone":"240-7000","hospUrl":"","estbDd":"19810827","drTotCnt":507,"mdeptSdrCnt":276,"lat":35.10085,"lng":129.0188},{"id":"5ce35120f6fd","name":"인제대학교부산백병원","clCd":"01","clCdNm":"상급종합","sidoCd":"210000","sidoCdNm":"부산","sgguCdNm":"부산진구","addr":"부산광역시 부산진구 복지로 75, 진사로83번길 75, 진사로83번길 81, 1층(일부), 3층 (개금동)","phone":"051-890-6114","hospUrl":"","estbDd":"19790601","drTotCnt":378,"mdeptSdrCnt":221,"lat":35.14618,"lng":129.02089},{"id":"d0bf78e18996","name":"구포성심병원","clCd":"11","clCdNm":"종합병원","sidoCd":"210000","sidoCdNm":"부산","sgguCdNm":"부산북구","addr":"부산광역시 북구 낙동대로 1786, (구포동)","phone":"051-330-2001","hospUrl":"","estbDd":"19830419","drTotCnt":31,"mdeptSdrCnt":30,"lat":35.20971,"lng":129.00472},{"id":"25928f89547e","name":"대동병원","clCd":"11","clCdNm":"종합병원","sidoCd":"210000","sidoCdNm":"부산","sgguCdNm":"부산동래구","addr":"부산광역시 동래구 충렬대로 187, (명륜동)","phone":"051-554-1233","hospUrl":"http://www.ddh.co.kr/","estbDd":"19800221","drTotCnt":66,"mdeptSdrCnt":64,"lat":35.20425,"lng":129.0802},{"id":"2c73936a9063","name":"동남권원자력의학원원자력병원","clCd":"11","clCdNm":"종합병원","sidoCd":"210000","sidoCdNm":"부산","sgguCdNm":"부산기장군","addr":"부산광역시 기장군 장안읍 좌동길 40, (장안읍)","phone":"051-720-5114","hospUrl":"http://www.dirams.re.kr","estbDd":"20100414","drTotCnt":64,"mdeptSdrCnt":60,"lat":35.3214,"lng":129.24355},{"id":"fb53eebbc5ed","name":"동래봉생병원","clCd":"11","clCdNm":"종합병원","sidoCd":"210000","sidoCdNm":"부산","sgguCdNm":"부산동래구","addr":"부산광역시 동래구 안연로109번길 27, (안락동)","phone":"051-520-5500","hospUrl":"http://www.drbs.or.kr","estbDd":"19900601","drTotCnt":41,"mdeptSdrCnt":41,"lat":35.19692,"lng":129.09614},{"id":"1f4c09594a4c","name":"부산광역시의료원","clCd":"11","clCdNm":"종합병원","sidoCd":"210000","sidoCdNm":"부산","sgguCdNm":"부산연제구","addr":"부산광역시 연제구 월드컵대로 359, (거제동, 1동, 5동일부)","phone":"051-507-3000","hospUrl":"http://www.busanmc.or.kr","estbDd":"19820630","drTotCnt":72,"mdeptSdrCnt":57,"lat":35.18728,"lng":129.05924},{"id":"002f42e2e0aa","name":"부산성모병원(재단법인 천주교부산교구유지재단)","clCd":"11","clCdNm":"종합병원","sidoCd":"210000","sidoCdNm":"부산","sgguCdNm":"부산남구","addr":"부산광역시 남구 용호로232번길 25-14, (용호동)","phone":"051-933-7114","hospUrl":"http://bsm.or.kr","estbDd":"20060602","drTotCnt":80,"mdeptSdrCnt":65,"lat":35.11046,"lng":129.10913},{"id":"15ea49418022","name":"비에이치에스한서병원","clCd":"11","clCdNm":"종합병원","sidoCd":"210000","sidoCdNm":"부산","sgguCdNm":"부산수영구","addr":"부산광역시 수영구 수영로 615, (광안동)","phone":"051-756-0081","hospUrl":"http://www.hanseohospital.or.kr","estbDd":"19871102","drTotCnt":53,"mdeptSdrCnt":50,"lat":35.16088,"lng":129.1131},{"id":"b11edb659713","name":"빌리브세웅병원","clCd":"11","clCdNm":"종합병원","sidoCd":"210000","sidoCdNm":"부산","sgguCdNm":"부산동래구","addr":"부산광역시 동래구 충렬대로 455, (안락동)","phone":"051-500-1100","hospUrl":"https://believesewoong.co.kr/","estbDd":"20240318","drTotCnt":24,"mdeptSdrCnt":23,"lat":35.19601,"lng":129.10822},{"id":"8c563f3305e1","name":"삼육부산병원","clCd":"11","clCdNm":"종합병원","sidoCd":"210000","sidoCdNm":"부산","sgguCdNm":"부산서구","addr":"부산광역시 서구 대티로 170, (서대신동2가)","phone":"242-9751","hospUrl":"http://www.bah.kr","estbDd":"19740307","drTotCnt":54,"mdeptSdrCnt":47,"lat":35.11277,"lng":129.01107},{"id":"aed5f59b6748","name":"영도병원","clCd":"11","clCdNm":"종합병원","sidoCd":"210000","sidoCdNm":"부산","sgguCdNm":"부산영도구","addr":"부산광역시 영도구 태종로 85, (대교동2가)","phone":"051-414-8101","hospUrl":"http://www.ydh.co.kr","estbDd":"19960629","drTotCnt":31,"mdeptSdrCnt":30,"lat":35.09224,"lng":129.04052},{"id":"6b7cf26d287c","name":"의료법인 광혜의료재단 광혜병원","clCd":"11","clCdNm":"종합병원","sidoCd":"210000","sidoCdNm":"부산","sgguCdNm":"부산동래구","addr":"부산광역시 동래구 충렬대로 96, (온천동, 광혜병원)","phone":"051-503-2111","hospUrl":"http://www.gwanghyehospital.com","estbDd":"19831207","drTotCnt":25,"mdeptSdrCnt":24,"lat":35.20701,"lng":129.07115},{"id":"d50e745f82c1","name":"의료법인 센텀의료재단 센텀종합병원","clCd":"11","clCdNm":"종합병원","sidoCd":"210000","sidoCdNm":"부산","sgguCdNm":"부산수영구","addr":"부산광역시 수영구 수영로679번길 8, (광안동)","phone":"051-750-5000","hospUrl":"","estbDd":"20021202","drTotCnt":63,"mdeptSdrCnt":61,"lat":35.16683,"lng":129.11442},{"id":"c6751db66819","name":"의료법인 온그룹의료재단 온병원","clCd":"11","clCdNm":"종합병원","sidoCd":"210000","sidoCdNm":"부산","sgguCdNm":"부산진구","addr":"부산광역시 부산진구 가야대로 719, ,767,721,본관 지하3~11층 전부,12층 일부,13~14층 전부,15층 일부,신관 1층, 9층 일부 (당감동)","phone":"051-607-0114","hospUrl":"http://www.onhospital.org","estbDd":"20100226","drTotCnt":75,"mdeptSdrCnt":72,"lat":35.15744,"lng":129.05043},{"id":"7e76e77b8ae6","name":"의료법인 은성의료재단 좋은강안병원","clCd":"11","clCdNm":"종합병원","sidoCd":"210000","sidoCdNm":"부산","sgguCdNm":"부산수영구","addr":"부산광역시 수영구 수영로 493, (남천동)","phone":"051-625-0900","hospUrl":"http://gang-an.or.kr/index.php","estbDd":"20050223","drTotCnt":94,"mdeptSdrCnt":91,"lat":35.15007,"lng":129.11062},{"id":"66e49f31a263","name":"의료법인 은성의료재단 좋은삼선병원","clCd":"11","clCdNm":"종합병원","sidoCd":"210000","sidoCdNm":"부산","sgguCdNm":"부산사상구","addr":"부산광역시 사상구 가야대로 326, 좋은삼선병원 (주례동)","phone":"051-322-0900","hospUrl":"http://www.samsun.or.kr","estbDd":"19950330","drTotCnt":80,"mdeptSdrCnt":71,"lat":35.15042,"lng":129.00825},{"id":"7a5c78cc35d5","name":"의료법인 인당의료재단 부민병원","clCd":"11","clCdNm":"종합병원","sidoCd":"210000","sidoCdNm":"부산","sgguCdNm":"부산북구","addr":"부산광역시 북구 만덕대로 59, (덕천동)","phone":"051-330-3000","hospUrl":"www.bumin.co.kr/busan/","estbDd":"20030102","drTotCnt":70,"mdeptSdrCnt":64,"lat":35.21193,"lng":129.01121},{"id":"84a5cbe1054e","name":"의료법인 인당의료재단 해운대부민병원","clCd":"11","clCdNm":"종합병원","sidoCd":"210000","sidoCdNm":"부산","sgguCdNm":"부산해운대구","addr":"부산광역시 해운대구 해운대로 584, 해운대 부민병원 지하4~지상13층 (우동)","phone":"602-8000","hospUrl":"","estbDd":"20150709","drTotCnt":64,"mdeptSdrCnt":63,"lat":35.16142,"lng":129.15565},{"id":"be7007ae701d","name":"의료법인 행도의료재단 해동병원","clCd":"11","clCdNm":"종합병원","sidoCd":"210000","sidoCdNm":"부산","sgguCdNm":"부산영도구","addr":"부산광역시 영도구 태종로 133, (봉래동3가)","phone":"051-412-6161","hospUrl":"","estbDd":"19840705","drTotCnt":22,"mdeptSdrCnt":22,"lat":35.09194,"lng":129.04387},{"id":"21e403cdb218","name":"의료법인정화의료재단 봉생기념병원","clCd":"11","clCdNm":"종합병원","sidoCd":"210000","sidoCdNm":"부산","sgguCdNm":"부산동구","addr":"부산광역시 동구 중앙대로 401, (좌천동, 봉생병원)","phone":"051-664-4000","hospUrl":"http://www.bongseng.co.kr/index.asp","estbDd":"19850105","drTotCnt":66,"mdeptSdrCnt":58,"lat":35.13103,"lng":129.05019},{"id":"32794f83c419","name":"인제대학교 해운대백병원","clCd":"11","clCdNm":"종합병원","sidoCd":"210000","sidoCdNm":"부산","sgguCdNm":"부산해운대구","addr":"부산광역시 해운대구 해운대로 875, (좌동)","phone":"051-797-0100","hospUrl":"http://www.paik.ac.kr/haeundae/","estbDd":"20100210","drTotCnt":363,"mdeptSdrCnt":243,"lat":35.17344,"lng":129.18201},{"id":"6d683952ddee","name":"재단법인일신기독교선교회 일신기독병원","clCd":"11","clCdNm":"종합병원","sidoCd":"210000","sidoCdNm":"부산","sgguCdNm":"부산동구","addr":"부산광역시 동구 정공단로 27, (좌천동)","phone":"051-630-0300","hospUrl":"http://www.ilsin.or.kr","estbDd":"19840702","drTotCnt":32,"mdeptSdrCnt":32,"lat":35.13578,"lng":129.05438},{"id":"a62bfe3128bc","name":"재단법인천주교부산교구유지재단 메리놀병원","clCd":"11","clCdNm":"종합병원","sidoCd":"210000","sidoCdNm":"부산","sgguCdNm":"부산중구","addr":"부산광역시 중구 중구로 121, (대청동4가)","phone":"051-465-8801","hospUrl":"http://www.maryknoll.co.kr","estbDd":"19740430","drTotCnt":78,"mdeptSdrCnt":58,"lat":35.10768,"lng":129.03241},{"id":"4f0c65502516","name":"좋은문화병원","clCd":"11","clCdNm":"종합병원","sidoCd":"210000","sidoCdNm":"부산","sgguCdNm":"부산동구","addr":"부산광역시 동구 범일로 119, (범일동)","phone":"051-644-2002","hospUrl":"http://www.moonhwa.or.kr/","estbDd":"19861101","drTotCnt":75,"mdeptSdrCnt":73,"lat":35.14089,"lng":129.05909},{"id":"26e1224f10bd","name":"학교법인 춘해병원","clCd":"11","clCdNm":"종합병원","sidoCd":"210000","sidoCdNm":"부산","sgguCdNm":"부산진구","addr":"부산광역시 부산진구 중앙대로 605, 지상1층~지상9층 (범천동)","phone":"051-638-8000","hospUrl":"http://www.choonhae.or.kr/","estbDd":"19740226","drTotCnt":24,"mdeptSdrCnt":24,"lat":35.14696,"lng":129.05838},{"id":"25eb9d5d1a6d","name":"학교법인)동의병원","clCd":"11","clCdNm":"종합병원","sidoCd":"210000","sidoCdNm":"부산","sgguCdNm":"부산진구","addr":"부산광역시 부산진구 양정로 62, 지상2ㆍ3ㆍ10층 각 일부/ 지하1ㆍ지상1ㆍ지상4~지상8층 전층 (양정동)","phone":"051-867-5101","hospUrl":"http://www.demc.kr/","estbDd":"19900421","drTotCnt":73,"mdeptSdrCnt":64,"lat":35.16982,"lng":129.07651},{"id":"1a8c2d374b4b","name":"한국보훈복지의료공단 부산보훈병원","clCd":"11","clCdNm":"종합병원","sidoCd":"210000","sidoCdNm":"부산","sgguCdNm":"부산사상구","addr":"부산광역시 사상구 백양대로 420, (주례동)","phone":"051-601-6000","hospUrl":"http://busan.bohun.or.kr","estbDd":"19920511","drTotCnt":70,"mdeptSdrCnt":54,"lat":35.15338,"lng":129.00657},{"id":"8b999f497049","name":"(의)서일의료재단기장병원","clCd":"21","clCdNm":"병원","sidoCd":"210000","sidoCdNm":"부산","sgguCdNm":"부산기장군","addr":"부산광역시 기장군 기장읍 대청로72번길 6-6, 6","phone":"051-723-0171","hospUrl":"http://www.gjhp.kr/","estbDd":"19970503","drTotCnt":15,"mdeptSdrCnt":13,"lat":35.2358,"lng":129.21692},{"id":"2799849136f0","name":"(재)일신기독교선교회 정관일신기독병원","clCd":"21","clCdNm":"병원","sidoCd":"210000","sidoCdNm":"부산","sgguCdNm":"부산기장군","addr":"부산광역시 기장군 정관읍 정관6로 31, 3-8, 10층","phone":"051-780-0600","hospUrl":"","estbDd":"20180329","drTotCnt":14,"mdeptSdrCnt":13,"lat":35.3197,"lng":129.17745},{"id":"14f77fb11c08","name":"365엠씨병원","clCd":"21","clCdNm":"병원","sidoCd":"210000","sidoCdNm":"부산","sgguCdNm":"부산진구","addr":"부산광역시 부산진구 서면로 74, (부전동, 아이온시티빌딩)","phone":"051-809-3655","hospUrl":"","estbDd":"20161005","drTotCnt":9,"mdeptSdrCnt":6,"lat":35.15707,"lng":129.05813},{"id":"9de9c5d7e982","name":"강동병원","clCd":"21","clCdNm":"병원","sidoCd":"210000","sidoCdNm":"부산","sgguCdNm":"부산사하구","addr":"부산광역시 사하구 다대로 145, (신평동)","phone":"051-292-1940","hospUrl":"","estbDd":"19930430","drTotCnt":6,"mdeptSdrCnt":6,"lat":35.08966,"lng":128.97828},{"id":"33d32f73d5cb","name":"개나리소아청소년과병원","clCd":"21","clCdNm":"병원","sidoCd":"210000","sidoCdNm":"부산","sgguCdNm":"부산강서구","addr":"부산광역시 강서구 명지국제8로 269, 유당빌딩 4~5층 (명지동)","phone":"051-202-1113","hospUrl":"http://www.gaenari.co.kr/","estbDd":"20190919","drTotCnt":1,"mdeptSdrCnt":1,"lat":35.09812,"lng":128.92243},{"id":"2ff594b50bc1","name":"거인병원","clCd":"21","clCdNm":"병원","sidoCd":"210000","sidoCdNm":"부산","sgguCdNm":"부산동래구","addr":"부산광역시 동래구 여고로 12, 거인병원 지하1,지상2~10층 (사직동)","phone":"996-7000","hospUrl":"","estbDd":"20221104","drTotCnt":10,"mdeptSdrCnt":10,"lat":35.19462,"lng":129.06536},{"id":"1c34a30af816","name":"건강만세365병원","clCd":"21","clCdNm":"병원","sidoCd":"210000","sidoCdNm":"부산","sgguCdNm":"부산중구","addr":"부산광역시 중구 대청로 105, 건강만세365병원 -1,1~9층 (대청동2가)","phone":"051-711-0365","hospUrl":"","estbDd":"20200103","drTotCnt":10,"mdeptSdrCnt":9,"lat":35.10318,"lng":129.0314},{"id":"c7b7942cb726","name":"경희병원","clCd":"21","clCdNm":"병원","sidoCd":"210000","sidoCdNm":"부산","sgguCdNm":"부산사하구","addr":"부산광역시 사하구 다대로 321, (장림동)","phone":"051-265-7575","hospUrl":"","estbDd":"19940630","drTotCnt":6,"mdeptSdrCnt":6,"lat":35.07354,"lng":128.97684},{"id":"045bc0423f74","name":"광안자모병원","clCd":"21","clCdNm":"병원","sidoCd":"210000","sidoCdNm":"부산","sgguCdNm":"부산수영구","addr":"부산광역시 수영구 수영로 555, (광안동)","phone":"051-760-0600","hospUrl":"","estbDd":"19950313","drTotCnt":14,"mdeptSdrCnt":14,"lat":35.15535,"lng":129.11214},{"id":"a243a8decd55","name":"굳건병원","clCd":"21","clCdNm":"병원","sidoCd":"210000","sidoCdNm":"부산","sgguCdNm":"부산사하구","addr":"부산광역시 사하구 낙동대로 446, 지하2층 일부, 1층 일부, 2~4층 전부, 6층 일부 (당리동)","phone":"051-991-1119","hospUrl":"","estbDd":"20241018","drTotCnt":6,"mdeptSdrCnt":6,"lat":35.1052,"lng":128.9701},{"id":"5c0d1bac3ace","name":"김&정해운대병원","clCd":"21","clCdNm":"병원","sidoCd":"210000","sidoCdNm":"부산","sgguCdNm":"부산해운대구","addr":"부산광역시 해운대구 좌동로 88, 8층 (좌동, 울트라타워)","phone":"051-702-7017","hospUrl":"","estbDd":"20110105","drTotCnt":2,"mdeptSdrCnt":2,"lat":35.17195,"lng":129.17495},{"id":"e4dce6318065","name":"나르샤병원","clCd":"21","clCdNm":"병원","sidoCd":"210000","sidoCdNm":"부산","sgguCdNm":"부산동래구","addr":"부산광역시 동래구 중앙대로1493번길 6, (온천동)","phone":"051-715-7878","hospUrl":"","estbDd":"20181001","drTotCnt":5,"mdeptSdrCnt":5,"lat":35.21906,"lng":129.0846},{"id":"5ca49900580f","name":"단골병원","clCd":"21","clCdNm":"병원","sidoCd":"210000","sidoCdNm":"부산","sgguCdNm":"부산금정구","addr":"부산광역시 금정구 중앙대로 1829, 5~10, 14층 12~13층 일부호 (구서동)","phone":"051-582-0100","hospUrl":"","estbDd":"20191119","drTotCnt":6,"mdeptSdrCnt":6,"lat":35.24767,"lng":129.09196},{"id":"3260d4936ff9","name":"더케이부산병원","clCd":"21","clCdNm":"병원","sidoCd":"210000","sidoCdNm":"부산","sgguCdNm":"부산금정구","addr":"부산광역시 금정구 금정로 244, 2~5층 (구서동)","phone":"051-967-5225","hospUrl":"","estbDd":"20210329","drTotCnt":3,"mdeptSdrCnt":3,"lat":35.24513,"lng":129.09222},{"id":"e67d9fa669df","name":"더탄탄병원","clCd":"21","clCdNm":"병원","sidoCd":"210000","sidoCdNm":"부산","sgguCdNm":"부산사하구","addr":"부산광역시 사하구 사하로 189, 1층(일부),2~4층 (괴정동, 괴정어반푸르지오)","phone":"051-961-1000","hospUrl":"","estbDd":"20220617","drTotCnt":7,"mdeptSdrCnt":7,"lat":35.09847,"lng":128.99337},{"id":"8b9ef92a002b","name":"더희망찬병원","clCd":"21","clCdNm":"병원","sidoCd":"210000","sidoCdNm":"부산","sgguCdNm":"부산금정구","addr":"부산광역시 금정구 부곡로 130, (부곡동)","phone":"051-255-0200","hospUrl":"","estbDd":"20160415","drTotCnt":3,"mdeptSdrCnt":3,"lat":35.22746,"lng":129.0923},{"id":"35b0ffe75d31","name":"동래성모병원","clCd":"21","clCdNm":"병원","sidoCd":"210000","sidoCdNm":"부산","sgguCdNm":"부산동래구","addr":"부산광역시 동래구 충렬대로 188, (명륜동)","phone":"051-559-8888","hospUrl":"","estbDd":"20121011","drTotCnt":2,"mdeptSdrCnt":2,"lat":35.20326,"lng":129.08018},{"id":"7a0d6e5912c1","name":"동래아동병원","clCd":"21","clCdNm":"병원","sidoCd":"210000","sidoCdNm":"부산","sgguCdNm":"부산동래구","addr":"부산광역시 동래구 충렬대로 384, (안락동)","phone":"715-0500","hospUrl":"","estbDd":"20130904","drTotCnt":3,"mdeptSdrCnt":3,"lat":35.19705,"lng":129.10021},{"id":"893ad0e40dc6","name":"동아대학교대신병원","clCd":"21","clCdNm":"병원","sidoCd":"210000","sidoCdNm":"부산","sgguCdNm":"부산서구","addr":"부산광역시 서구 대신공원로 26, 동아대학교병원 (동대신동3가)","phone":"051-960-0100","hospUrl":"http://www.daudh.or.kr/","estbDd":"20190327","drTotCnt":7,"mdeptSdrCnt":7,"lat":35.12017,"lng":129.01754},{"id":"a31ea9ae9c58","name":"리스본병원","clCd":"21","clCdNm":"병원","sidoCd":"210000","sidoCdNm":"부산","sgguCdNm":"부산연제구","addr":"부산광역시 연제구 중앙대로 1090, 프라임시티 9~11, 13층 일부호 (연산동)","phone":"051-710-1900","hospUrl":"","estbDd":"20140828","drTotCnt":3,"mdeptSdrCnt":3,"lat":35.18479,"lng":129.08105},{"id":"766ae7ebd8e4","name":"메드윌병원","clCd":"21","clCdNm":"병원","sidoCd":"210000","sidoCdNm":"부산","sgguCdNm":"부산금정구","addr":"부산광역시 금정구 중앙대로 1951, (구서동, 메드월병원)","phone":"051-519-8000","hospUrl":"http://www.medwill.co.kr","estbDd":"20090827","drTotCnt":5,"mdeptSdrCnt":5,"lat":35.25851,"lng":129.09096},{"id":"30d320e2c313","name":"메트로적추병원","clCd":"21","clCdNm":"병원","sidoCd":"210000","sidoCdNm":"부산","sgguCdNm":"부산수영구","addr":"부산광역시 수영구 수영로 390-1, (남천동)","phone":"051-626-0250","hospUrl":"http://www.disc-korea.com/","estbDd":"20090519","drTotCnt":4,"mdeptSdrCnt":4,"lat":35.14115,"lng":129.10754},{"id":"456c828f6471","name":"명지아동병원","clCd":"21","clCdNm":"병원","sidoCd":"210000","sidoCdNm":"부산","sgguCdNm":"부산강서구","addr":"부산광역시 강서구 명지국제8로 240, 402,501,601호 (명지동, 국제메디칼빌딩)","phone":"051-717-0230","hospUrl":"","estbDd":"20160627","drTotCnt":4,"mdeptSdrCnt":4,"lat":35.09783,"lng":128.91889},{"id":"f4f55756870f","name":"명지오션척병원","clCd":"21","clCdNm":"병원","sidoCd":"210000","sidoCdNm":"부산","sgguCdNm":"부산강서구","addr":"부산광역시 강서구 명지오션시티4로 88, 3~7층 (명지동)","phone":"051-710-8899","hospUrl":"","estbDd":"20200716","drTotCnt":5,"mdeptSdrCnt":4,"lat":35.08117,"lng":128.90325},{"id":"9e0f3b000d25","name":"목화병원","clCd":"21","clCdNm":"병원","sidoCd":"210000","sidoCdNm":"부산","sgguCdNm":"부산진구","addr":"부산광역시 부산진구 거제대로36번길 27, 1층(일부), 2~6층, 7층(일부) (양정동)","phone":"051-865-1221","hospUrl":"","estbDd":"20120404","drTotCnt":4,"mdeptSdrCnt":4,"lat":35.17194,"lng":129.06915},{"id":"5fa09ae98f59","name":"미래로병원","clCd":"21","clCdNm":"병원","sidoCd":"210000","sidoCdNm":"부산","sgguCdNm":"부산북구","addr":"부산광역시 북구 금곡대로 15, (덕천동)","phone":"051-330-5000","hospUrl":"http://www.mrro.co.kr","estbDd":"20060601","drTotCnt":17,"mdeptSdrCnt":17,"lat":35.21131,"lng":129.00445},{"id":"d80f9dfb54c0","name":"미래병원","clCd":"21","clCdNm":"병원","sidoCd":"210000","sidoCdNm":"부산","sgguCdNm":"부산동래구","addr":"부산광역시 동래구 충렬대로 358, (안락동)","phone":"051-523-3200","hospUrl":"http://www.miraehos.co.kr","estbDd":"20090114","drTotCnt":8,"mdeptSdrCnt":8,"lat":35.19776,"lng":129.09758},{"id":"d3f8d4b8f923","name":"미래아이병원","clCd":"21","clCdNm":"병원","sidoCd":"210000","sidoCdNm":"부산","sgguCdNm":"부산사하구","addr":"부산광역시 사하구 낙동남로 1388, (하단동)","phone":"051-200-9999","hospUrl":"www.miraeihospital.kr/","estbDd":"20090212","drTotCnt":10,"mdeptSdrCnt":10,"lat":35.10587,"lng":128.96348},{"id":"09ffbb73d04e","name":"미래어린이병원","clCd":"21","clCdNm":"병원","sidoCd":"210000","sidoCdNm":"부산","sgguCdNm":"부산사상구","addr":"부산광역시 사상구 낙동대로 790, 3,4,7층(엄궁동,신우프라자) (엄궁동)","phone":"051-313-1717","hospUrl":"","estbDd":"20110302","drTotCnt":2,"mdeptSdrCnt":1,"lat":35.13103,"lng":128.97243},{"id":"a164cf3b4c00","name":"미래여성병원","clCd":"21","clCdNm":"병원","sidoCd":"210000","sidoCdNm":"부산","sgguCdNm":"부산진구","addr":"부산광역시 부산진구 가야대로 459, 지하2~지상10층 (개금동)","phone":"051-890-9999","hospUrl":"","estbDd":"20140210","drTotCnt":11,"mdeptSdrCnt":11,"lat":35.1536,"lng":129.02238},{"id":"9b68ba68841f","name":"바로서면병원","clCd":"21","clCdNm":"병원","sidoCd":"210000","sidoCdNm":"부산","sgguCdNm":"부산진구","addr":"부산광역시 부산진구 중앙대로 777, 4, 5, 6, 7층 (부전동)","phone":"051-711-8540","hospUrl":"","estbDd":"20230605","drTotCnt":7,"mdeptSdrCnt":7,"lat":35.16186,"lng":129.06188},{"id":"ec7b2caa4ac1","name":"바른길병원","clCd":"21","clCdNm":"병원","sidoCd":"210000","sidoCdNm":"부산","sgguCdNm":"부산해운대구","addr":"부산광역시 해운대구 선수촌로 144, (반여동)","phone":"051-525-0058","hospUrl":"","estbDd":"20080717","drTotCnt":4,"mdeptSdrCnt":4,"lat":35.20593,"lng":129.12175},{"id":"70dec9dbfc00","name":"바른병원","clCd":"21","clCdNm":"병원","sidoCd":"210000","sidoCdNm":"부산","sgguCdNm":"부산서구","addr":"부산광역시 서구 보수대로 9, 4~12층 (충무동1가)","phone":"247-0119","hospUrl":"","estbDd":"20150908","drTotCnt":10,"mdeptSdrCnt":10,"lat":35.09766,"lng":129.02491},{"id":"94d63642cab9","name":"박원욱병원","clCd":"21","clCdNm":"병원","sidoCd":"210000","sidoCdNm":"부산","sgguCdNm":"부산수영구","addr":"부산광역시 수영구 광안로 4, 지하1층,지상5~8층 (광안동, 에스케이뷰상가)","phone":"1544-7582","hospUrl":"http://www.parkspine.co.kr","estbDd":"20111214","drTotCnt":6,"mdeptSdrCnt":6,"lat":35.15694,"lng":129.11338},{"id":"04479201620d","name":"밝은눈안과병원","clCd":"21","clCdNm":"병원","sidoCd":"210000","sidoCdNm":"부산","sgguCdNm":"부산진구","addr":"부산광역시 부산진구 가야대로 729, (부암동)","phone":"051-1670-3993","hospUrl":"","estbDd":"20170403","drTotCnt":9,"mdeptSdrCnt":9,"lat":35.15791,"lng":129.05135},{"id":"deba4422b6d6","name":"베테랑병원","clCd":"21","clCdNm":"병원","sidoCd":"210000","sidoCdNm":"부산","sgguCdNm":"부산연제구","addr":"부산광역시 연제구 중앙대로 1098, 7~11층 (연산동)","phone":"051-989-7575","hospUrl":"","estbDd":"20240202","drTotCnt":6,"mdeptSdrCnt":6,"lat":35.18527,"lng":129.08152},{"id":"1cb381b29c3d","name":"부산더키즈병원","clCd":"21","clCdNm":"병원","sidoCd":"210000","sidoCdNm":"부산","sgguCdNm":"부산사하구","addr":"부산광역시 사하구 다대로 234, 5,6,8,9층 (장림동)","phone":"051-711-6000","hospUrl":"","estbDd":"20230220","drTotCnt":5,"mdeptSdrCnt":5,"lat":35.08158,"lng":128.97693},{"id":"72067e831b50","name":"부산마이크로병원","clCd":"21","clCdNm":"병원","sidoCd":"210000","sidoCdNm":"부산","sgguCdNm":"부산금정구","addr":"부산광역시 금정구 중앙대로 1875, (구서동)","phone":"051-514-1400","hospUrl":"","estbDd":"20130125","drTotCnt":4,"mdeptSdrCnt":4,"lat":35.25173,"lng":129.09102},{"id":"45d67e5aa99b","name":"부산맘아동병원","clCd":"21","clCdNm":"병원","sidoCd":"210000","sidoCdNm":"부산","sgguCdNm":"부산사하구","addr":"부산광역시 사하구 낙동대로 451, 금동빌딩 2,4,5-8층 (하단동)","phone":"051-271-8275","hospUrl":"","estbDd":"20100604","drTotCnt":5,"mdeptSdrCnt":5,"lat":35.10505,"lng":128.969},{"id":"60fce9efa723","name":"부산미남병원","clCd":"21","clCdNm":"병원","sidoCd":"210000","sidoCdNm":"부산","sgguCdNm":"부산동래구","addr":"부산광역시 동래구 아시아드대로 213, 류엔미즈메디컬 (온천동)","phone":"051-501-8288","hospUrl":"https://minamhospital.com/","estbDd":"20220819","drTotCnt":9,"mdeptSdrCnt":9,"lat":35.20332,"lng":129.06614},{"id":"4925ff3748e6","name":"부산본병원","clCd":"21","clCdNm":"병원","sidoCd":"210000","sidoCdNm":"부산","sgguCdNm":"부산사하구","addr":"부산광역시 사하구 승학로 8, (당리동)","phone":"051-1599-8275","hospUrl":"http://www.bonhospital.co.kr/","estbDd":"20081126","drTotCnt":16,"mdeptSdrCnt":16,"lat":35.10628,"lng":128.96982},{"id":"4c79617152c0","name":"부산성모안과병원","clCd":"21","clCdNm":"병원","sidoCd":"210000","sidoCdNm":"부산","sgguCdNm":"부산해운대구","addr":"부산광역시 해운대구 해운대로 409, (우동)","phone":"051-743-0775","hospUrl":"http://www.sungmo.co.kr","estbDd":"19920930","drTotCnt":22,"mdeptSdrCnt":19,"lat":35.16754,"lng":129.14097},{"id":"387a37050141","name":"부산성소병원","clCd":"21","clCdNm":"병원","sidoCd":"210000","sidoCdNm":"부산","sgguCdNm":"부산남구","addr":"부산광역시 남구 수영로 175, (대연동, SMG빌딩)","phone":"051-633-1123","hospUrl":"www.seongso.co.kr/","estbDd":"20120620","drTotCnt":9,"mdeptSdrCnt":9,"lat":35.13511,"lng":129.0858},{"id":"b435a55c43d4","name":"부산아동병원","clCd":"21","clCdNm":"병원","sidoCd":"210000","sidoCdNm":"부산","sgguCdNm":"부산남구","addr":"부산광역시 남구 수영로 228, 3-7층 (대연동)","phone":"051-612-7582","hospUrl":"","estbDd":"20111114","drTotCnt":4,"mdeptSdrCnt":4,"lat":35.13485,"lng":129.09146},{"id":"82b7a33561d7","name":"부산큰병원","clCd":"21","clCdNm":"병원","sidoCd":"210000","sidoCdNm":"부산","sgguCdNm":"부산진구","addr":"부산광역시 부산진구 가야대로 494, 지하1층~지상1층 각 일부, 지상2층~4층 전부 (개금동)","phone":"051-991-0123","hospUrl":"","estbDd":"20200410","drTotCnt":9,"mdeptSdrCnt":9,"lat":35.15282,"lng":129.02617},{"id":"09975563de7d","name":"부영병원","clCd":"21","clCdNm":"병원","sidoCd":"210000","sidoCdNm":"부산","sgguCdNm":"부산사상구","addr":"부산광역시 사상구 학감대로123번길 76, (학장동)","phone":"051-320-6800","hospUrl":"","estbDd":"20080707","drTotCnt":2,"mdeptSdrCnt":2,"lat":35.14122,"lng":128.98402},{"id":"7bb2ccf4d112","name":"사단법인 부산의료선교회 세계로병원","clCd":"21","clCdNm":"병원","sidoCd":"210000","sidoCdNm":"부산","sgguCdNm":"부산동래구","addr":"부산광역시 동래구 종합운동장로 42, 세계로병원 (사직동)","phone":"051-500-6000","hospUrl":"www.sgrh.org/","estbDd":"20040126","drTotCnt":16,"mdeptSdrCnt":16,"lat":35.19449,"lng":129.06474},{"id":"587db47beabc","name":"사상스마트병원","clCd":"21","clCdNm":"병원","sidoCd":"210000","sidoCdNm":"부산","sgguCdNm":"부산사상구","addr":"부산광역시 사상구 학감대로 269, 지하2~지상10층 (감전동)","phone":"051-322-3000","hospUrl":"","estbDd":"20200803","drTotCnt":5,"mdeptSdrCnt":5,"lat":35.15507,"lng":128.99052},{"id":"68bea41eca9d","name":"사직부산아동병원","clCd":"21","clCdNm":"병원","sidoCd":"210000","sidoCdNm":"부산","sgguCdNm":"부산동래구","addr":"부산광역시 동래구 아시아드대로 186, (사직동)","phone":"051-503-0075","hospUrl":"","estbDd":"20150114","drTotCnt":3,"mdeptSdrCnt":3,"lat":35.2009,"lng":129.06525},{"id":"183ce96e6361","name":"상쾌한병원","clCd":"21","clCdNm":"병원","sidoCd":"210000","sidoCdNm":"부산","sgguCdNm":"부산수영구","addr":"부산광역시 수영구 연수로 406, (광안동)","phone":"051-751-9775","hospUrl":"http://anorectum.com/main/main.php","estbDd":"20110201","drTotCnt":5,"mdeptSdrCnt":5,"lat":35.16821,"lng":129.11347},{"id":"b1f23a2f2e57","name":"새길병원","clCd":"21","clCdNm":"병원","sidoCd":"210000","sidoCdNm":"부산","sgguCdNm":"부산진구","addr":"부산광역시 부산진구 새싹로14번길 14, 4,5,7~11층 (부전동)","phone":"051-948-1000","hospUrl":"","estbDd":"20090525","drTotCnt":4,"mdeptSdrCnt":4,"lat":35.15946,"lng":129.05868},{"id":"660e180e91c7","name":"새봄병원","clCd":"21","clCdNm":"병원","sidoCd":"210000","sidoCdNm":"부산","sgguCdNm":"부산동래구","addr":"부산광역시 동래구 충렬대로 152, 3층일부,7~10층 (온천동)","phone":"051-503-8288","hospUrl":"","estbDd":"20220902","drTotCnt":4,"mdeptSdrCnt":4,"lat":35.20465,"lng":129.07664},{"id":"04088219eafc","name":"새부산병원","clCd":"21","clCdNm":"병원","sidoCd":"210000","sidoCdNm":"부산","sgguCdNm":"부산동구","addr":"부산광역시 동구 초량중로 74, (초량동, 새부산병원)","phone":"051-711-1000","hospUrl":"","estbDd":"20051122","drTotCnt":3,"mdeptSdrCnt":3,"lat":35.1183,"lng":129.03918},{"id":"11a41372e0dd","name":"새우리병원","clCd":"21","clCdNm":"병원","sidoCd":"210000","sidoCdNm":"부산","sgguCdNm":"부산금정구","addr":"부산광역시 금정구 중앙대로 2025, (남산동)","phone":"051-516-9999","hospUrl":"http://www.newoori.com","estbDd":"20080506","drTotCnt":8,"mdeptSdrCnt":6,"lat":35.26528,"lng":129.09212},{"id":"87fb3acdd359","name":"새항운병원","clCd":"21","clCdNm":"병원","sidoCd":"210000","sidoCdNm":"부산","sgguCdNm":"부산연제구","addr":"부산광역시 연제구 중앙대로 1064, (연산동)","phone":"051-866-2800","hospUrl":"http://www.saehangun.com/","estbDd":"20100222","drTotCnt":5,"mdeptSdrCnt":5,"lat":35.18291,"lng":129.07958},{"id":"2f5e01c500e1","name":"새힘병원","clCd":"21","clCdNm":"병원","sidoCd":"210000","sidoCdNm":"부산","sgguCdNm":"부산동래구","addr":"부산광역시 동래구 아시아드대로 261, 지하1~지상6층 (온천동)","phone":"1522-4854","hospUrl":"","estbDd":"20191125","drTotCnt":2,"mdeptSdrCnt":1,"lat":35.20701,"lng":129.06875},{"id":"cc09c34bce3b","name":"서호하단병원","clCd":"21","clCdNm":"병원","sidoCd":"210000","sidoCdNm":"부산","sgguCdNm":"부산사하구","addr":"부산광역시 사하구 낙동대로 446, 7~15층 (당리동)","phone":"051-201-6666","hospUrl":"","estbDd":"20201207","drTotCnt":3,"mdeptSdrCnt":3,"lat":35.1052,"lng":128.9701},{"id":"e95dc490d27e","name":"성가병원","clCd":"21","clCdNm":"병원","sidoCd":"210000","sidoCdNm":"부산","sgguCdNm":"부산진구","addr":"부산광역시 부산진구 범일로 133, 135, 3층 일부, 4층 전부, 5층 일부 (범천동)","phone":"051-645-9771","hospUrl":"","estbDd":"19810414","drTotCnt":3,"mdeptSdrCnt":3,"lat":35.14207,"lng":129.05903},{"id":"2f12deec357b","name":"세움병원","clCd":"21","clCdNm":"병원","sidoCd":"210000","sidoCdNm":"부산","sgguCdNm":"부산연제구","addr":"부산광역시 연제구 고분로13번길 15, (연산동)","phone":"051-989-5000","hospUrl":"","estbDd":"20250610","drTotCnt":4,"mdeptSdrCnt":4,"lat":35.18675,"lng":129.08419},{"id":"d2c6015964ac","name":"세웅병원","clCd":"21","clCdNm":"병원","sidoCd":"210000","sidoCdNm":"부산","sgguCdNm":"부산금정구","addr":"부산광역시 금정구 서동로 162, (서동)","phone":"051-500-9700","hospUrl":"www.sewoongh.co.kr/","estbDd":"19940409","drTotCnt":21,"mdeptSdrCnt":20,"lat":35.21454,"lng":129.10403},{"id":"cb6ea4dbe3f6","name":"세일병원","clCd":"21","clCdNm":"병원","sidoCd":"210000","sidoCdNm":"부산","sgguCdNm":"부산동구","addr":"부산광역시 동구 중앙대로 317, (초량동, 세일병원)","phone":"051-464-8110","hospUrl":"","estbDd":"19830910","drTotCnt":9,"mdeptSdrCnt":9,"lat":35.12492,"lng":129.04464},{"id":"1634ab098a43","name":"세화병원","clCd":"21","clCdNm":"병원","sidoCd":"210000","sidoCdNm":"부산","sgguCdNm":"부산동래구","addr":"부산광역시 동래구 미남로132번길 28, (온천동)","phone":"051-505-1333","hospUrl":"http://www.swmedi.com","estbDd":"20030811","drTotCnt":8,"mdeptSdrCnt":7,"lat":35.20592,"lng":129.07118},{"id":"42e2caa61b47","name":"세흥병원","clCd":"21","clCdNm":"병원","sidoCd":"210000","sidoCdNm":"부산","sgguCdNm":"부산진구","addr":"부산광역시 부산진구 중앙대로 805, 지하2~지상10 층 (부전동)","phone":"051-819-0173","hospUrl":"http://www.sehunghospital.co.kr","estbDd":"20090226","drTotCnt":16,"mdeptSdrCnt":16,"lat":35.16377,"lng":129.06321},{"id":"366e267684be","name":"센텀상쾌한병원","clCd":"21","clCdNm":"병원","sidoCd":"210000","sidoCdNm":"부산","sgguCdNm":"부산해운대구","addr":"부산광역시 해운대구 재반로 169, (재송동)","phone":"051-784-8276","hospUrl":"","estbDd":"20250418","drTotCnt":2,"mdeptSdrCnt":2,"lat":35.19303,"lng":129.12889},{"id":"0f0788ee749d","name":"센텀아동병원","clCd":"21","clCdNm":"병원","sidoCd":"210000","sidoCdNm":"부산","sgguCdNm":"부산해운대구","addr":"부산광역시 해운대구 해운대로 407, 6층 (우동, 신세계프라자)","phone":"743-1588","hospUrl":"","estbDd":"20130110","drTotCnt":4,"mdeptSdrCnt":4,"lat":35.16783,"lng":129.14068},{"id":"ea0f28e01b88","name":"소나무병원","clCd":"21","clCdNm":"병원","sidoCd":"210000","sidoCdNm":"부산","sgguCdNm":"부산사하구","addr":"부산광역시 사하구 까치고개로 79-2, 지하1~2층 전부, 1층 일부, 2~4층 전부 (괴정동)","phone":"051-791-2727","hospUrl":"","estbDd":"20241223","drTotCnt":3,"mdeptSdrCnt":3,"lat":35.10573,"lng":129.00955},{"id":"8866e6e3523c","name":"수영어린이병원","clCd":"21","clCdNm":"병원","sidoCd":"210000","sidoCdNm":"부산","sgguCdNm":"부산수영구","addr":"부산광역시 수영구 수영로 671, 2층~3층 (광안동)","phone":"051-753-3579","hospUrl":"","estbDd":"20160913","drTotCnt":3,"mdeptSdrCnt":3,"lat":35.16576,"lng":129.11448},{"id":"2743245238e4","name":"순병원","clCd":"21","clCdNm":"병원","sidoCd":"210000","sidoCdNm":"부산","sgguCdNm":"부산금정구","addr":"부산광역시 금정구 중앙대로 1701, (부곡동)","phone":"051-515-0005","hospUrl":"http://www.soon-soon.com","estbDd":"20110620","drTotCnt":18,"mdeptSdrCnt":18,"lat":35.23648,"lng":129.09169},{"id":"9068fb524acd","name":"시원항병원","clCd":"21","clCdNm":"병원","sidoCd":"210000","sidoCdNm":"부산","sgguCdNm":"부산북구","addr":"부산광역시 북구 금곡대로 27, 더청명빌딩 5~10층 (덕천동)","phone":"331-7275","hospUrl":"http://xn--vv4bi6ex9p.com/","estbDd":"20180705","drTotCnt":4,"mdeptSdrCnt":4,"lat":35.21232,"lng":129.00415},{"id":"d412869ca23c","name":"아이(i)서울병원","clCd":"21","clCdNm":"병원","sidoCd":"210000","sidoCdNm":"부산","sgguCdNm":"부산영도구","addr":"부산광역시 영도구 영선대로 75, 삼호빌딩 (영선동2가)","phone":"730-8300","hospUrl":"","estbDd":"20161010","drTotCnt":5,"mdeptSdrCnt":4,"lat":35.08778,"lng":129.04171},{"id":"2b7589429596","name":"에덴어린이병원","clCd":"21","clCdNm":"병원","sidoCd":"210000","sidoCdNm":"부산","sgguCdNm":"부산진구","addr":"부산광역시 부산진구 가야대로 649, 6~15층 (가야동)","phone":"051-710-3181","hospUrl":"","estbDd":"20211224","drTotCnt":4,"mdeptSdrCnt":4,"lat":35.15618,"lng":129.04261},{"id":"5db3930fbe4d","name":"에디스여성병원","clCd":"21","clCdNm":"병원","sidoCd":"210000","sidoCdNm":"부산","sgguCdNm":"부산사하구","addr":"부산광역시 사하구 낙동대로 361, (당리동)","phone":"051-206-0999","hospUrl":"","estbDd":"20071001","drTotCnt":4,"mdeptSdrCnt":4,"lat":35.1015,"lng":128.97787},{"id":"dc27d7868d2c","name":"에스병원(S병원)","clCd":"21","clCdNm":"병원","sidoCd":"210000","sidoCdNm":"부산","sgguCdNm":"부산영도구","addr":"부산광역시 영도구 동삼로 55-1, 지하2층, 2층~8층, 9층 일부 (동삼동)","phone":"051-412-7000","hospUrl":"","estbDd":"20200110","drTotCnt":"","mdeptSdrCnt":"","lat":35.07831,"lng":129.07004},{"id":"13cb143472f7","name":"엘리움병원","clCd":"21","clCdNm":"병원","sidoCd":"210000","sidoCdNm":"부산","sgguCdNm":"부산해운대구","addr":"부산광역시 해운대구 해운대로 794, 7~8층 (좌동, 삼정엘리움)","phone":"051-791-1006","hospUrl":"","estbDd":"20110819","drTotCnt":3,"mdeptSdrCnt":3,"lat":35.16882,"lng":129.17575},{"id":"365fc0532dda","name":"엘앤더슨병원","clCd":"21","clCdNm":"병원","sidoCd":"210000","sidoCdNm":"부산","sgguCdNm":"부산서구","addr":"부산광역시 서구 대신공원로 39, (서대신동3가)","phone":"051-291-0707","hospUrl":"","estbDd":"20180612","drTotCnt":1,"mdeptSdrCnt":1,"lat":35.12138,"lng":129.01674},{"id":"7214b322f0f2","name":"연세척병원","clCd":"21","clCdNm":"병원","sidoCd":"210000","sidoCdNm":"부산","sgguCdNm":"부산진구","addr":"부산광역시 부산진구 가야대로 715, 1층 일부, 2~4층 전부 (당감동)","phone":"1544-7750","hospUrl":"","estbDd":"20140922","drTotCnt":6,"mdeptSdrCnt":6,"lat":35.15763,"lng":129.04981},{"id":"0c486db01286","name":"연제일신병원","clCd":"21","clCdNm":"병원","sidoCd":"210000","sidoCdNm":"부산","sgguCdNm":"부산연제구","addr":"부산광역시 연제구 고분로 6, (연산동)","phone":"051-862-2002","hospUrl":"","estbDd":"20020306","drTotCnt":17,"mdeptSdrCnt":17,"lat":35.18567,"lng":129.08288},{"id":"abe400eff8e2","name":"우리들병원","clCd":"21","clCdNm":"병원","sidoCd":"210000","sidoCdNm":"부산","sgguCdNm":"부산동래구","addr":"부산광역시 동래구 중앙대로 1523, (온천동, SKHUBSKY)","phone":"051-559-2000","hospUrl":"","estbDd":"20061114","drTotCnt":15,"mdeptSdrCnt":15,"lat":35.22084,"lng":129.08553},{"id":"1c6ca7b9cf24","name":"워크재활병원","clCd":"21","clCdNm":"병원","sidoCd":"210000","sidoCdNm":"부산","sgguCdNm":"부산동래구","addr":"부산광역시 동래구 충렬대로 379, (안락동)","phone":"051-714-4119","hospUrl":"","estbDd":"20140827","drTotCnt":8,"mdeptSdrCnt":8,"lat":35.19769,"lng":129.10006},{"id":"7da0ff1defc5","name":"웰니스병원","clCd":"21","clCdNm":"병원","sidoCd":"210000","sidoCdNm":"부산","sgguCdNm":"부산연제구","addr":"부산광역시 연제구 반송로 52, (연산동)","phone":"051-850-0500","hospUrl":"www.uwellness.co.kr/","estbDd":"20041117","drTotCnt":9,"mdeptSdrCnt":8,"lat":35.18902,"lng":129.0859},{"id":"24aa8d309573","name":"웰하이여성아동병원","clCd":"21","clCdNm":"병원","sidoCd":"210000","sidoCdNm":"부산","sgguCdNm":"부산강서구","addr":"부산광역시 강서구 명지오션시티4로 95, 2~8, 10층 일부호 (명지동)","phone":"051-201-8854","hospUrl":"http://www.okmiso.co.kr","estbDd":"20190102","drTotCnt":6,"mdeptSdrCnt":6,"lat":35.08045,"lng":128.90395},{"id":"78b36edf5b76","name":"위대한탄생여성병원","clCd":"21","clCdNm":"병원","sidoCd":"210000","sidoCdNm":"부산","sgguCdNm":"부산연제구","addr":"부산광역시 연제구 중앙대로 1083, (연산동, 3~7층, 12층)","phone":"051-862-0010","hospUrl":"http://www.great-birth.com/","estbDd":"20130221","drTotCnt":7,"mdeptSdrCnt":7,"lat":35.18486,"lng":129.08014},{"id":"f642730b08c8","name":"위대항병원","clCd":"21","clCdNm":"병원","sidoCd":"210000","sidoCdNm":"부산","sgguCdNm":"부산남구","addr":"부산광역시 남구 수영로 241, (대연동)","phone":"051-928-9000","hospUrl":"","estbDd":"20130719","drTotCnt":2,"mdeptSdrCnt":2,"lat":35.13538,"lng":129.09296},{"id":"556410c64542","name":"의)청십자의료재단 행복한병원","clCd":"21","clCdNm":"병원","sidoCd":"210000","sidoCdNm":"부산","sgguCdNm":"부산진구","addr":"부산광역시 부산진구 봉수로 18, 지상 1층 일부, 2층 일부, 3층 일부 (전포동)","phone":"051-757-5119","hospUrl":"happymc.co.kr/","estbDd":"20080101","drTotCnt":3,"mdeptSdrCnt":3,"lat":35.14979,"lng":129.07005},{"id":"23f8da4b5f12","name":"의료법인 갑을의료재단 갑을녹산병원","clCd":"21","clCdNm":"병원","sidoCd":"210000","sidoCdNm":"부산","sgguCdNm":"부산강서구","addr":"부산광역시 강서구 녹산산단321로 24-8, (송정동)","phone":"051-974-8300","hospUrl":"www.bigmind.co.kr/bigmind.php","estbDd":"20090227","drTotCnt":17,"mdeptSdrCnt":14,"lat":35.09057,"lng":128.85331},{"id":"81cc29494209","name":"의료법인 상원의료재단 부산힘찬병원","clCd":"21","clCdNm":"병원","sidoCd":"210000","sidoCdNm":"부산","sgguCdNm":"부산동래구","addr":"부산광역시 동래구 충렬대로 255, (수안동)","phone":"1899-2555","hospUrl":"","estbDd":"20120914","drTotCnt":7,"mdeptSdrCnt":7,"lat":35.20143,"lng":129.08719},{"id":"bc866277a1b0","name":"의료법인 신생의료재단 센트럴병원","clCd":"21","clCdNm":"병원","sidoCd":"210000","sidoCdNm":"부산","sgguCdNm":"부산북구","addr":"부산광역시 북구 만덕대로 37, (덕천동)","phone":"1899-0058","hospUrl":"","estbDd":"20190321","drTotCnt":19,"mdeptSdrCnt":19,"lat":35.21134,"lng":129.00908},{"id":"55f7e8ce5f46","name":"의료법인 영재의료재단 큰솔2병원","clCd":"21","clCdNm":"병원","sidoCd":"210000","sidoCdNm":"부산","sgguCdNm":"부산사상구","addr":"부산광역시 사상구 학장로 189, (학장동)","phone":"051-322-0050","hospUrl":"","estbDd":"20190401","drTotCnt":4,"mdeptSdrCnt":4,"lat":35.14366,"lng":128.98722},{"id":"5dc132e41bc6","name":"의료법인 은빛의료재단 세하병원","clCd":"21","clCdNm":"병원","sidoCd":"210000","sidoCdNm":"부산","sgguCdNm":"부산동래구","addr":"부산광역시 동래구 충렬대로 258, 4-5층,12-13층 (낙민동)","phone":"051-751-1515","hospUrl":"http://se-ha.co.kr/","estbDd":"20100331","drTotCnt":3,"mdeptSdrCnt":3,"lat":35.20073,"lng":129.08731},{"id":"468930e6a01f","name":"의료법인 인당의료재단 구포부민병원","clCd":"21","clCdNm":"병원","sidoCd":"210000","sidoCdNm":"부산","sgguCdNm":"부산북구","addr":"부산광역시 북구 사상로 607, (구포동)","phone":"051-366-7000","hospUrl":"www.bumin.co.kr/gupo","estbDd":"20081030","drTotCnt":7,"mdeptSdrCnt":7,"lat":35.19831,"lng":128.99046},{"id":"1999ca8001d3","name":"의료법인 파란시티의료재단 부산항운병원","clCd":"21","clCdNm":"병원","sidoCd":"210000","sidoCdNm":"부산","sgguCdNm":"부산동래구","addr":"부산광역시 동래구 충렬대로348번길 1, (안락동)","phone":"051-580-2700","hospUrl":"","estbDd":"20000801","drTotCnt":9,"mdeptSdrCnt":9,"lat":35.19753,"lng":129.09638},{"id":"f9c738652c0f","name":"의료법인 한세의료재단 한세병원","clCd":"21","clCdNm":"병원","sidoCd":"210000","sidoCdNm":"부산","sgguCdNm":"부산해운대구","addr":"부산광역시 해운대구 세실로 31, 대승프라임 6층 (좌동)","phone":"051-702-6000","hospUrl":"","estbDd":"20111230","drTotCnt":2,"mdeptSdrCnt":2,"lat":35.16783,"lng":129.17907},{"id":"aeabf8363d1f","name":"의료법인 해올의료재단 힐마루병원","clCd":"21","clCdNm":"병원","sidoCd":"210000","sidoCdNm":"부산","sgguCdNm":"부산해운대구","addr":"부산광역시 해운대구 달맞이길117번나길 174, 힐마루병원 (중동)","phone":"051-715-6000","hospUrl":"","estbDd":"20160818","drTotCnt":5,"mdeptSdrCnt":3,"lat":35.16409,"lng":129.18523},{"id":"fe77719d0ebb","name":"의료법인고려의료재단부산고려병원","clCd":"21","clCdNm":"병원","sidoCd":"210000","sidoCdNm":"부산","sgguCdNm":"부산남구","addr":"부산광역시 남구 수영로 238, (대연동)","phone":"051-930-3000","hospUrl":"http://www.koreah.co.kr","estbDd":"20020422","drTotCnt":18,"mdeptSdrCnt":18,"lat":35.13487,"lng":129.09264},{"id":"650a00803675","name":"의료법인나라의료재단 드림나라병원","clCd":"21","clCdNm":"병원","sidoCd":"210000","sidoCdNm":"부산","sgguCdNm":"부산연제구","addr":"부산광역시 연제구 중앙대로 1175, (거제동)","phone":"051-853-3636","hospUrl":"","estbDd":"20121107","drTotCnt":1,"mdeptSdrCnt":1,"lat":35.19247,"lng":129.07969},{"id":"9f7a42e4d5fc","name":"의료법인명은의료재단 명은병원","clCd":"21","clCdNm":"병원","sidoCd":"210000","sidoCdNm":"부산","sgguCdNm":"부산연제구","addr":"부산광역시 연제구 월드컵대로 184, 명은 병원 (거제동)","phone":"051-852-0788","hospUrl":"http://www.myungeun.co.kr/","estbDd":"20130523","drTotCnt":3,"mdeptSdrCnt":3,"lat":35.18815,"lng":129.07669},{"id":"ae308fc99543","name":"의료법인성신의료재단 다대수병원","clCd":"21","clCdNm":"병원","sidoCd":"210000","sidoCdNm":"부산","sgguCdNm":"부산사하구","addr":"부산광역시 사하구 다대로 565, (다대동)","phone":"051-260-1000","hospUrl":"","estbDd":"20140822","drTotCnt":4,"mdeptSdrCnt":4,"lat":35.05593,"lng":128.97088},{"id":"2425c7bcc2b7","name":"의료법인센텀의료재단 서부산센텀병원","clCd":"21","clCdNm":"병원","sidoCd":"210000","sidoCdNm":"부산","sgguCdNm":"부산사상구","addr":"부산광역시 사상구 새벽로 226, (괘법동)","phone":"051-329-3000","hospUrl":"http://www.centumhospital.com","estbDd":"20090204","drTotCnt":11,"mdeptSdrCnt":11,"lat":35.16121,"lng":128.98456},{"id":"1b1c52e85baf","name":"의료법인송산의료재단 해양병원","clCd":"21","clCdNm":"병원","sidoCd":"210000","sidoCdNm":"부산","sgguCdNm":"부산중구","addr":"부산광역시 중구 광복로97번길 26-2, (동광동2가)","phone":"051-466-0008","hospUrl":"","estbDd":"20110526","drTotCnt":2,"mdeptSdrCnt":2,"lat":35.10097,"lng":129.0349},{"id":"9648b0e82d08","name":"의료법인아너의료재단 아름다운강산병원","clCd":"21","clCdNm":"병원","sidoCd":"210000","sidoCdNm":"부산","sgguCdNm":"부산금정구","addr":"부산광역시 금정구 공단로 7, (금사동)","phone":"051-526-7100","hospUrl":"","estbDd":"20070810","drTotCnt":8,"mdeptSdrCnt":8,"lat":35.2163,"lng":129.10992},{"id":"ba59dfdadb5f","name":"의료법인양경의료재단 중앙U병원","clCd":"21","clCdNm":"병원","sidoCd":"210000","sidoCdNm":"부산","sgguCdNm":"부산사하구","addr":"부산광역시 사하구 감천로 59, (감천동)","phone":"051-293-7766","hospUrl":"http://www.centu.co.kr/","estbDd":"20060929","drTotCnt":6,"mdeptSdrCnt":6,"lat":35.0904,"lng":128.999},{"id":"4e0a389ff8d3","name":"의료법인영재의료재단 큰솔병원","clCd":"21","clCdNm":"병원","sidoCd":"210000","sidoCdNm":"부산","sgguCdNm":"부산사상구","addr":"부산광역시 사상구 대동로 141, (학장동)","phone":"051-325-9700","hospUrl":"","estbDd":"20061017","drTotCnt":8,"mdeptSdrCnt":8,"lat":35.14092,"lng":128.98229},{"id":"9166282e413b","name":"의료법인정화의료재단봉생힐링병원","clCd":"21","clCdNm":"병원","sidoCd":"210000","sidoCdNm":"부산","sgguCdNm":"부산남구","addr":"부산광역시 남구 양지골로 241, (감만동)","phone":"051-668-6000","hospUrl":"","estbDd":"20230321","drTotCnt":5,"mdeptSdrCnt":5,"lat":35.11839,"lng":129.08396},{"id":"15fcc62bc0e4","name":"의료법인현백의료재단사상고려병원","clCd":"21","clCdNm":"병원","sidoCd":"210000","sidoCdNm":"부산","sgguCdNm":"부산사상구","addr":"부산광역시 사상구 사상로 282, 280일부 (덕포동)","phone":"051-301-8275","hospUrl":"","estbDd":"20080826","drTotCnt":2,"mdeptSdrCnt":2,"lat":35.16993,"lng":128.9828},{"id":"5f2424217de6","name":"이샘병원","clCd":"21","clCdNm":"병원","sidoCd":"210000","sidoCdNm":"부산","sgguCdNm":"부산진구","addr":"부산광역시 부산진구 황령대로 12, 지하1층(일부), 1층(일부), 2~4층, 5층(일부), 6~8층, 9층(일부), 10층(일부) (범천동)","phone":"051-631-2110","hospUrl":"","estbDd":"20160816","drTotCnt":36,"mdeptSdrCnt":36,"lat":35.14763,"lng":129.06115},{"id":"bb0474b6f066","name":"일광아동병원","clCd":"21","clCdNm":"병원","sidoCd":"210000","sidoCdNm":"부산","sgguCdNm":"부산기장군","addr":"부산광역시 기장군 일광읍 해빛6로 85-16, 일광청보리더스 6~9층","phone":"051-927-7582","hospUrl":"","estbDd":"20220823","drTotCnt":3,"mdeptSdrCnt":3,"lat":35.26564,"lng":129.22565},{"id":"851b867bb364","name":"장림한서병원","clCd":"21","clCdNm":"병원","sidoCd":"210000","sidoCdNm":"부산","sgguCdNm":"부산사하구","addr":"부산광역시 사하구 다대로 315, /다대로317 2층,3층(일부) (장림동)","phone":"051-262-3344","hospUrl":"http://www.janglimhanseo.com","estbDd":"19920116","drTotCnt":8,"mdeptSdrCnt":8,"lat":35.07413,"lng":128.97697},{"id":"7e232fbdfbc0","name":"재단법인 베스티안재단 베스티안부산병원","clCd":"21","clCdNm":"병원","sidoCd":"210000","sidoCdNm":"부산","sgguCdNm":"부산북구","addr":"부산광역시 북구 화명대로 1, (화명동)","phone":"051-332-7575","hospUrl":"","estbDd":"20100401","drTotCnt":5,"mdeptSdrCnt":5,"lat":35.23558,"lng":129.00862},{"id":"56b1cb2e9d0a","name":"재단법인 일신기독교선교회 맥켄지일신재활병원","clCd":"21","clCdNm":"병원","sidoCd":"210000","sidoCdNm":"부산","sgguCdNm":"부산북구","addr":"부산광역시 북구 금곡대로 133, (덕천동)","phone":"051-363-2331","hospUrl":"","estbDd":"20150327","drTotCnt":6,"mdeptSdrCnt":6,"lat":35.22099,"lng":129.00777},{"id":"5875c154e1a2","name":"재단법인 일신기독교선교회 화명일신기독병원","clCd":"21","clCdNm":"병원","sidoCd":"210000","sidoCdNm":"부산","sgguCdNm":"부산북구","addr":"부산광역시 북구 금곡대로 264, (화명동)","phone":"051-363-0331","hospUrl":"","estbDd":"19981224","drTotCnt":20,"mdeptSdrCnt":19,"lat":35.23183,"lng":129.01369},{"id":"5c2e4e969708","name":"정관우리아동병원","clCd":"21","clCdNm":"병원","sidoCd":"210000","sidoCdNm":"부산","sgguCdNm":"부산기장군","addr":"부산광역시 기장군 정관읍 정관중앙로 56, 프라임빌딩","phone":"051-727-7812","hospUrl":"","estbDd":"20101011","drTotCnt":5,"mdeptSdrCnt":5,"lat":35.32175,"lng":129.17954},{"id":"c8ff8d0e32f0","name":"정근안과병원","clCd":"21","clCdNm":"병원","sidoCd":"210000","sidoCdNm":"부산","sgguCdNm":"부산진구","addr":"부산광역시 부산진구 가야대로 767, 서면메디칼센터 1~4층(부전동) (부전동)","phone":"051-668-8000","hospUrl":"http://www.jlasik.co.kr","estbDd":"20130207","drTotCnt":6,"mdeptSdrCnt":6,"lat":35.15806,"lng":129.0555},{"id":"558d653d97b0","name":"제일여성병원","clCd":"21","clCdNm":"병원","sidoCd":"210000","sidoCdNm":"부산","sgguCdNm":"부산해운대구","addr":"부산광역시 해운대구 좌동로 66, (중동)","phone":"051-743-7431","hospUrl":"http://","estbDd":"20040802","drTotCnt":6,"mdeptSdrCnt":6,"lat":35.17073,"lng":129.17309},{"id":"666b9bc09410","name":"좋은날에 드라마여성병원","clCd":"21","clCdNm":"병원","sidoCd":"210000","sidoCdNm":"부산","sgguCdNm":"부산동래구","addr":"부산광역시 동래구 충렬대로 449, (안락동, 좋은날에드라마여성병원)","phone":"051-522-7575","hospUrl":"","estbDd":"20170529","drTotCnt":9,"mdeptSdrCnt":9,"lat":35.19611,"lng":129.1076},{"id":"cb8e214893da","name":"주성산 이진용맘병원","clCd":"21","clCdNm":"병원","sidoCd":"210000","sidoCdNm":"부산","sgguCdNm":"부산연제구","addr":"부산광역시 연제구 거제대로 295, 8~11층 (거제동)","phone":"051-868-6078","hospUrl":"","estbDd":"20141201","drTotCnt":1,"mdeptSdrCnt":1,"lat":35.19247,"lng":129.07814},{"id":"7477ae451ef7","name":"지온병원","clCd":"21","clCdNm":"병원","sidoCd":"210000","sidoCdNm":"부산","sgguCdNm":"부산금정구","addr":"부산광역시 금정구 온천장로 146, 지하1,지상3~11층 (장전동)","phone":"051-714-5770","hospUrl":"","estbDd":"20210331","drTotCnt":6,"mdeptSdrCnt":6,"lat":35.22356,"lng":129.08575},{"id":"355e75fe73de","name":"척시원병원","clCd":"21","clCdNm":"병원","sidoCd":"210000","sidoCdNm":"부산","sgguCdNm":"부산동구","addr":"부산광역시 동구 대영로 261, (초량동, 은성빌딩)","phone":"051-463-9119","hospUrl":"http://www.conehs.co.kr/","estbDd":"20120714","drTotCnt":8,"mdeptSdrCnt":8,"lat":35.11187,"lng":129.03926},{"id":"c1dd5cb2445d","name":"청맥병원","clCd":"21","clCdNm":"병원","sidoCd":"210000","sidoCdNm":"부산","sgguCdNm":"부산진구","addr":"부산광역시 부산진구 중앙대로 716-1, 지하1~지상6층 (부전동)","phone":"051-804-1119","hospUrl":"","estbDd":"20180403","drTotCnt":5,"mdeptSdrCnt":5,"lat":35.15669,"lng":129.05953},{"id":"c5082ef69888","name":"퀸즈파크여성병원","clCd":"21","clCdNm":"병원","sidoCd":"210000","sidoCdNm":"부산","sgguCdNm":"부산해운대구","addr":"부산광역시 해운대구 해운대로 794, 10~11층 (좌동)","phone":"051-715-4100","hospUrl":"","estbDd":"20190612","drTotCnt":6,"mdeptSdrCnt":6,"lat":35.16882,"lng":129.17575},{"id":"cd282df26559","name":"큐병원","clCd":"21","clCdNm":"병원","sidoCd":"210000","sidoCdNm":"부산","sgguCdNm":"부산사하구","addr":"부산광역시 사하구 낙동대로 408, (당리동)","phone":"051-207-4343","hospUrl":"","estbDd":"19950418","drTotCnt":9,"mdeptSdrCnt":9,"lat":35.10383,"lng":128.97388},{"id":"d5e3cda667a3","name":"큰힘병원","clCd":"21","clCdNm":"병원","sidoCd":"210000","sidoCdNm":"부산","sgguCdNm":"부산진구","addr":"부산광역시 부산진구 신천대로 246, 2층 (부암동, 메리움아파트)","phone":"051-715-7500","hospUrl":"","estbDd":"20230818","drTotCnt":7,"mdeptSdrCnt":7,"lat":35.16366,"lng":129.05117},{"id":"ca73117b4916","name":"파란시티병원","clCd":"21","clCdNm":"병원","sidoCd":"210000","sidoCdNm":"부산","sgguCdNm":"부산진구","addr":"부산광역시 부산진구 범일로 186, 지하1,지상5~12층 (범천동)","phone":"051-607-5300","hospUrl":"http://www.hangun.com","estbDd":"20180131","drTotCnt":9,"mdeptSdrCnt":9,"lat":35.14668,"lng":129.05963},{"id":"08e3d3781def","name":"파크병원","clCd":"21","clCdNm":"병원","sidoCd":"210000","sidoCdNm":"부산","sgguCdNm":"부산사하구","addr":"부산광역시 사하구 까치고개로 79-1, (괴정동)","phone":"051-201-8787","hospUrl":"","estbDd":"20200224","drTotCnt":2,"mdeptSdrCnt":1,"lat":35.10543,"lng":129.00994},{"id":"9a36c5b86b7e","name":"파크사이드재활의학병원","clCd":"21","clCdNm":"병원","sidoCd":"210000","sidoCdNm":"부산","sgguCdNm":"부산남구","addr":"부산광역시 남구 유엔평화로125번길 11-10, (대연동)","phone":"051-629-8000","hospUrl":"","estbDd":"20060925","drTotCnt":5,"mdeptSdrCnt":5,"lat":35.12518,"lng":129.09714},{"id":"3e3ce41a1952","name":"프라임병원","clCd":"21","clCdNm":"병원","sidoCd":"210000","sidoCdNm":"부산","sgguCdNm":"부산사하구","addr":"부산광역시 사하구 낙동남로 1410, (하단동)","phone":"051-202-7800","hospUrl":"www.disc21.co.kr/","estbDd":"20021226","drTotCnt":6,"mdeptSdrCnt":6,"lat":35.10588,"lng":128.96585},{"id":"0c95a450759c","name":"하나병원","clCd":"21","clCdNm":"병원","sidoCd":"210000","sidoCdNm":"부산","sgguCdNm":"부산사하구","addr":"부산광역시 사하구 다대로 311, (장림동)","phone":"051-266-2600","hospUrl":"www.pusanhana.co.kr/","estbDd":"20000531","drTotCnt":6,"mdeptSdrCnt":6,"lat":35.07451,"lng":128.97694},{"id":"afb5cca8070b","name":"한나병원","clCd":"21","clCdNm":"병원","sidoCd":"210000","sidoCdNm":"부산","sgguCdNm":"부산수영구","addr":"부산광역시 수영구 황령대로481번길 7, (남천동)","phone":"051-625-2300","hospUrl":"","estbDd":"20040612","drTotCnt":4,"mdeptSdrCnt":4,"lat":35.1392,"lng":129.10703},{"id":"0fb01642cd32","name":"한마음병원","clCd":"21","clCdNm":"병원","sidoCd":"210000","sidoCdNm":"부산","sgguCdNm":"부산해운대구","addr":"부산광역시 해운대구 달맞이길 30, 포디움동 2층 (중동, 엘시티)","phone":"051-744-1004","hospUrl":"https://www.han1004.co.kr/","estbDd":"20240906","drTotCnt":5,"mdeptSdrCnt":4,"lat":35.16106,"lng":129.16838},{"id":"422990946079","name":"한빛병원","clCd":"21","clCdNm":"병원","sidoCd":"210000","sidoCdNm":"부산","sgguCdNm":"부산연제구","addr":"부산광역시 연제구 과정로 140, 부산은행 4층~10층 (연산동)","phone":"051-645-2400","hospUrl":"","estbDd":"20161109","drTotCnt":4,"mdeptSdrCnt":3,"lat":35.18382,"lng":129.10749},{"id":"af70bfe433bc","name":"한사랑내과병원","clCd":"21","clCdNm":"병원","sidoCd":"210000","sidoCdNm":"부산","sgguCdNm":"부산북구","addr":"부산광역시 북구 만덕대로 38, (덕천동)","phone":"051-334-1001","hospUrl":"http://www.hsrhos.co.kr","estbDd":"19960624","drTotCnt":9,"mdeptSdrCnt":9,"lat":35.21076,"lng":129.00909},{"id":"f658994e202a","name":"한양류마디병원","clCd":"21","clCdNm":"병원","sidoCd":"210000","sidoCdNm":"부산","sgguCdNm":"부산연제구","addr":"부산광역시 연제구 과정로 272, (연산동)","phone":"051-752-1990","hospUrl":"","estbDd":"20140303","drTotCnt":8,"mdeptSdrCnt":8,"lat":35.18827,"lng":129.09771},{"id":"6d1cc0136664","name":"항스퀘어 병원","clCd":"21","clCdNm":"병원","sidoCd":"210000","sidoCdNm":"부산","sgguCdNm":"부산사하구","addr":"부산광역시 사하구 다대로 251, (장림동)","phone":"051-715-4242","hospUrl":"","estbDd":"20191227","drTotCnt":1,"mdeptSdrCnt":1,"lat":35.07992,"lng":128.97765},{"id":"9d4009bb1223","name":"해운대나눔과행복병원","clCd":"21","clCdNm":"병원","sidoCd":"210000","sidoCdNm":"부산","sgguCdNm":"부산해운대구","addr":"부산광역시 해운대구 좌동순환로 502, 이룸제이타워 3~9층 (중동)","phone":"051-744-0123","hospUrl":"","estbDd":"20100630","drTotCnt":18,"mdeptSdrCnt":17,"lat":35.16605,"lng":129.16902},{"id":"24842831e463","name":"해운대푸른바다병원","clCd":"21","clCdNm":"병원","sidoCd":"210000","sidoCdNm":"부산","sgguCdNm":"부산해운대구","addr":"부산광역시 해운대구 좌동순환로 505, 센트럴메디타워 (중동)","phone":"051-714-3501","hospUrl":"","estbDd":"20180102","drTotCnt":8,"mdeptSdrCnt":8,"lat":35.16567,"lng":129.16821},{"id":"65fb2f8b7871","name":"행복한어린이병원","clCd":"21","clCdNm":"병원","sidoCd":"210000","sidoCdNm":"부산","sgguCdNm":"부산강서구","addr":"부산광역시 강서구 명지국제1로 25, 우진메디컬프라 8~10층 (명지동)","phone":"051-264-9500","hospUrl":"http://www.happykiz.kr/","estbDd":"20120808","drTotCnt":4,"mdeptSdrCnt":4,"lat":35.09129,"lng":128.90335},{"id":"a62e1acc9576","name":"화명하나병원","clCd":"21","clCdNm":"병원","sidoCd":"210000","sidoCdNm":"부산","sgguCdNm":"부산북구","addr":"부산광역시 북구 화명신도시로 120, (화명동)","phone":"051-331-7275","hospUrl":"","estbDd":"20141106","drTotCnt":"","mdeptSdrCnt":"","lat":35.2346,"lng":129.01115},{"id":"b89e2e6a53dd","name":"화창한병원","clCd":"21","clCdNm":"병원","sidoCd":"210000","sidoCdNm":"부산","sgguCdNm":"부산금정구","addr":"부산광역시 금정구 중앙대로1685번길 12, 지하2~6층 (부곡동)","phone":"051-514-9119","hospUrl":"","estbDd":"20200730","drTotCnt":5,"mdeptSdrCnt":5,"lat":35.23524,"lng":129.09105},{"id":"3fb9ea35d88c","name":"효성시티병원","clCd":"21","clCdNm":"병원","sidoCd":"210000","sidoCdNm":"부산","sgguCdNm":"부산해운대구","addr":"부산광역시 해운대구 해운대로 135, (재송동)","phone":"051-709-3000","hospUrl":"http://www.hshos.com/","estbDd":"20070618","drTotCnt":11,"mdeptSdrCnt":11,"lat":35.1852,"lng":129.12148},{"id":"fff95aadc605","name":"휴병원","clCd":"21","clCdNm":"병원","sidoCd":"210000","sidoCdNm":"부산","sgguCdNm":"부산진구","addr":"부산광역시 부산진구 가야대로 713, 2~8, 10, 11~15층 (당감동)","phone":"051-803-9000","hospUrl":"","estbDd":"20061031","drTotCnt":12,"mdeptSdrCnt":12,"lat":35.15759,"lng":129.0495},{"id":"7ed00655640d","name":"힘내라병원","clCd":"21","clCdNm":"병원","sidoCd":"210000","sidoCdNm":"부산","sgguCdNm":"부산동구","addr":"부산광역시 동구 범일로 85, (범일동, 삼미85 빌딩)","phone":"051-711-9500","hospUrl":"","estbDd":"20150713","drTotCnt":9,"mdeptSdrCnt":9,"lat":35.13777,"lng":129.05891},{"id":"e5793d52c8d7","name":"(의)영님의료재단 개금중앙요양병원","clCd":"28","clCdNm":"요양병원","sidoCd":"210000","sidoCdNm":"부산","sgguCdNm":"부산진구","addr":"부산광역시 부산진구 개금온정로 5, 지하1,지상3층 (개금동, 성원상떼뷰)","phone":"051-582-7001","hospUrl":"http://www.개금중앙요양병원.kr/","estbDd":"20100816","drTotCnt":6,"mdeptSdrCnt":3,"lat":35.15376,"lng":129.02479},{"id":"c057a378944f","name":"(의)피터의료재단새소망요양병원","clCd":"28","clCdNm":"요양병원","sidoCd":"210000","sidoCdNm":"부산","sgguCdNm":"부산기장군","addr":"부산광역시 기장군 기장읍 기장해안로 552, (기장읍)","phone":"051-722-4848","hospUrl":"","estbDd":"20050317","drTotCnt":4,"mdeptSdrCnt":2,"lat":35.22283,"lng":129.2269},{"id":"a0f45d5cd00e","name":"가나안요양병원","clCd":"28","clCdNm":"요양병원","sidoCd":"210000","sidoCdNm":"부산","sgguCdNm":"부산수영구","addr":"부산광역시 수영구 수영로 563-1, 지하1~10층 (광안동)","phone":"051-752-8000","hospUrl":"","estbDd":"20190520","drTotCnt":5,"mdeptSdrCnt":3,"lat":35.15618,"lng":129.11242},{"id":"6ae874fb2431","name":"가족사랑 요양병원","clCd":"28","clCdNm":"요양병원","sidoCd":"210000","sidoCdNm":"부산","sgguCdNm":"부산진구","addr":"부산광역시 부산진구 새싹로 286, 4~9층 (초읍동)","phone":"051-806-1190","hospUrl":"","estbDd":"20051212","drTotCnt":6,"mdeptSdrCnt":4,"lat":35.18167,"lng":129.04731},{"id":"f2e789afc4a4","name":"강림요양병원","clCd":"28","clCdNm":"요양병원","sidoCd":"210000","sidoCdNm":"부산","sgguCdNm":"부산사상구","addr":"부산광역시 사상구 낙동대로 792, (엄궁동)","phone":"051-329-9000","hospUrl":"","estbDd":"20100423","drTotCnt":9,"mdeptSdrCnt":5,"lat":35.13128,"lng":128.97282},{"id":"8dea070ef334","name":"개금길요양병원","clCd":"28","clCdNm":"요양병원","sidoCd":"210000","sidoCdNm":"부산","sgguCdNm":"부산진구","addr":"부산광역시 부산진구 백양대로 252, 1~7층 (개금동)","phone":"051-711-1279","hospUrl":"","estbDd":"20170908","drTotCnt":5,"mdeptSdrCnt":3,"lat":35.15639,"lng":129.02322},{"id":"038e399ac48b","name":"경희요양병원","clCd":"28","clCdNm":"요양병원","sidoCd":"210000","sidoCdNm":"부산","sgguCdNm":"부산북구","addr":"부산광역시 북구 만덕대로 106, (덕천동)","phone":"051-333-8135","hospUrl":"","estbDd":"20100908","drTotCnt":4,"mdeptSdrCnt":2,"lat":35.2126,"lng":129.01643},{"id":"8cbd5eeb65e0","name":"곽요양병원","clCd":"28","clCdNm":"요양병원","sidoCd":"210000","sidoCdNm":"부산","sgguCdNm":"부산사하구","addr":"부산광역시 사하구 낙동남로 1361, (하단동)","phone":"051-207-5131","hospUrl":"","estbDd":"20070406","drTotCnt":6,"mdeptSdrCnt":4,"lat":35.10652,"lng":128.96072},{"id":"d71325c0d395","name":"광안더힐요양병원","clCd":"28","clCdNm":"요양병원","sidoCd":"210000","sidoCdNm":"부산","sgguCdNm":"부산수영구","addr":"부산광역시 수영구 수영로536번길 71, (광안동)","phone":"051-745-5200","hospUrl":"","estbDd":"20091216","drTotCnt":4,"mdeptSdrCnt":2,"lat":35.15274,"lng":129.11586},{"id":"7c12fad99eb3","name":"광안정다운요양병원","clCd":"28","clCdNm":"요양병원","sidoCd":"210000","sidoCdNm":"부산","sgguCdNm":"부산수영구","addr":"부산광역시 수영구 광안해변로 292, 3~6층 (민락동)","phone":"051-710-0119","hospUrl":"http://www.xn--sy2btbu0l81m8hbmk.kr","estbDd":"20110208","drTotCnt":6,"mdeptSdrCnt":4,"lat":35.15605,"lng":129.12559},{"id":"382794442b2a","name":"그랜드자연요양병원","clCd":"28","clCdNm":"요양병원","sidoCd":"210000","sidoCdNm":"부산","sgguCdNm":"부산남구","addr":"부산광역시 남구 황령대로 355-14, (대연동)","phone":"051-612-0075","hospUrl":"","estbDd":"20071108","drTotCnt":5,"mdeptSdrCnt":3,"lat":35.14686,"lng":129.09783},{"id":"88a61aeb592a","name":"금정의료소비자생활협동조합 금송요양병원","clCd":"28","clCdNm":"요양병원","sidoCd":"210000","sidoCdNm":"부산","sgguCdNm":"부산연제구","addr":"부산광역시 연제구 중앙대로 1078, (연산동, 4,5층)","phone":"051-581-5481","hospUrl":"","estbDd":"20130502","drTotCnt":5,"mdeptSdrCnt":3,"lat":35.18398,"lng":129.08054},{"id":"e9d0509bb25a","name":"금정형주요양병원","clCd":"28","clCdNm":"요양병원","sidoCd":"210000","sidoCdNm":"부산","sgguCdNm":"부산금정구","addr":"부산광역시 금정구 금강로 638, (남산동)","phone":"051-532-7533","hospUrl":"www.hjyoyang.co.kr/","estbDd":"20120807","drTotCnt":5,"mdeptSdrCnt":3,"lat":35.2642,"lng":129.0889},{"id":"73e5c6a4a739","name":"기장연세요양병원","clCd":"28","clCdNm":"요양병원","sidoCd":"210000","sidoCdNm":"부산","sgguCdNm":"부산기장군","addr":"부산광역시 기장군 기장읍 반송로 1644, (기장읍)","phone":"741-7525","hospUrl":"","estbDd":"20120409","drTotCnt":6,"mdeptSdrCnt":3,"lat":35.25073,"lng":129.21781},{"id":"369f5da051a7","name":"남산정요양병원","clCd":"28","clCdNm":"요양병원","sidoCd":"210000","sidoCdNm":"부산","sgguCdNm":"부산북구","addr":"부산광역시 북구 만덕대로 158, (덕천동)","phone":"051-332-5060","hospUrl":"http://www.nsj.or.kr","estbDd":"20070904","drTotCnt":5,"mdeptSdrCnt":3,"lat":35.21306,"lng":129.02196},{"id":"182c06860bd9","name":"노블레스요양병원","clCd":"28","clCdNm":"요양병원","sidoCd":"210000","sidoCdNm":"부산","sgguCdNm":"부산동래구","addr":"부산광역시 동래구 충렬대로 437, 안락동 요양병원 (안락동)","phone":"051-532-1005","hospUrl":"","estbDd":"20070319","drTotCnt":6,"mdeptSdrCnt":4,"lat":35.1967,"lng":129.10626},{"id":"2d225afbd15d","name":"다사랑요양병원","clCd":"28","clCdNm":"요양병원","sidoCd":"210000","sidoCdNm":"부산","sgguCdNm":"부산북구","addr":"부산광역시 북구 덕천로 339, (만덕동)","phone":"051-332-7800","hospUrl":"http://cafe.daum.net/dsr.","estbDd":"20061016","drTotCnt":"","mdeptSdrCnt":"","lat":35.20914,"lng":129.04076},{"id":"20db3d67b1c8","name":"다시봄요양병원","clCd":"28","clCdNm":"요양병원","sidoCd":"210000","sidoCdNm":"부산","sgguCdNm":"부산해운대구","addr":"부산광역시 해운대구 해운대로 604, 명성빌딩 5~10층 (우동)","phone":"051-741-5668","hospUrl":"","estbDd":"20070605","drTotCnt":5,"mdeptSdrCnt":3,"lat":35.16247,"lng":129.15735},{"id":"dec6e2afb913","name":"다온요양병원","clCd":"28","clCdNm":"요양병원","sidoCd":"210000","sidoCdNm":"부산","sgguCdNm":"부산수영구","addr":"부산광역시 수영구 남천서로20번길 49, (남천동)","phone":"051-935-3000","hospUrl":"","estbDd":"20160223","drTotCnt":5,"mdeptSdrCnt":3,"lat":35.14612,"lng":129.10694},{"id":"78871740aecd","name":"달맞이요양병원","clCd":"28","clCdNm":"요양병원","sidoCd":"210000","sidoCdNm":"부산","sgguCdNm":"부산해운대구","addr":"부산광역시 해운대구 달맞이길117번나길 30, (중동)","phone":"051-744-5275","hospUrl":"","estbDd":"20060530","drTotCnt":7,"mdeptSdrCnt":4,"lat":35.15841,"lng":129.18118},{"id":"10bb441f497f","name":"덕천요양병원","clCd":"28","clCdNm":"요양병원","sidoCd":"210000","sidoCdNm":"부산","sgguCdNm":"부산북구","addr":"부산광역시 북구 기찰로 2-1, (덕천동)","phone":"051-939-8800","hospUrl":"","estbDd":"20140603","drTotCnt":8,"mdeptSdrCnt":6,"lat":35.21118,"lng":129.00547},{"id":"9b27367c2fa6","name":"라파요양병원","clCd":"28","clCdNm":"요양병원","sidoCd":"210000","sidoCdNm":"부산","sgguCdNm":"부산사하구","addr":"부산광역시 사하구 다대로 544, 3-4층 (다대동, 진요빌딩)","phone":"051-262-3457","hospUrl":"","estbDd":"20100107","drTotCnt":5,"mdeptSdrCnt":3,"lat":35.05783,"lng":128.97098},{"id":"cc724364d719","name":"미남동의요양병원","clCd":"28","clCdNm":"요양병원","sidoCd":"210000","sidoCdNm":"부산","sgguCdNm":"부산동래구","addr":"부산광역시 동래구 아시아드대로 239-1, (온천동)","phone":"051-507-7714","hospUrl":"","estbDd":"20140701","drTotCnt":5,"mdeptSdrCnt":3,"lat":35.20545,"lng":129.06745},{"id":"b01afa78fe6c","name":"미소요양병원","clCd":"28","clCdNm":"요양병원","sidoCd":"210000","sidoCdNm":"부산","sgguCdNm":"부산해운대구","addr":"부산광역시 해운대구 아랫반송로6번길 37, (반송동)","phone":"051-543-9100","hospUrl":"","estbDd":"20070530","drTotCnt":4,"mdeptSdrCnt":2,"lat":35.22467,"lng":129.1465},{"id":"304842e5a772","name":"보람요양병원","clCd":"28","clCdNm":"요양병원","sidoCd":"210000","sidoCdNm":"부산","sgguCdNm":"부산금정구","addr":"부산광역시 금정구 중앙대로 1961, (구서동)","phone":"051-514-0075","hospUrl":"www.boram-hospital.co.kr/","estbDd":"20050518","drTotCnt":2,"mdeptSdrCnt":2,"lat":35.25939,"lng":129.09108},{"id":"7d4677f3f204","name":"보생요양병원","clCd":"28","clCdNm":"요양병원","sidoCd":"210000","sidoCdNm":"부산","sgguCdNm":"부산동구","addr":"부산광역시 동구 범일로 124, (범일동)","phone":"051-634-1121","hospUrl":"","estbDd":"20100519","drTotCnt":2,"mdeptSdrCnt":1,"lat":35.14096,"lng":129.05967},{"id":"6f2d5d0d8a30","name":"부산노인전문제2병원","clCd":"28","clCdNm":"요양병원","sidoCd":"210000","sidoCdNm":"부산","sgguCdNm":"부산연제구","addr":"부산광역시 연제구 월드컵대로 359, (거제동)","phone":"051-6072-0758","hospUrl":"","estbDd":"20071019","drTotCnt":5,"mdeptSdrCnt":4,"lat":35.18728,"lng":129.05924},{"id":"eb921ae00baf","name":"부산노인전문제3병원","clCd":"28","clCdNm":"요양병원","sidoCd":"210000","sidoCdNm":"부산","sgguCdNm":"부산해운대구","addr":"부산광역시 해운대구 해운대로469번가길 77, (우동)","phone":"051-780-5555","hospUrl":"www.busangh.com/","estbDd":"20121002","drTotCnt":7,"mdeptSdrCnt":4,"lat":35.16825,"lng":129.14737},{"id":"cdc09694e57f","name":"부산노인전문제4병원","clCd":"28","clCdNm":"요양병원","sidoCd":"210000","sidoCdNm":"부산","sgguCdNm":"부산사하구","addr":"부산광역시 사하구 동매로44번길 4, (하단동)","phone":"202-1370","hospUrl":"","estbDd":"20140901","drTotCnt":6,"mdeptSdrCnt":4,"lat":35.10244,"lng":128.96311},{"id":"8f90e0c8b189","name":"부산시노인전문제1병원","clCd":"28","clCdNm":"요양병원","sidoCd":"210000","sidoCdNm":"부산","sgguCdNm":"부산북구","addr":"부산광역시 북구 함박봉로 98, (만덕동)","phone":"051-342-7272","hospUrl":"http://www.busangh.co.kr","estbDd":"20050124","drTotCnt":5,"mdeptSdrCnt":4,"lat":35.20612,"lng":129.0282},{"id":"9f9fec9e101c","name":"사단법인청색회 연지그린요양병원","clCd":"28","clCdNm":"요양병원","sidoCd":"210000","sidoCdNm":"부산","sgguCdNm":"부산진구","addr":"부산광역시 부산진구 새싹로 186, (연지동)","phone":"051-928-6000","hospUrl":"","estbDd":"20121022","drTotCnt":4,"mdeptSdrCnt":2,"lat":35.17281,"lng":129.04969},{"id":"9fd5210ca937","name":"사랑요양병원","clCd":"28","clCdNm":"요양병원","sidoCd":"210000","sidoCdNm":"부산","sgguCdNm":"부산금정구","addr":"부산광역시 금정구 중앙대로 1590, (부곡동)","phone":"051-514-7277","hospUrl":"http://www.sarangmedicare.co.kr","estbDd":"20070522","drTotCnt":4,"mdeptSdrCnt":2,"lat":35.22658,"lng":129.08967},{"id":"d627cf1ede01","name":"사직요양병원","clCd":"28","clCdNm":"요양병원","sidoCd":"210000","sidoCdNm":"부산","sgguCdNm":"부산동래구","addr":"부산광역시 동래구 충렬대로 97, (온천동)","phone":"051-931-7000","hospUrl":"","estbDd":"20140916","drTotCnt":6,"mdeptSdrCnt":3,"lat":35.20735,"lng":129.07183},{"id":"60e8fdf106d7","name":"사회복지법인 동남복지재단 부산은빛요양병원","clCd":"28","clCdNm":"요양병원","sidoCd":"210000","sidoCdNm":"부산","sgguCdNm":"부산북구","addr":"부산광역시 북구 백양대로1048번길 10, (구포동)","phone":"051-333-0707","hospUrl":"","estbDd":"20150424","drTotCnt":5,"mdeptSdrCnt":3,"lat":35.19836,"lng":128.99662},{"id":"d4896297f244","name":"삼인요양병원","clCd":"28","clCdNm":"요양병원","sidoCd":"210000","sidoCdNm":"부산","sgguCdNm":"부산사상구","addr":"부산광역시 사상구 대동로 95, 5층, 8~10층 (학장동)","phone":"051-327-3333","hospUrl":"","estbDd":"20140904","drTotCnt":6,"mdeptSdrCnt":3,"lat":35.1385,"lng":128.97793},{"id":"8a28225a5f28","name":"새라새요양병원","clCd":"28","clCdNm":"요양병원","sidoCd":"210000","sidoCdNm":"부산","sgguCdNm":"부산남구","addr":"부산광역시 남구 석포로26번길 17, (감만동)","phone":"051-628-6005","hospUrl":"","estbDd":"20140929","drTotCnt":7,"mdeptSdrCnt":6,"lat":35.12183,"lng":129.08455},{"id":"6262e8d17c72","name":"서동제일요양병원","clCd":"28","clCdNm":"요양병원","sidoCd":"210000","sidoCdNm":"부산","sgguCdNm":"부산금정구","addr":"부산광역시 금정구 서동로 172, 지하1,2지상3~9층 (서동)","phone":"051-529-5500","hospUrl":"","estbDd":"20070920","drTotCnt":5,"mdeptSdrCnt":3,"lat":35.21439,"lng":129.1052},{"id":"9e571b036d99","name":"서울우리요양병원","clCd":"28","clCdNm":"요양병원","sidoCd":"210000","sidoCdNm":"부산","sgguCdNm":"부산북구","addr":"부산광역시 북구 화명대로 42, (화명동)","phone":"051-361-3500","hospUrl":"http://wooriyoyang.kr","estbDd":"20101217","drTotCnt":6,"mdeptSdrCnt":2,"lat":35.23441,"lng":129.01269},{"id":"088bdb35dfc2","name":"선안요양병원","clCd":"28","clCdNm":"요양병원","sidoCd":"210000","sidoCdNm":"부산","sgguCdNm":"부산사하구","addr":"부산광역시 사하구 다대로 616, (다대동)","phone":"051-600-3800","hospUrl":"","estbDd":"20151210","drTotCnt":3,"mdeptSdrCnt":1,"lat":35.05163,"lng":128.97051},{"id":"feb90e7b1f69","name":"선하요양병원","clCd":"28","clCdNm":"요양병원","sidoCd":"210000","sidoCdNm":"부산","sgguCdNm":"부산서구","addr":"부산광역시 서구 구덕로200번길 8, (부민동1가)","phone":"051-714-1714","hospUrl":"","estbDd":"20131119","drTotCnt":3,"mdeptSdrCnt":2,"lat":35.10239,"lng":129.02034},{"id":"4cc8d9542372","name":"성산현대요양병원","clCd":"28","clCdNm":"요양병원","sidoCd":"210000","sidoCdNm":"부산","sgguCdNm":"부산동래구","addr":"부산광역시 동래구 시실로 12, (명륜동)","phone":"051-555-6533","hospUrl":"","estbDd":"20061226","drTotCnt":6,"mdeptSdrCnt":3,"lat":35.2174,"lng":129.08537},{"id":"7b4a5e934bea","name":"세원요양병원","clCd":"28","clCdNm":"요양병원","sidoCd":"210000","sidoCdNm":"부산","sgguCdNm":"부산서구","addr":"부산광역시 서구 충무대로 246-246, 101동 2층 203호 (남부민동, 현대타운)","phone":"051-250-3000","hospUrl":"","estbDd":"20101108","drTotCnt":3,"mdeptSdrCnt":2,"lat":35.09254,"lng":129.02425},{"id":"3ca779bcdd55","name":"세인요양병원","clCd":"28","clCdNm":"요양병원","sidoCd":"210000","sidoCdNm":"부산","sgguCdNm":"부산동래구","addr":"부산광역시 동래구 여고로 5, (사직동)","phone":"051-501-7500","hospUrl":"","estbDd":"20210827","drTotCnt":8,"mdeptSdrCnt":5,"lat":35.19535,"lng":129.06458},{"id":"037347e9990d","name":"센텀이루다요양병원","clCd":"28","clCdNm":"요양병원","sidoCd":"210000","sidoCdNm":"부산","sgguCdNm":"부산해운대구","addr":"부산광역시 해운대구 APEC로 17, 센텀리더스마크, 1.2층일부, 3층, 5~8층 (우동)","phone":"051-608-7000","hospUrl":"","estbDd":"20140701","drTotCnt":9,"mdeptSdrCnt":6,"lat":35.16593,"lng":129.13243},{"id":"a78a4dd2e827","name":"센텀파크요양병원","clCd":"28","clCdNm":"요양병원","sidoCd":"210000","sidoCdNm":"부산","sgguCdNm":"부산해운대구","addr":"부산광역시 해운대구 재반로 137, (재송동)","phone":"051-781-2600","hospUrl":"","estbDd":"20231226","drTotCnt":8,"mdeptSdrCnt":5,"lat":35.19058,"lng":129.12707},{"id":"d47178c26d50","name":"센텀해인요양병원","clCd":"28","clCdNm":"요양병원","sidoCd":"210000","sidoCdNm":"부산","sgguCdNm":"부산수영구","addr":"부산광역시 수영구 수영로 671, 5층~11층 (광안동)","phone":"051-755-8555","hospUrl":"https://www.centumhaein.com","estbDd":"20160920","drTotCnt":6,"mdeptSdrCnt":5,"lat":35.16576,"lng":129.11448},{"id":"e90c37ab920b","name":"송도요양병원","clCd":"28","clCdNm":"요양병원","sidoCd":"210000","sidoCdNm":"부산","sgguCdNm":"부산서구","addr":"부산광역시 서구 암남공원로 522, (암남동)","phone":"051-244-3315","hospUrl":"www.songdohosp.co.kr/","estbDd":"20051117","drTotCnt":11,"mdeptSdrCnt":7,"lat":35.07974,"lng":129.01214},{"id":"f6c73743e2e3","name":"심당요양병원","clCd":"28","clCdNm":"요양병원","sidoCd":"210000","sidoCdNm":"부산","sgguCdNm":"부산중구","addr":"부산광역시 중구 동광길 179, (영주동)","phone":"051-464-1010","hospUrl":"www.simdang.co.kr/","estbDd":"20071205","drTotCnt":6,"mdeptSdrCnt":2,"lat":35.1106,"lng":129.03689},{"id":"a5b5064ef5ad","name":"아시아드 요양병원","clCd":"28","clCdNm":"요양병원","sidoCd":"210000","sidoCdNm":"부산","sgguCdNm":"부산연제구","addr":"부산광역시 연제구 월드컵대로 161, (연산동)","phone":"051-717-0123","hospUrl":"","estbDd":"20160407","drTotCnt":7,"mdeptSdrCnt":5,"lat":35.18677,"lng":129.07863},{"id":"00db967d0bea","name":"아하브요양병원","clCd":"28","clCdNm":"요양병원","sidoCd":"210000","sidoCdNm":"부산","sgguCdNm":"부산북구","addr":"부산광역시 북구 만덕고개길 84, 아하브병원 6층, 7층일부층 (만덕동)","phone":"051-333-8600","hospUrl":"","estbDd":"20031222","drTotCnt":2,"mdeptSdrCnt":1,"lat":35.21172,"lng":129.04893},{"id":"64f253c7144b","name":"양지요양병원","clCd":"28","clCdNm":"요양병원","sidoCd":"210000","sidoCdNm":"부산","sgguCdNm":"부산금정구","addr":"부산광역시 금정구 부곡로 56, 양지요양병원 (부곡동)","phone":"051-582-5757","hospUrl":"","estbDd":"20160316","drTotCnt":3,"mdeptSdrCnt":2,"lat":35.22108,"lng":129.08957},{"id":"4fafa7451628","name":"연산관자재요양병원","clCd":"28","clCdNm":"요양병원","sidoCd":"210000","sidoCdNm":"부산","sgguCdNm":"부산연제구","addr":"부산광역시 연제구 과정로 128, (연산동)","phone":"051-257-9898","hospUrl":"","estbDd":"20150508","drTotCnt":8,"mdeptSdrCnt":5,"lat":35.18289,"lng":129.1075},{"id":"672dcf1c3c0a","name":"연산인제요양병원","clCd":"28","clCdNm":"요양병원","sidoCd":"210000","sidoCdNm":"부산","sgguCdNm":"부산연제구","addr":"부산광역시 연제구 과정로 152, 4,5층 (연산동)","phone":"051-757-8007","hospUrl":"","estbDd":"20150629","drTotCnt":3,"mdeptSdrCnt":2,"lat":35.18507,"lng":129.10745},{"id":"9c48260b3395","name":"용당요양병원","clCd":"28","clCdNm":"요양병원","sidoCd":"210000","sidoCdNm":"부산","sgguCdNm":"부산남구","addr":"부산광역시 남구 신선로 429, (용당동)","phone":"051-625-3001","hospUrl":"","estbDd":"20130702","drTotCnt":4,"mdeptSdrCnt":3,"lat":35.12354,"lng":129.09913},{"id":"1c369ff158bb","name":"우리행복요양병원","clCd":"28","clCdNm":"요양병원","sidoCd":"210000","sidoCdNm":"부산","sgguCdNm":"부산연제구","addr":"부산광역시 연제구 과정로 130, (연산동, 1층(일부제외)∼8층)","phone":"051-759-9119","hospUrl":"","estbDd":"20070313","drTotCnt":5,"mdeptSdrCnt":3,"lat":35.18305,"lng":129.10746},{"id":"bbb0859c368a","name":"윌리스요양병원","clCd":"28","clCdNm":"요양병원","sidoCd":"210000","sidoCdNm":"부산","sgguCdNm":"부산남구","addr":"부산광역시 남구 수영로 185-7, (대연동)","phone":"051-638-7575","hospUrl":"www.willishospital.co.kr/","estbDd":"20070409","drTotCnt":6,"mdeptSdrCnt":4,"lat":35.13532,"lng":129.08658},{"id":"9f007659754a","name":"으뜸요양병원","clCd":"28","clCdNm":"요양병원","sidoCd":"210000","sidoCdNm":"부산","sgguCdNm":"부산동래구","addr":"부산광역시 동래구 충렬대로 120, (온천동)","phone":"051-500-1500","hospUrl":"","estbDd":"20070302","drTotCnt":5,"mdeptSdrCnt":3,"lat":35.20601,"lng":129.07348},{"id":"bef002a48317","name":"의)은성의료재단 좋은애인요양병원","clCd":"28","clCdNm":"요양병원","sidoCd":"210000","sidoCdNm":"부산","sgguCdNm":"부산동래구","addr":"부산광역시 동래구 충렬대로359번길 8, 좋은애인요양병원 지하2~지상8층 (안락동)","phone":"051-520-7700","hospUrl":"http://www.aein.or.kr","estbDd":"20061122","drTotCnt":9,"mdeptSdrCnt":6,"lat":35.19828,"lng":129.09857},{"id":"51fb7db14687","name":"의료법인 강혜의료재단 사랑의요양병원","clCd":"28","clCdNm":"요양병원","sidoCd":"210000","sidoCdNm":"부산","sgguCdNm":"부산사상구","addr":"부산광역시 사상구 대동로 2, 사랑의요양병원 본관 2~10층 (엄궁동)","phone":"051-327-9000","hospUrl":"","estbDd":"20060901","drTotCnt":7,"mdeptSdrCnt":5,"lat":35.13163,"lng":128.97275},{"id":"b79d836ec130","name":"의료법인 강혜의료재단 온천사랑의요양병원","clCd":"28","clCdNm":"요양병원","sidoCd":"210000","sidoCdNm":"부산","sgguCdNm":"부산동래구","addr":"부산광역시 동래구 금강공원로 40, (온천동)","phone":"051-500-9000","hospUrl":"","estbDd":"20161229","drTotCnt":12,"mdeptSdrCnt":9,"lat":35.21914,"lng":129.08021},{"id":"614fc829b45d","name":"의료법인 굿타임의료재단 타임요양병원","clCd":"28","clCdNm":"요양병원","sidoCd":"210000","sidoCdNm":"부산","sgguCdNm":"부산사하구","addr":"부산광역시 사하구 다대로 607, (다대동)","phone":"791-2222","hospUrl":"","estbDd":"20170914","drTotCnt":6,"mdeptSdrCnt":3,"lat":35.05214,"lng":128.9713},{"id":"05673c89191f","name":"의료법인 나라의료재단 스마트나라요양병원","clCd":"28","clCdNm":"요양병원","sidoCd":"210000","sidoCdNm":"부산","sgguCdNm":"부산사상구","addr":"부산광역시 사상구 낙동대로 1026, (감전동)","phone":"051-995-7799","hospUrl":"","estbDd":"20230120","drTotCnt":11,"mdeptSdrCnt":8,"lat":35.15165,"lng":128.97295},{"id":"31d4cc19d618","name":"의료법인 다정의료재단 금산요양병원","clCd":"28","clCdNm":"요양병원","sidoCd":"210000","sidoCdNm":"부산","sgguCdNm":"부산연제구","addr":"부산광역시 연제구 중앙대로 1078, (연산동)","phone":"051-867-3171","hospUrl":"http://cityhospital.kr","estbDd":"20090603","drTotCnt":"","mdeptSdrCnt":"","lat":35.18398,"lng":129.08054},{"id":"4899b1e459a9","name":"의료법인 동일의료재단 금정나라요양병원","clCd":"28","clCdNm":"요양병원","sidoCd":"210000","sidoCdNm":"부산","sgguCdNm":"부산금정구","addr":"부산광역시 금정구 무학송로 143, (부곡동)","phone":"051-513-1284","hospUrl":"http://naranetwork.net","estbDd":"20061127","drTotCnt":7,"mdeptSdrCnt":5,"lat":35.24393,"lng":129.09383},{"id":"0a1f413d8e69","name":"의료법인 사랑나눔의료재단 에보스요양병원","clCd":"28","clCdNm":"요양병원","sidoCd":"210000","sidoCdNm":"부산","sgguCdNm":"부산진구","addr":"부산광역시 부산진구 동천로107번길 8, (부전동)","phone":"051-816-9595","hospUrl":"","estbDd":"20170607","drTotCnt":3,"mdeptSdrCnt":2,"lat":35.15843,"lng":129.06178},{"id":"eecb3f4c6088","name":"의료법인 서원의료재단 감로수요양병원","clCd":"28","clCdNm":"요양병원","sidoCd":"210000","sidoCdNm":"부산","sgguCdNm":"부산사상구","addr":"부산광역시 사상구 덕상로 116-38, (모라동)","phone":"051-315-0030","hospUrl":"","estbDd":"20170602","drTotCnt":3,"mdeptSdrCnt":2,"lat":35.1817,"lng":128.99247},{"id":"603e890e7295","name":"의료법인 성원의료재단 감천참편한요양병원","clCd":"28","clCdNm":"요양병원","sidoCd":"210000","sidoCdNm":"부산","sgguCdNm":"부산사하구","addr":"부산광역시 사하구 감천로 125, (감천동, 우리빌딩)","phone":"051-204-9998","hospUrl":"http://www.champyonhan.com/","estbDd":"20060912","drTotCnt":8,"mdeptSdrCnt":5,"lat":35.08769,"lng":129.00561},{"id":"f59371724e7b","name":"의료법인 성원의료재단 영도참편한 요양병원","clCd":"28","clCdNm":"요양병원","sidoCd":"210000","sidoCdNm":"부산","sgguCdNm":"부산영도구","addr":"부산광역시 영도구 동삼서로 21, (동삼동, 영도참편한요양병원)","phone":"403-9971","hospUrl":"","estbDd":"20120613","drTotCnt":8,"mdeptSdrCnt":5,"lat":35.08086,"lng":129.0687},{"id":"b427ea9ccce0","name":"의료법인 성은의료재단 연산요양병원","clCd":"28","clCdNm":"요양병원","sidoCd":"210000","sidoCdNm":"부산","sgguCdNm":"부산연제구","addr":"부산광역시 연제구 배산북로 50, (연산동, C동 1~6층(일부 제외))","phone":"051-866-5300","hospUrl":"","estbDd":"20141001","drTotCnt":6,"mdeptSdrCnt":4,"lat":35.17834,"lng":129.0947},{"id":"74f737dee9e0","name":"의료법인 신암의료재단 제일요양병원","clCd":"28","clCdNm":"요양병원","sidoCd":"210000","sidoCdNm":"부산","sgguCdNm":"부산사하구","addr":"부산광역시 사하구 동매로44번길 8, (하단동)","phone":"202-8899","hospUrl":"","estbDd":"20180212","drTotCnt":2,"mdeptSdrCnt":1,"lat":35.10287,"lng":128.96312},{"id":"b5d5ea2944d6","name":"의료법인 영신의료재단 동래유유요양병원","clCd":"28","clCdNm":"요양병원","sidoCd":"210000","sidoCdNm":"부산","sgguCdNm":"부산동래구","addr":"부산광역시 동래구 금강로 64, 동래유유요양병원 지하2~지상8층 (온천동)","phone":"051-555-7588","hospUrl":"","estbDd":"20081226","drTotCnt":5,"mdeptSdrCnt":3,"lat":35.21491,"lng":129.07755},{"id":"e0c7a01ab3bc","name":"의료법인 영파의료재단 규림요양병원","clCd":"28","clCdNm":"요양병원","sidoCd":"210000","sidoCdNm":"부산","sgguCdNm":"부산금정구","addr":"부산광역시 금정구 금샘로 59, (장전동)","phone":"051-582-1234","hospUrl":"","estbDd":"20051014","drTotCnt":8,"mdeptSdrCnt":5,"lat":35.23073,"lng":129.07599},{"id":"35348f07090d","name":"의료법인 온그룹의료재단 온요양병원","clCd":"28","clCdNm":"요양병원","sidoCd":"210000","sidoCdNm":"부산","sgguCdNm":"부산진구","addr":"부산광역시 부산진구 가야대로 721, 신관 8층 일부, 9~14층 전부, 15층 일부, 16층 전부, 본관 12층 일부 (당감동)","phone":"051-607-0810","hospUrl":"","estbDd":"20180122","drTotCnt":17,"mdeptSdrCnt":10,"lat":35.1579,"lng":129.04996},{"id":"5e7e3e021f00","name":"의료법인 온의료재단 신세계요양병원","clCd":"28","clCdNm":"요양병원","sidoCd":"210000","sidoCdNm":"부산","sgguCdNm":"부산동래구","addr":"부산광역시 동래구 온천장로 40, (온천동)","phone":"051-554-8811","hospUrl":"","estbDd":"20091110","drTotCnt":5,"mdeptSdrCnt":3,"lat":35.21568,"lng":129.07971},{"id":"a38add6ba50a","name":"의료법인 윤재의료재단 금강요양병원","clCd":"28","clCdNm":"요양병원","sidoCd":"210000","sidoCdNm":"부산","sgguCdNm":"부산동래구","addr":"부산광역시 동래구 금강공원로 32, (온천동)","phone":"051-555-5850","hospUrl":"","estbDd":"20100423","drTotCnt":7,"mdeptSdrCnt":5,"lat":35.21918,"lng":129.08109},{"id":"c84dfa14b127","name":"의료법인 윤재의료재단 금정요양병원","clCd":"28","clCdNm":"요양병원","sidoCd":"210000","sidoCdNm":"부산","sgguCdNm":"부산동래구","addr":"부산광역시 동래구 금강로 141, (온천동)","phone":"051-581-5757","hospUrl":"","estbDd":"20110614","drTotCnt":3,"mdeptSdrCnt":2,"lat":35.22131,"lng":129.08054},{"id":"34bb36582a8e","name":"의료법인 은빛의료재단 참사랑요양병원","clCd":"28","clCdNm":"요양병원","sidoCd":"210000","sidoCdNm":"부산","sgguCdNm":"부산동래구","addr":"부산광역시 동래구 충렬대로 258, 참사랑요양병원 1-3일부,6-11층 (낙민동)","phone":"051-553-0050","hospUrl":"http://www.cham-love.kr","estbDd":"20060621","drTotCnt":9,"mdeptSdrCnt":6,"lat":35.20073,"lng":129.08731},{"id":"1fde6008d571","name":"의료법인 은성의료재단 좋은리버뷰요양병원","clCd":"28","clCdNm":"요양병원","sidoCd":"210000","sidoCdNm":"부산","sgguCdNm":"부산북구","addr":"부산광역시 북구 금곡대로 586, (금곡동)","phone":"051-995-0900","hospUrl":"","estbDd":"20130403","drTotCnt":8,"mdeptSdrCnt":5,"lat":35.2596,"lng":129.0138},{"id":"eced8c7c9fc9","name":"의료법인 은성의료재단 좋은부산요양병원","clCd":"28","clCdNm":"요양병원","sidoCd":"210000","sidoCdNm":"부산","sgguCdNm":"부산사상구","addr":"부산광역시 사상구 학감대로39번길 67, (학장동)","phone":"051-326-0900","hospUrl":"","estbDd":"20100719","drTotCnt":7,"mdeptSdrCnt":5,"lat":35.1335,"lng":128.99651},{"id":"a694f1f9b986","name":"의료법인 은성의료재단 좋은주례요양병원","clCd":"28","clCdNm":"요양병원","sidoCd":"210000","sidoCdNm":"부산","sgguCdNm":"부산사상구","addr":"부산광역시 사상구 가야대로 264, (주례동)","phone":"051-325-0300","hospUrl":"","estbDd":"20140429","drTotCnt":"","mdeptSdrCnt":"","lat":35.15006,"lng":129.00147},{"id":"09e9bac187b1","name":"의료법인 일혜의료재단 행복한요양병원","clCd":"28","clCdNm":"요양병원","sidoCd":"210000","sidoCdNm":"부산","sgguCdNm":"부산영도구","addr":"부산광역시 영도구 태종로372번길 41, (청학동)","phone":"417-9400","hospUrl":"","estbDd":"20161123","drTotCnt":"","mdeptSdrCnt":"","lat":35.09204,"lng":129.06374},{"id":"fe61ae8e748b","name":"의료법인 장수의료재단 동래요양병원","clCd":"28","clCdNm":"요양병원","sidoCd":"210000","sidoCdNm":"부산","sgguCdNm":"부산동래구","addr":"부산광역시 동래구 명륜로 147, (명륜동)","phone":"051-557-7011","hospUrl":"","estbDd":"20111031","drTotCnt":3,"mdeptSdrCnt":2,"lat":35.20694,"lng":129.08176},{"id":"e28a134b75ed","name":"의료법인 주현의료재단 사상중앙요양병원","clCd":"28","clCdNm":"요양병원","sidoCd":"210000","sidoCdNm":"부산","sgguCdNm":"부산사상구","addr":"부산광역시 사상구 삼덕로5번길 85, (삼락동, 지하1층~지상4층)","phone":"051-305-7002","hospUrl":"","estbDd":"20130902","drTotCnt":4,"mdeptSdrCnt":2,"lat":35.1784,"lng":128.97822},{"id":"c138d4466c9f","name":"의료법인 진연의료재단 감천문화요양병원","clCd":"28","clCdNm":"요양병원","sidoCd":"210000","sidoCdNm":"부산","sgguCdNm":"부산사하구","addr":"부산광역시 사하구 옥천로 38, (감천동)","phone":"051-293-0013","hospUrl":"","estbDd":"20130501","drTotCnt":"","mdeptSdrCnt":"","lat":35.09039,"lng":129.00676},{"id":"18d3d34ae4b8","name":"의료법인 참사람의료재단 금곡효요양병원","clCd":"28","clCdNm":"요양병원","sidoCd":"210000","sidoCdNm":"부산","sgguCdNm":"부산북구","addr":"부산광역시 북구 금곡대로 458, 6층 (금곡동, 금곡월드프라자)","phone":"051-927-7000","hospUrl":"","estbDd":"20130104","drTotCnt":3,"mdeptSdrCnt":2,"lat":35.24912,"lng":129.01329},{"id":"8b13f25d8ebe","name":"의료법인 천지의료재단 금샘요양병원","clCd":"28","clCdNm":"요양병원","sidoCd":"210000","sidoCdNm":"부산","sgguCdNm":"부산금정구","addr":"부산광역시 금정구 남산냇길 111, (청룡동)","phone":"051-931-0119","hospUrl":"","estbDd":"20120816","drTotCnt":3,"mdeptSdrCnt":2,"lat":35.27685,"lng":129.08828},{"id":"0e430acc6893","name":"의료법인 청림의료재단 온천요양병원","clCd":"28","clCdNm":"요양병원","sidoCd":"210000","sidoCdNm":"부산","sgguCdNm":"부산금정구","addr":"부산광역시 금정구 부곡로 36, 2-4층 (부곡동, 애플타워)","phone":"051-529-2408","hospUrl":"http://www.ohsilver.co.kr","estbDd":"20090708","drTotCnt":"","mdeptSdrCnt":"","lat":35.21992,"lng":129.08833},{"id":"8a0481255502","name":"의료법인 청송의료재단 해뜨락요양병원","clCd":"28","clCdNm":"요양병원","sidoCd":"210000","sidoCdNm":"부산","sgguCdNm":"부산북구","addr":"부산광역시 북구 덕천로381번길 9-3, (만덕동)","phone":"051-333-1201","hospUrl":"","estbDd":"20131230","drTotCnt":5,"mdeptSdrCnt":3,"lat":35.21044,"lng":129.04469},{"id":"c4ba75d0c1c7","name":"의료법인 패밀리의료재단 만덕힐요양병원","clCd":"28","clCdNm":"요양병원","sidoCd":"210000","sidoCdNm":"부산","sgguCdNm":"부산북구","addr":"부산광역시 북구 만덕고개길 60-12, (만덕동)","phone":"051-332-1114","hospUrl":"","estbDd":"20130515","drTotCnt":2,"mdeptSdrCnt":1,"lat":35.21249,"lng":129.04665},{"id":"61645fac776f","name":"의료법인 한세의료재단 효은요양병원","clCd":"28","clCdNm":"요양병원","sidoCd":"210000","sidoCdNm":"부산","sgguCdNm":"부산해운대구","addr":"부산광역시 해운대구 달맞이길117번나길 24, (중동)","phone":"051-746-8787","hospUrl":"","estbDd":"20080110","drTotCnt":3,"mdeptSdrCnt":2,"lat":35.15824,"lng":129.18089},{"id":"2b3f6639efae","name":"의료법인 허명의료재단 구포일심요양병원","clCd":"28","clCdNm":"요양병원","sidoCd":"210000","sidoCdNm":"부산","sgguCdNm":"부산북구","addr":"부산광역시 북구 낙동대로 1678, (구포동)","phone":"051-341-0119","hospUrl":"","estbDd":"20130820","drTotCnt":4,"mdeptSdrCnt":2,"lat":35.20464,"lng":128.99552},{"id":"e71d4afeb66b","name":"의료법인 현백의료재단 사상제일요양병원","clCd":"28","clCdNm":"요양병원","sidoCd":"210000","sidoCdNm":"부산","sgguCdNm":"부산사상구","addr":"부산광역시 사상구 사상로 280, (덕포동)","phone":"051-301-0011","hospUrl":"","estbDd":"20180110","drTotCnt":5,"mdeptSdrCnt":4,"lat":35.16978,"lng":128.98275},{"id":"79b28d884df3","name":"의료법인 황산의료재단 황산요양병원","clCd":"28","clCdNm":"요양병원","sidoCd":"210000","sidoCdNm":"부산","sgguCdNm":"부산연제구","addr":"부산광역시 연제구 쌍미천로84번길 37, (연산동)","phone":"051-867-4428","hospUrl":"","estbDd":"20090115","drTotCnt":3,"mdeptSdrCnt":1,"lat":35.18188,"lng":129.08814},{"id":"35684a4704c5","name":"의료법인 희경의료재단 한국요양병원","clCd":"28","clCdNm":"요양병원","sidoCd":"210000","sidoCdNm":"부산","sgguCdNm":"부산사상구","addr":"부산광역시 사상구 광장로 33-33, (괘법동)","phone":"051-328-8251","hospUrl":"http://www.hankookhos.com/default.htm","estbDd":"20071101","drTotCnt":6,"mdeptSdrCnt":3,"lat":35.16331,"lng":128.98044},{"id":"f89452fc797f","name":"의료법인강혜의료재단남천사랑의요양병원","clCd":"28","clCdNm":"요양병원","sidoCd":"210000","sidoCdNm":"부산","sgguCdNm":"부산수영구","addr":"부산광역시 수영구 수영로 456, (남천동)","phone":"051-625-1122","hospUrl":"http://insarang.or.kr/gnuboard4/","estbDd":"20110418","drTotCnt":7,"mdeptSdrCnt":5,"lat":35.14644,"lng":129.11032},{"id":"f7c87d4fa4f7","name":"의료법인건강한사람들의료재단 프리마요양병원","clCd":"28","clCdNm":"요양병원","sidoCd":"210000","sidoCdNm":"부산","sgguCdNm":"부산연제구","addr":"부산광역시 연제구 고분로 4, (연산동)","phone":"051-867-7500","hospUrl":"","estbDd":"20110614","drTotCnt":4,"mdeptSdrCnt":2,"lat":35.18566,"lng":129.08269},{"id":"d67a6fd593a5","name":"의료법인나눔의료재단 행림요양병원","clCd":"28","clCdNm":"요양병원","sidoCd":"210000","sidoCdNm":"부산","sgguCdNm":"부산금정구","addr":"부산광역시 금정구 중앙대로 1905, (구서동)","phone":"051-517-8211","hospUrl":"","estbDd":"20080704","drTotCnt":4,"mdeptSdrCnt":3,"lat":35.25445,"lng":129.09104},{"id":"94bed29df4ef","name":"의료법인나라의료재단 부산나라요양병원","clCd":"28","clCdNm":"요양병원","sidoCd":"210000","sidoCdNm":"부산","sgguCdNm":"부산동구","addr":"부산광역시 동구 중앙대로 421, (좌천동)","phone":"051-646-0505","hospUrl":"http://jeil.naramef.com","estbDd":"20070306","drTotCnt":10,"mdeptSdrCnt":6,"lat":35.13224,"lng":129.05184},{"id":"203ed994399c","name":"의료법인나라의료재단중앙나라요양병원","clCd":"28","clCdNm":"요양병원","sidoCd":"210000","sidoCdNm":"부산","sgguCdNm":"부산중구","addr":"부산광역시 중구 중앙대로 69, (중앙동3가)","phone":"051-246-0505","hospUrl":"","estbDd":"20051215","drTotCnt":8,"mdeptSdrCnt":6,"lat":35.10385,"lng":129.0359},{"id":"d860704dd8ce","name":"의료법인다평의료재단 센텀휴요양병원","clCd":"28","clCdNm":"요양병원","sidoCd":"210000","sidoCdNm":"부산","sgguCdNm":"부산사하구","addr":"부산광역시 사하구 다대로277번길 31, (장림동)","phone":"264-0100","hospUrl":"","estbDd":"20130722","drTotCnt":4,"mdeptSdrCnt":2,"lat":35.07691,"lng":128.97897},{"id":"7269fde660f5","name":"의료법인대성사랑의료재단 제일요양병원","clCd":"28","clCdNm":"요양병원","sidoCd":"210000","sidoCdNm":"부산","sgguCdNm":"부산금정구","addr":"부산광역시 금정구 서부로 56, (서동)","phone":"051-527-3800","hospUrl":"","estbDd":"20050822","drTotCnt":2,"mdeptSdrCnt":1,"lat":35.2183,"lng":129.10099},{"id":"696c959c573b","name":"의료법인동일의료재단수영나라요양병원","clCd":"28","clCdNm":"요양병원","sidoCd":"210000","sidoCdNm":"부산","sgguCdNm":"부산수영구","addr":"부산광역시 수영구 연수로 404, (광안동)","phone":"758-7777","hospUrl":"","estbDd":"20100118","drTotCnt":11,"mdeptSdrCnt":7,"lat":35.16833,"lng":129.1133},{"id":"37b822515d1c","name":"의료법인백세의료재단백세요양병원","clCd":"28","clCdNm":"요양병원","sidoCd":"210000","sidoCdNm":"부산","sgguCdNm":"부산수영구","addr":"부산광역시 수영구 광일로43번길 25, (광안동)","phone":"051-753-9595","hospUrl":"http://www.100sal.co.kr/main/main.htm","estbDd":"20070125","drTotCnt":5,"mdeptSdrCnt":4,"lat":35.16147,"lng":129.10924},{"id":"e56ba13ea4d8","name":"의료법인뵈뵈의료재단복있는요양병원","clCd":"28","clCdNm":"요양병원","sidoCd":"210000","sidoCdNm":"부산","sgguCdNm":"부산기장군","addr":"부산광역시 기장군 기장읍 대변로 117-2, (기장읍)","phone":"051-529-1524","hospUrl":"","estbDd":"20100809","drTotCnt":3,"mdeptSdrCnt":2,"lat":35.2279,"lng":129.22588},{"id":"dbef2a19095b","name":"의료법인상봉의료재단 상봉요양병원","clCd":"28","clCdNm":"요양병원","sidoCd":"210000","sidoCdNm":"부산","sgguCdNm":"부산진구","addr":"부산광역시 부산진구 황령대로8번길 7, (범천동)","phone":"051-633-8171","hospUrl":"","estbDd":"20150102","drTotCnt":7,"mdeptSdrCnt":4,"lat":35.14736,"lng":129.0608},{"id":"e17278f96b92","name":"의료법인선우의료재단  BHS동래한서요양병원","clCd":"28","clCdNm":"요양병원","sidoCd":"210000","sidoCdNm":"부산","sgguCdNm":"부산금정구","addr":"부산광역시 금정구 중앙대로 1721, (부곡동)","phone":"509-3000","hospUrl":"http://www.dongnaehanseo.or.kr","estbDd":"20110715","drTotCnt":5,"mdeptSdrCnt":4,"lat":35.2382,"lng":129.09198},{"id":"96ed06338f51","name":"의료법인성진의료재단 동산요양병원","clCd":"28","clCdNm":"요양병원","sidoCd":"210000","sidoCdNm":"부산","sgguCdNm":"부산사하구","addr":"부산광역시 사하구 낙동대로216번길 10, (괴정동)","phone":"051-204-1133","hospUrl":"","estbDd":"20080131","drTotCnt":5,"mdeptSdrCnt":3,"lat":35.10085,"lng":128.99316},{"id":"dd6bb6807fa8","name":"의료법인세왕의료재단 세왕요양병원","clCd":"28","clCdNm":"요양병원","sidoCd":"210000","sidoCdNm":"부산","sgguCdNm":"부산금정구","addr":"부산광역시 금정구 식물원로9번길 37, (장전동)","phone":"051-468-9700","hospUrl":"","estbDd":"20160603","drTotCnt":3,"mdeptSdrCnt":2,"lat":35.2225,"lng":129.08595},{"id":"88a2e8bd6b42","name":"의료법인안심의료재단 안심요양병원","clCd":"28","clCdNm":"요양병원","sidoCd":"210000","sidoCdNm":"부산","sgguCdNm":"부산연제구","addr":"부산광역시 연제구 과정로 222, (연산동)","phone":"051-865-0300","hospUrl":"","estbDd":"20121030","drTotCnt":6,"mdeptSdrCnt":3,"lat":35.18822,"lng":129.10309},{"id":"5c87940d19c7","name":"의료법인에벤에셀의료재단 아름다운요양병원","clCd":"28","clCdNm":"요양병원","sidoCd":"210000","sidoCdNm":"부산","sgguCdNm":"부산해운대구","addr":"부산광역시 해운대구 해운대로61번길 47, (재송동)","phone":"051-782-7400","hospUrl":"","estbDd":"20091102","drTotCnt":"","mdeptSdrCnt":"","lat":35.19387,"lng":129.12408},{"id":"69f8798a672f","name":"의료법인연송의료재단 신창요양병원","clCd":"28","clCdNm":"요양병원","sidoCd":"210000","sidoCdNm":"부산","sgguCdNm":"부산중구","addr":"부산광역시 중구 중앙대로 55, (중앙동2가)","phone":"051-243-8800","hospUrl":"","estbDd":"20131107","drTotCnt":8,"mdeptSdrCnt":5,"lat":35.10257,"lng":129.03611},{"id":"07a348dcb4c6","name":"의료법인연송의료재단 제2신창요양병원","clCd":"28","clCdNm":"요양병원","sidoCd":"210000","sidoCdNm":"부산","sgguCdNm":"부산사하구","addr":"부산광역시 사하구 비봉로 80, (신평동)","phone":"051-987-7900","hospUrl":"","estbDd":"20130531","drTotCnt":6,"mdeptSdrCnt":4,"lat":35.09882,"lng":128.96304},{"id":"907899b8ba60","name":"의료법인은경의료재단 인창대연요양병원","clCd":"28","clCdNm":"요양병원","sidoCd":"210000","sidoCdNm":"부산","sgguCdNm":"부산남구","addr":"부산광역시 남구 수영로 164, (대연동)","phone":"051-774-1004","hospUrl":"","estbDd":"20160913","drTotCnt":10,"mdeptSdrCnt":7,"lat":35.13449,"lng":129.08459},{"id":"736685170bc2","name":"의료법인은경의료재단 인창요양병원","clCd":"28","clCdNm":"요양병원","sidoCd":"210000","sidoCdNm":"부산","sgguCdNm":"부산동구","addr":"부산광역시 동구 중앙대로 281, (초량동)","phone":"051-466-1004","hospUrl":"http://www.silverslife.com","estbDd":"20080229","drTotCnt":16,"mdeptSdrCnt":9,"lat":35.12187,"lng":129.04294},{"id":"6fa9e78b4966","name":"의료법인은성의료재단 좋은사랑요양병원","clCd":"28","clCdNm":"요양병원","sidoCd":"210000","sidoCdNm":"부산","sgguCdNm":"부산사하구","addr":"부산광역시 사하구 낙동대로 305, (괴정동)","phone":"051-220-7000","hospUrl":"http://www.goodsarang.kr","estbDd":"20131118","drTotCnt":8,"mdeptSdrCnt":7,"lat":35.09935,"lng":128.98348},{"id":"a1e60281e429","name":"의료법인은정의료재단 호산기독요양병원","clCd":"28","clCdNm":"요양병원","sidoCd":"210000","sidoCdNm":"부산","sgguCdNm":"부산연제구","addr":"부산광역시 연제구 화지로 107, (거제동)","phone":"051-503-7871","hospUrl":"http://www.ehosan.com/","estbDd":"20080804","drTotCnt":4,"mdeptSdrCnt":2,"lat":35.18399,"lng":129.06642},{"id":"e30d4dc6a29c","name":"의료법인인당의료재단 부산혜민요양병원","clCd":"28","clCdNm":"요양병원","sidoCd":"210000","sidoCdNm":"부산","sgguCdNm":"부산동구","addr":"부산광역시 동구 중앙대로 524, (범일동)","phone":"051-643-8100","hospUrl":"","estbDd":"20060810","drTotCnt":3,"mdeptSdrCnt":2,"lat":35.14001,"lng":129.05694},{"id":"209ed3f44dcc","name":"의료법인인주의료재단 늘사랑요양병원","clCd":"28","clCdNm":"요양병원","sidoCd":"210000","sidoCdNm":"부산","sgguCdNm":"부산사하구","addr":"부산광역시 사하구 사하로 21, (구평동)","phone":"051-714-3533","hospUrl":"","estbDd":"20140313","drTotCnt":9,"mdeptSdrCnt":5,"lat":35.08564,"lng":128.99106},{"id":"767f8024852f","name":"의료법인전일의료재단한가족요양병원","clCd":"28","clCdNm":"요양병원","sidoCd":"210000","sidoCdNm":"부산","sgguCdNm":"부산수영구","addr":"부산광역시 수영구 장대골로7번길 45, 2-4층 (광안동, 광안유림노르웨이아침)","phone":"051-752-6100","hospUrl":"http://www.onefm.co.kr","estbDd":"20070117","drTotCnt":7,"mdeptSdrCnt":4,"lat":35.15693,"lng":129.11243},{"id":"4e499023ca1b","name":"의료법인제영의료재단 다나사요양병원","clCd":"28","clCdNm":"요양병원","sidoCd":"210000","sidoCdNm":"부산","sgguCdNm":"부산진구","addr":"부산광역시 부산진구 백양산로53번길 18, 당감트리플타워A (부암동)","phone":"051-817-5678","hospUrl":"","estbDd":"20090511","drTotCnt":4,"mdeptSdrCnt":2,"lat":35.17342,"lng":129.03028},{"id":"63f7e158c5f0","name":"의료법인좋은사람들의료재단 관자재요양병원","clCd":"28","clCdNm":"요양병원","sidoCd":"210000","sidoCdNm":"부산","sgguCdNm":"부산금정구","addr":"부산광역시 금정구 금단로 140-2, (남산동)","phone":"051-516-9898","hospUrl":"ns.kjj9988.co.kr","estbDd":"20110325","drTotCnt":5,"mdeptSdrCnt":3,"lat":35.2616,"lng":129.0937},{"id":"c8983272693d","name":"의료법인지석의료재단 효성프라임요양병원","clCd":"28","clCdNm":"요양병원","sidoCd":"210000","sidoCdNm":"부산","sgguCdNm":"부산사상구","addr":"부산광역시 사상구 백양대로 764, (덕포동)","phone":"051-304-1002","hospUrl":"http://www.smartbusan.co.kr/~hyosung/","estbDd":"20120907","drTotCnt":5,"mdeptSdrCnt":3,"lat":35.17497,"lng":128.98869},{"id":"991a026550a9","name":"의료법인청십자의료재단 청십자요양병원","clCd":"28","clCdNm":"요양병원","sidoCd":"210000","sidoCdNm":"부산","sgguCdNm":"부산동구","addr":"부산광역시 동구 중앙대로 364, (수정동, 청십자병원)","phone":"051-469-1011","hospUrl":"","estbDd":"20051214","drTotCnt":"","mdeptSdrCnt":"","lat":35.1278,"lng":129.04833},{"id":"beca65de6edb","name":"의료법인청십자의료재단 행복한 요양병원","clCd":"28","clCdNm":"요양병원","sidoCd":"210000","sidoCdNm":"부산","sgguCdNm":"부산진구","addr":"부산광역시 부산진구 봉수로 18, 지상 1층 일부, 2층 일부, 3층 일부, 4~7층 전부, D동 2층 (전포동)","phone":"051-804-7582","hospUrl":"","estbDd":"20140401","drTotCnt":8,"mdeptSdrCnt":6,"lat":35.14979,"lng":129.07005},{"id":"5fca67e7d155","name":"의료법인청원의료재단 수요양병원","clCd":"28","clCdNm":"요양병원","sidoCd":"210000","sidoCdNm":"부산","sgguCdNm":"부산진구","addr":"부산광역시 부산진구 동평로 401, 지하2~지상10층 (양정동)","phone":"051-750-7000","hospUrl":"","estbDd":"20130603","drTotCnt":13,"mdeptSdrCnt":7,"lat":35.17427,"lng":129.06902},{"id":"fe9a8487361f","name":"의료법인한우리의료재단 한우리요양병원","clCd":"28","clCdNm":"요양병원","sidoCd":"210000","sidoCdNm":"부산","sgguCdNm":"부산사하구","addr":"부산광역시 사하구 원양로 400, (감천동)","phone":"051-208-7500","hospUrl":"","estbDd":"20140313","drTotCnt":5,"mdeptSdrCnt":3,"lat":35.08628,"lng":129.00569},{"id":"8960cbcb3530","name":"의료법인해림의료재단 부산금사요양병원","clCd":"28","clCdNm":"요양병원","sidoCd":"210000","sidoCdNm":"부산","sgguCdNm":"부산금정구","addr":"부산광역시 금정구 반송로 470, 2~7층 (금사동)","phone":"051-521-7581","hospUrl":"","estbDd":"20050614","drTotCnt":6,"mdeptSdrCnt":4,"lat":35.21553,"lng":129.11525},{"id":"efb9b2dc624d","name":"의료법인호산나의료재단현대요양병원","clCd":"28","clCdNm":"요양병원","sidoCd":"210000","sidoCdNm":"부산","sgguCdNm":"부산사하구","addr":"부산광역시 사하구 하신중앙로 7, (장림동)","phone":"051-997-0001","hospUrl":"http://www.bshd.co.kr/","estbDd":"20091231","drTotCnt":6,"mdeptSdrCnt":3,"lat":35.07974,"lng":128.96419},{"id":"ed099d2c8f92","name":"의료법인화인의료재단센텀화인요양병원","clCd":"28","clCdNm":"요양병원","sidoCd":"210000","sidoCdNm":"부산","sgguCdNm":"부산해운대구","addr":"부산광역시 해운대구 해운대로76번길 12, (재송동)","phone":"051-784-7297","hospUrl":"www.centumhospital.kr/","estbDd":"20080720","drTotCnt":6,"mdeptSdrCnt":5,"lat":35.19085,"lng":129.11938},{"id":"a729b0a3b5b3","name":"의료법인효원의료재단 자연요양병원","clCd":"28","clCdNm":"요양병원","sidoCd":"210000","sidoCdNm":"부산","sgguCdNm":"부산사하구","addr":"부산광역시 사하구 장평로 1, 1층 일부, 3~5층 전부, 8층 일부 (장림동)","phone":"051-982-1004","hospUrl":"","estbDd":"20120608","drTotCnt":5,"mdeptSdrCnt":4,"lat":35.06861,"lng":128.97714},{"id":"0255a7104a87","name":"의료재단 로뎀요양병원","clCd":"28","clCdNm":"요양병원","sidoCd":"210000","sidoCdNm":"부산","sgguCdNm":"부산해운대구","addr":"부산광역시 해운대구 아랫반송로1번길 27-3, (반송동)","phone":"051-544-8899","hospUrl":"","estbDd":"20080730","drTotCnt":3,"mdeptSdrCnt":2,"lat":35.22678,"lng":129.14693},{"id":"0cbd79faa24f","name":"이의용밝은길요양병원","clCd":"28","clCdNm":"요양병원","sidoCd":"210000","sidoCdNm":"부산","sgguCdNm":"부산서구","addr":"부산광역시 서구 대영로85번길 31, (동대신동2가)","phone":"051-244-2446","hospUrl":"","estbDd":"20140401","drTotCnt":4,"mdeptSdrCnt":3,"lat":35.11228,"lng":129.01971},{"id":"da405c13fb4d","name":"인제요양병원","clCd":"28","clCdNm":"요양병원","sidoCd":"210000","sidoCdNm":"부산","sgguCdNm":"부산영도구","addr":"부산광역시 영도구 절영로 21, (대교동2가)","phone":"051-412-2441","hospUrl":"http://www.injehosp.co.kr","estbDd":"20110909","drTotCnt":6,"mdeptSdrCnt":3,"lat":35.09242,"lng":129.04006},{"id":"85ecde92139c","name":"정요양병원","clCd":"28","clCdNm":"요양병원","sidoCd":"210000","sidoCdNm":"부산","sgguCdNm":"부산영도구","addr":"부산광역시 영도구 절영로 32, (대교동1가)","phone":"051-410-1601","hospUrl":"","estbDd":"20130125","drTotCnt":9,"mdeptSdrCnt":7,"lat":35.09171,"lng":129.03907},{"id":"4da2018933dd","name":"제니스파크요양병원","clCd":"28","clCdNm":"요양병원","sidoCd":"210000","sidoCdNm":"부산","sgguCdNm":"부산남구","addr":"부산광역시 남구 우암양달로75번길 29, (우암동)","phone":"051-644-7733","hospUrl":"","estbDd":"20130725","drTotCnt":4,"mdeptSdrCnt":2,"lat":35.1266,"lng":129.07451},{"id":"2f9840474ee9","name":"조이효요양병원","clCd":"28","clCdNm":"요양병원","sidoCd":"210000","sidoCdNm":"부산","sgguCdNm":"부산사하구","addr":"부산광역시 사하구 감천로 55, (감천동)","phone":"051-293-9500","hospUrl":"","estbDd":"20090810","drTotCnt":4,"mdeptSdrCnt":2,"lat":35.09052,"lng":128.99875},{"id":"7c3608894921","name":"준요양병원","clCd":"28","clCdNm":"요양병원","sidoCd":"210000","sidoCdNm":"부산","sgguCdNm":"부산동래구","addr":"부산광역시 동래구 충렬대로 372, (안락동, 안락동요양병원)","phone":"051-525-7711","hospUrl":"","estbDd":"20170612","drTotCnt":6,"mdeptSdrCnt":3,"lat":35.19736,"lng":129.09915},{"id":"d82f998ed44c","name":"중앙효요양병원","clCd":"28","clCdNm":"요양병원","sidoCd":"210000","sidoCdNm":"부산","sgguCdNm":"부산사하구","addr":"부산광역시 사하구 낙동대로 565, 2~4층 전부, 6~8층 전부, 9층 일부 (하단동)","phone":"051-208-8601","hospUrl":"","estbDd":"20060502","drTotCnt":6,"mdeptSdrCnt":4,"lat":35.11394,"lng":128.96267},{"id":"7fa8c8a88280","name":"참요양병원","clCd":"28","clCdNm":"요양병원","sidoCd":"210000","sidoCdNm":"부산","sgguCdNm":"부산진구","addr":"부산광역시 부산진구 가야대로 451, 6,7,8층 (개금동)","phone":"051-714-0890","hospUrl":"","estbDd":"20150519","drTotCnt":2,"mdeptSdrCnt":1,"lat":35.15356,"lng":129.02153},{"id":"bf809cb570fc","name":"큰사랑요양병원","clCd":"28","clCdNm":"요양병원","sidoCd":"210000","sidoCdNm":"부산","sgguCdNm":"부산사하구","addr":"부산광역시 사하구 하신중앙로 174, (신평동)","phone":"051-203-0288","hospUrl":"","estbDd":"20160304","drTotCnt":5,"mdeptSdrCnt":4,"lat":35.09428,"lng":128.96299},{"id":"539d86537010","name":"태종대요양병원","clCd":"28","clCdNm":"요양병원","sidoCd":"210000","sidoCdNm":"부산","sgguCdNm":"부산영도구","addr":"부산광역시 영도구 태종로 820-23, (동삼동)","phone":"051-717-3101","hospUrl":"","estbDd":"20080812","drTotCnt":5,"mdeptSdrCnt":3,"lat":35.06321,"lng":129.08038},{"id":"de75baa4fa98","name":"평거요양병원","clCd":"28","clCdNm":"요양병원","sidoCd":"210000","sidoCdNm":"부산","sgguCdNm":"부산기장군","addr":"부산광역시 기장군 기장읍 대청로36번길 11-33, (기장읍)","phone":"747-0079","hospUrl":"","estbDd":"20110124","drTotCnt":6,"mdeptSdrCnt":3,"lat":35.2373,"lng":129.21614},{"id":"a56d2772f6fb","name":"푸른숲요양병원","clCd":"28","clCdNm":"요양병원","sidoCd":"210000","sidoCdNm":"부산","sgguCdNm":"부산금정구","addr":"부산광역시 금정구 금강로 592, 지1,1,3-7층 (구서동)","phone":"051-714-0098","hospUrl":"http://purunhospi.com","estbDd":"20120612","drTotCnt":4,"mdeptSdrCnt":2,"lat":35.26033,"lng":129.08799},{"id":"27dc407d023e","name":"학장성심요양병원","clCd":"28","clCdNm":"요양병원","sidoCd":"210000","sidoCdNm":"부산","sgguCdNm":"부산사상구","addr":"부산광역시 사상구 대동로159번길 9, 신관 1~4층 (학장동)","phone":"051-314-2280","hospUrl":"","estbDd":"20130325","drTotCnt":5,"mdeptSdrCnt":3,"lat":35.14143,"lng":128.98318},{"id":"75a86d5580e1","name":"한국보훈복지의료공단 부산요양병원","clCd":"28","clCdNm":"요양병원","sidoCd":"210000","sidoCdNm":"부산","sgguCdNm":"부산사상구","addr":"부산광역시 사상구 백양대로 420, (주례동)","phone":"051-601-8600","hospUrl":"https://busancare.bohun.or.kr/","estbDd":"20240220","drTotCnt":6,"mdeptSdrCnt":4,"lat":35.15338,"lng":129.00657},{"id":"603fa2de00bf","name":"한빛의료소비자생활협동조합한빛요양병원","clCd":"28","clCdNm":"요양병원","sidoCd":"210000","sidoCdNm":"부산","sgguCdNm":"부산사하구","addr":"부산광역시 사하구 사하로 55, (구평동)","phone":"051-260-6600","hospUrl":"","estbDd":"20071205","drTotCnt":7,"mdeptSdrCnt":4,"lat":35.08722,"lng":128.99341},{"id":"78d04b2fbddf","name":"한사랑요양병원","clCd":"28","clCdNm":"요양병원","sidoCd":"210000","sidoCdNm":"부산","sgguCdNm":"부산진구","addr":"부산광역시 부산진구 새싹로 107, 지하1층~지상6층층 (부암동)","phone":"051-817-7575","hospUrl":"","estbDd":"20040120","drTotCnt":5,"mdeptSdrCnt":3,"lat":35.16615,"lng":129.05194},{"id":"1638e44e0084","name":"해운대 한빛요양병원","clCd":"28","clCdNm":"요양병원","sidoCd":"210000","sidoCdNm":"부산","sgguCdNm":"부산해운대구","addr":"부산광역시 해운대구 반여로 156, 한빛요양병원 (반여동)","phone":"051-929-2000","hospUrl":"","estbDd":"20190903","drTotCnt":8,"mdeptSdrCnt":5,"lat":35.20514,"lng":129.1262},{"id":"fbb111e981df","name":"해운대성심요양병원","clCd":"28","clCdNm":"요양병원","sidoCd":"210000","sidoCdNm":"부산","sgguCdNm":"부산해운대구","addr":"부산광역시 해운대구 좌동순환로 462, 지하1층-지상7층 (중동, 성심병원)","phone":"051-743-5555","hospUrl":"","estbDd":"20111004","drTotCnt":5,"mdeptSdrCnt":3,"lat":35.16225,"lng":129.17194},{"id":"dc4596bb5878","name":"현대요양병원","clCd":"28","clCdNm":"요양병원","sidoCd":"210000","sidoCdNm":"부산","sgguCdNm":"부산기장군","addr":"부산광역시 기장군 기장읍 반송로 1555, (기장읍)","phone":"051-721-7582","hospUrl":"http://www.hdcare.co.kr/","estbDd":"20060728","drTotCnt":5,"mdeptSdrCnt":3,"lat":35.24866,"lng":129.21008},{"id":"46c89da38246","name":"효메디요양병원","clCd":"28","clCdNm":"요양병원","sidoCd":"210000","sidoCdNm":"부산","sgguCdNm":"부산남구","addr":"부산광역시 남구 용호로 95, (용호동)","phone":"051-624-6600","hospUrl":"www.hyomedi.co.kr/","estbDd":"20061004","drTotCnt":3,"mdeptSdrCnt":2,"lat":35.12376,"lng":129.11274},{"id":"d3242c13ab20","name":"(복지)예사랑병원","clCd":"29","clCdNm":"정신병원","sidoCd":"210000","sidoCdNm":"부산","sgguCdNm":"부산서구","addr":"부산광역시 서구 옥천로130번길 38, (아미동2가)","phone":"248-9000","hospUrl":"","estbDd":"20120229","drTotCnt":2,"mdeptSdrCnt":2,"lat":35.09732,"lng":129.01331},{"id":"082e74738276","name":"BH병원","clCd":"29","clCdNm":"정신병원","sidoCd":"210000","sidoCdNm":"부산","sgguCdNm":"부산남구","addr":"부산광역시 남구 수영로 165, (대연동)","phone":"051-633-6665","hospUrl":"","estbDd":"20090213","drTotCnt":2,"mdeptSdrCnt":2,"lat":35.13488,"lng":129.08462},{"id":"96a87539a1b5","name":"다대자연병원","clCd":"29","clCdNm":"정신병원","sidoCd":"210000","sidoCdNm":"부산","sgguCdNm":"부산사하구","addr":"부산광역시 사하구 장평로 1, 지하1~2층 전부, 1층 일부, 2층 전부, 6~7층 전부, 8층 일부 (장림동)","phone":"051-204-5004","hospUrl":"","estbDd":"20110920","drTotCnt":4,"mdeptSdrCnt":4,"lat":35.06861,"lng":128.97714},{"id":"fda1beceef01","name":"다움병원","clCd":"29","clCdNm":"정신병원","sidoCd":"210000","sidoCdNm":"부산","sgguCdNm":"부산금정구","addr":"부산광역시 금정구 체육공원로 608, (두구동)","phone":"051-508-0011","hospUrl":"","estbDd":"19930201","drTotCnt":7,"mdeptSdrCnt":7,"lat":35.29481,"lng":129.1119},{"id":"2963a38e79f9","name":"대연성모병원","clCd":"29","clCdNm":"정신병원","sidoCd":"210000","sidoCdNm":"부산","sgguCdNm":"부산남구","addr":"부산광역시 남구 황령대로353번길 66, (대연동)","phone":"051-621-2312","hospUrl":"","estbDd":"19900309","drTotCnt":2,"mdeptSdrCnt":2,"lat":35.14813,"lng":129.09875},{"id":"eab9c92dde51","name":"더힐러스병원","clCd":"29","clCdNm":"정신병원","sidoCd":"210000","sidoCdNm":"부산","sgguCdNm":"부산동구","addr":"부산광역시 동구 범일로 112, (범일동)","phone":"051-715-1144","hospUrl":"","estbDd":"20191218","drTotCnt":2,"mdeptSdrCnt":2,"lat":35.13994,"lng":129.05966},{"id":"33edb57d82f3","name":"동래나눔과행복병원","clCd":"29","clCdNm":"정신병원","sidoCd":"210000","sidoCdNm":"부산","sgguCdNm":"부산연제구","addr":"부산광역시 연제구 중앙대로 1239, (거제동)","phone":"051-507-7011","hospUrl":"","estbDd":"20150819","drTotCnt":3,"mdeptSdrCnt":3,"lat":35.1979,"lng":129.07857},{"id":"db0a609a9109","name":"밝은마음병원","clCd":"29","clCdNm":"정신병원","sidoCd":"210000","sidoCdNm":"부산","sgguCdNm":"부산해운대구","addr":"부산광역시 해운대구 해운대로 575, 2~5층 (우동, 국제빌딩)","phone":"051-746-7272","hospUrl":"","estbDd":"20150430","drTotCnt":2,"mdeptSdrCnt":2,"lat":35.1615,"lng":129.15438},{"id":"755ad6148261","name":"부산시립정신병원","clCd":"29","clCdNm":"정신병원","sidoCd":"210000","sidoCdNm":"부산","sgguCdNm":"부산사상구","addr":"부산광역시 사상구 학감대로39번길 104-36, (학장동)","phone":"051-312-2288","hospUrl":"http://www.bmmh.or.kr/","estbDd":"19900616","drTotCnt":5,"mdeptSdrCnt":5,"lat":35.13285,"lng":128.99508},{"id":"71081a58f715","name":"성은의료재단 연산병원","clCd":"29","clCdNm":"정신병원","sidoCd":"210000","sidoCdNm":"부산","sgguCdNm":"부산연제구","addr":"부산광역시 연제구 배산북로 50, (연산동, 배산북로 47)","phone":"051-866-5050","hospUrl":"","estbDd":"19880430","drTotCnt":3,"mdeptSdrCnt":3,"lat":35.17834,"lng":129.0947},{"id":"86a7d12e6d69","name":"아하브병원(의료법인 백양의료재단)","clCd":"29","clCdNm":"정신병원","sidoCd":"210000","sidoCdNm":"부산","sgguCdNm":"부산북구","addr":"부산광역시 북구 만덕고개길 84, 지하1~2층, 지상1~5층, 7층일부 (만덕동)","phone":"051-333-8600","hospUrl":"","estbDd":"19991112","drTotCnt":4,"mdeptSdrCnt":4,"lat":35.21172,"lng":129.04893},{"id":"a61baf6c1e30","name":"온사랑병원","clCd":"29","clCdNm":"정신병원","sidoCd":"210000","sidoCdNm":"부산","sgguCdNm":"부산금정구","addr":"부산광역시 금정구 서동로 197-1, (서동)","phone":"051-555-0808","hospUrl":"","estbDd":"20211001","drTotCnt":4,"mdeptSdrCnt":4,"lat":35.21434,"lng":129.10815},{"id":"bc9c9b81acf1","name":"우리병원","clCd":"29","clCdNm":"정신병원","sidoCd":"210000","sidoCdNm":"부산","sgguCdNm":"부산사상구","addr":"부산광역시 사상구 사상로 237, 1,3,4,5층 (괘법동)","phone":"051-323-6613","hospUrl":"","estbDd":"20111115","drTotCnt":3,"mdeptSdrCnt":3,"lat":35.16612,"lng":128.98243},{"id":"13fa2648d216","name":"의료법인 길정의료재단 길정병원","clCd":"29","clCdNm":"정신병원","sidoCd":"210000","sidoCdNm":"부산","sgguCdNm":"부산사상구","addr":"부산광역시 사상구 학감대로39번길 116, (학장동, A동 지하1~ 지상4층, B동 지상1~2층, D동 지상1~지상4층)","phone":"051-320-6450","hospUrl":"","estbDd":"20140512","drTotCnt":4,"mdeptSdrCnt":4,"lat":35.13221,"lng":128.99575},{"id":"94ab2b982fbe","name":"의료법인 길정의료재단 대남병원","clCd":"29","clCdNm":"정신병원","sidoCd":"210000","sidoCdNm":"부산","sgguCdNm":"부산사상구","addr":"부산광역시 사상구 학감대로39번길 116, (학장동)","phone":"051-324-2227","hospUrl":"","estbDd":"19930807","drTotCnt":6,"mdeptSdrCnt":6,"lat":35.13221,"lng":128.99575},{"id":"4baa3820af37","name":"의료법인 동영의료재단 상록병원","clCd":"29","clCdNm":"정신병원","sidoCd":"210000","sidoCdNm":"부산","sgguCdNm":"부산동래구","addr":"부산광역시 동래구 충렬대로 426, (안락동)","phone":"051-555-8009","hospUrl":"","estbDd":"19990401","drTotCnt":4,"mdeptSdrCnt":4,"lat":35.19624,"lng":129.10488},{"id":"a496eab5f8fc","name":"의료법인 효원의료재단 주례자연병원","clCd":"29","clCdNm":"정신병원","sidoCd":"210000","sidoCdNm":"부산","sgguCdNm":"부산사상구","addr":"부산광역시 사상구 학장로 325, (주례동)","phone":"051-324-1004","hospUrl":"","estbDd":"20061123","drTotCnt":"","mdeptSdrCnt":"","lat":35.14956,"lng":128.99963},{"id":"5df4bf72b80d","name":"의료법인벧엘의료재단 부산정신병원","clCd":"29","clCdNm":"정신병원","sidoCd":"210000","sidoCdNm":"부산","sgguCdNm":"부산사하구","addr":"부산광역시 사하구 하신중앙로3번나길 10, (장림동, 부산정신병원)","phone":"051-263-8891","hospUrl":"","estbDd":"19990427","drTotCnt":3,"mdeptSdrCnt":3,"lat":35.07699,"lng":128.96233},{"id":"4d6c7afc1179","name":"의료법인영파의료재단 마음향기병원","clCd":"29","clCdNm":"정신병원","sidoCd":"210000","sidoCdNm":"부산","sgguCdNm":"부산금정구","addr":"부산광역시 금정구 금샘로 56, (장전동)","phone":"051-516-1220","hospUrl":"","estbDd":"19900801","drTotCnt":4,"mdeptSdrCnt":4,"lat":35.23064,"lng":129.07708},{"id":"188eb7fab46f","name":"의료법인인본의료재단해운대자명병원","clCd":"29","clCdNm":"정신병원","sidoCd":"210000","sidoCdNm":"부산","sgguCdNm":"부산해운대구","addr":"부산광역시 해운대구 해운대로469번가길 75, (우동)","phone":"051-780-5566","hospUrl":"http://www.jmmh.co.kr/","estbDd":"19990504","drTotCnt":5,"mdeptSdrCnt":5,"lat":35.1677,"lng":129.14607},{"id":"4519f3f58909","name":"의료법인인혜의료재단가나병원","clCd":"29","clCdNm":"정신병원","sidoCd":"210000","sidoCdNm":"부산","sgguCdNm":"부산남구","addr":"부산광역시 남구 유엔평화로 156, (용당동)","phone":"051-624-6666","hospUrl":"","estbDd":"19990212","drTotCnt":6,"mdeptSdrCnt":6,"lat":35.12218,"lng":129.09712},{"id":"779d32697182","name":"의료법인주현의료재단사상중앙병원","clCd":"29","clCdNm":"정신병원","sidoCd":"210000","sidoCdNm":"부산","sgguCdNm":"부산사상구","addr":"부산광역시 사상구 삼덕로5번길 85, (삼락동)","phone":"051-305-7001","hospUrl":"","estbDd":"20021028","drTotCnt":5,"mdeptSdrCnt":5,"lat":35.1784,"lng":128.97822},{"id":"f38ea88ddca8","name":"(사)대한산업보건협회 남부산의원","clCd":"31","clCdNm":"의원","sidoCd":"210000","sidoCdNm":"부산","sgguCdNm":"부산강서구","addr":"부산광역시 강서구 명지국제6로1번길 30, A동 3층 (명지동)","phone":"051-710-6888","hospUrl":"","estbDd":"20110422","drTotCnt":5,"mdeptSdrCnt":5,"lat":35.0947,"lng":128.90015},{"id":"ef3738aa4bb7","name":"(사)인구보건복지협회 부산시지회 가족보건의원","clCd":"31","clCdNm":"의원","sidoCd":"210000","sidoCdNm":"부산","sgguCdNm":"부산수영구","addr":"부산광역시 수영구 수영로 425, (남천동)","phone":"051-624-5583","hospUrl":"","estbDd":"20080429","drTotCnt":2,"mdeptSdrCnt":2,"lat":35.14412,"lng":129.10898},{"id":"d24eae01a96d","name":"(사)한국한센복지협회부산지부 부설복지의원","clCd":"31","clCdNm":"의원","sidoCd":"210000","sidoCdNm":"부산","sgguCdNm":"부산사하구","addr":"부산광역시 사하구 다대로 263, 5층 501호 (장림동)","phone":"051-262-7511","hospUrl":"","estbDd":"19811119","drTotCnt":1,"mdeptSdrCnt":1,"lat":35.07884,"lng":128.97774},{"id":"f57e4ae4192d","name":"(의) 열린의료재단 연산열린의원","clCd":"31","clCdNm":"의원","sidoCd":"210000","sidoCdNm":"부산","sgguCdNm":"부산연제구","addr":"부산광역시 연제구 중앙대로 1091, 제세빌딩 3,7층 (연산동)","phone":"051-714-0835","hospUrl":"","estbDd":"20161103","drTotCnt":1,"mdeptSdrCnt":1,"lat":35.18542,"lng":129.08065},{"id":"dcdd5e8a390a","name":"(의)삼세의료재단 몸사랑내과의원","clCd":"31","clCdNm":"의원","sidoCd":"210000","sidoCdNm":"부산","sgguCdNm":"부산영도구","addr":"부산광역시 영도구 절영로 30, 삼세메디컬센터 4,5(일부),6 층 (대교동1가)","phone":"051-418-7777","hospUrl":"http://www.momsarang.or.kr/index.php","estbDd":"20160715","drTotCnt":1,"mdeptSdrCnt":1,"lat":35.09191,"lng":129.03924},