[{"id":"cdf33c004337","name":"의료법인 중앙의료재단 중앙병원","clCd":"11","clCdNm":"종합병원","sidoCd":"390000","sidoCdNm":"제주","sgguCdNm":"제주시","addr":"제주특별자치도 제주시 월랑로 91-0, 중앙병원","phone":"064-786-7000","hospUrl":"","estbDd":"20130304","drTotCnt":31,"mdeptSdrCnt":30,"lat":33.49233,"lng":126.47053},{"id":"fca5a2a5a2b7","name":"의료법인 혜인의료재단 한국병원","clCd":"11","clCdNm":"종합병원","sidoCd":"390000","sidoCdNm":"제주","sgguCdNm":"제주시","addr":"제주특별자치도 제주시 서광로 193, (삼도일동)","phone":"064-750-0000","hospUrl":"http://www.hankookhospital.co.kr","estbDd":"19830225","drTotCnt":37,"mdeptSdrCnt":36,"lat":33.50023,"lng":126.51706},{"id":"d7b74b5609f2","name":"제주대학교병원","clCd":"11","clCdNm":"종합병원","sidoCd":"390000","sidoCdNm":"제주","sgguCdNm":"제주시","addr":"제주특별자치도 제주시 아란13길 15-0,  0동 0층 0호 (아라일동,제주대학교병원)","phone":"064-717-1114","hospUrl":"http://www.jejunuh.co.kr/main.jsp","estbDd":"19651002","drTotCnt":228,"mdeptSdrCnt":162,"lat":33.46711,"lng":126.54521},{"id":"a7bdc23dec51","name":"제주특별자치도 서귀포의료원","clCd":"11","clCdNm":"종합병원","sidoCd":"390000","sidoCdNm":"제주","sgguCdNm":"서귀포시","addr":"제주특별자치도 서귀포시 장수로 47, (동홍동)","phone":"064-730-3000","hospUrl":"http://www.smed.or.kr","estbDd":"19940319","drTotCnt":44,"mdeptSdrCnt":43,"lat":33.25554,"lng":126.56392},{"id":"cf0faf6a3533","name":"제주한라병원","clCd":"11","clCdNm":"종합병원","sidoCd":"390000","sidoCdNm":"제주","sgguCdNm":"제주시","addr":"제주특별자치도 제주시 도령로 65,  (연동)","phone":"064-740-5000","hospUrl":"http://www.hallahosp.co.kr","estbDd":"19831029","drTotCnt":122,"mdeptSdrCnt":108,"lat":33.48996,"lng":126.48504},{"id":"97eaf774eae5","name":"한마음병원","clCd":"11","clCdNm":"종합병원","sidoCd":"390000","sidoCdNm":"제주","sgguCdNm":"제주시","addr":"제주특별자치도 제주시 연신로 52, (이도이동)","phone":"064-750-9000","hospUrl":"","estbDd":"19990913","drTotCnt":35,"mdeptSdrCnt":34,"lat":33.49629,"lng":126.54624},{"id":"ff9bbbb17ab2","name":"WE병원","clCd":"21","clCdNm":"병원","sidoCd":"390000","sidoCdNm":"제주","sgguCdNm":"서귀포시","addr":"제주특별자치도 서귀포시 1100로 453-95, (회수동)","phone":"064-730-1421","hospUrl":"","estbDd":"20140124","drTotCnt":1,"mdeptSdrCnt":1,"lat":33.28601,"lng":126.44417},{"id":"2b22e347e8f2","name":"서귀포열린병원","clCd":"21","clCdNm":"병원","sidoCd":"390000","sidoCdNm":"제주","sgguCdNm":"서귀포시","addr":"제주특별자치도 서귀포시 일주동로 8638, (동홍동)","phone":"064-762-8001","hospUrl":"","estbDd":"19990208","drTotCnt":7,"mdeptSdrCnt":7,"lat":33.25447,"lng":126.56542},{"id":"a185eda7f317","name":"제주권역재활병원","clCd":"21","clCdNm":"병원","sidoCd":"390000","sidoCdNm":"제주","sgguCdNm":"서귀포시","addr":"제주특별자치도 서귀포시 동문로 1, (서귀동)","phone":"064-730-9015","hospUrl":"","estbDd":"20131021","drTotCnt":4,"mdeptSdrCnt":4,"lat":33.25278,"lng":126.56246},{"id":"81eadbe823f5","name":"제주선한병원","clCd":"21","clCdNm":"병원","sidoCd":"390000","sidoCdNm":"제주","sgguCdNm":"제주시","addr":"제주특별자치도 제주시 중앙로 616, 2~4층 (아라일동)","phone":"064-722-0054","hospUrl":"","estbDd":"20180123","drTotCnt":3,"mdeptSdrCnt":2,"lat":33.46876,"lng":126.54703},{"id":"d868153b28f8","name":"제주우리병원","clCd":"21","clCdNm":"병원","sidoCd":"390000","sidoCdNm":"제주","sgguCdNm":"제주시","addr":"제주특별자치도 제주시 중앙로 373, (이도이동)","phone":"064-1899-6265","hospUrl":"","estbDd":"20120321","drTotCnt":5,"mdeptSdrCnt":5,"lat":33.48897,"lng":126.53966},{"id":"eb237d15243e","name":"제주특별자치도제주의료원","clCd":"21","clCdNm":"병원","sidoCd":"390000","sidoCdNm":"제주","sgguCdNm":"제주시","addr":"제주특별자치도 제주시 산천단남길 10, 제주의료원 (아라일동)","phone":"064-720-2222","hospUrl":"http://www.jejumed.com","estbDd":"20020729","drTotCnt":10,"mdeptSdrCnt":9,"lat":33.44494,"lng":126.56083},{"id":"02b45b91c504","name":"제주푸른병원","clCd":"21","clCdNm":"병원","sidoCd":"390000","sidoCdNm":"제주","sgguCdNm":"제주시","addr":"제주특별자치도 제주시 조천읍 번영로 957, (조천읍)","phone":"064-756-6680","hospUrl":"","estbDd":"20230215","drTotCnt":3,"mdeptSdrCnt":3,"lat":33.47597,"lng":126.63905},{"id":"fe62b95d324b","name":"탑동병원","clCd":"21","clCdNm":"병원","sidoCd":"390000","sidoCdNm":"제주","sgguCdNm":"제주시","addr":"제주특별자치도 제주시 탑동로 26, (삼도이동,(탑동로26))","phone":"064-754-1023","hospUrl":"","estbDd":"20080314","drTotCnt":4,"mdeptSdrCnt":4,"lat":33.51767,"lng":126.52218},{"id":"77303041eb7d","name":"늘봄재활요양병원","clCd":"28","clCdNm":"요양병원","sidoCd":"390000","sidoCdNm":"제주","sgguCdNm":"제주시","addr":"제주특별자치도 제주시 관덕로 30, (삼도이동)","phone":"064-752-0022","hospUrl":"https://blog.naver.com/neulbomrehab","estbDd":"20070117","drTotCnt":4,"mdeptSdrCnt":3,"lat":33.51299,"lng":126.5224},{"id":"b28a9a898129","name":"드림힐 요양병원","clCd":"28","clCdNm":"요양병원","sidoCd":"390000","sidoCdNm":"제주","sgguCdNm":"제주시","addr":"제주특별자치도 제주시 조천읍 번영로 957, (조천읍)","phone":"064-759-9960","hospUrl":"","estbDd":"20220919","drTotCnt":3,"mdeptSdrCnt":1,"lat":33.47589,"lng":126.63916},{"id":"665a739dcb2d","name":"사회복지법인인효원제주복지요양병원","clCd":"28","clCdNm":"요양병원","sidoCd":"390000","sidoCdNm":"제주","sgguCdNm":"제주시","addr":"제주특별자치도 제주시 동광로 96, 동부빌딩 지하2, 지상3층 (이도이동)","phone":"064-747-1410","hospUrl":"","estbDd":"20050923","drTotCnt":4,"mdeptSdrCnt":3,"lat":33.50521,"lng":126.53825},{"id":"9430096fff7f","name":"아라요양병원","clCd":"28","clCdNm":"요양병원","sidoCd":"390000","sidoCdNm":"제주","sgguCdNm":"제주시","addr":"제주특별자치도 제주시 한북로 309, (아라일동)","phone":"064-729-6000","hospUrl":"","estbDd":"20161223","drTotCnt":5,"mdeptSdrCnt":5,"lat":33.45656,"lng":126.54692},{"id":"fa1083bb5fe8","name":"의료법인평촌의료재단 제주대림요양병원","clCd":"28","clCdNm":"요양병원","sidoCd":"390000","sidoCdNm":"제주","sgguCdNm":"제주시","addr":"제주특별자치도 제주시 한림읍 한수풀로 58, (한림읍)","phone":"064-796-0069","hospUrl":"","estbDd":"20101028","drTotCnt":5,"mdeptSdrCnt":4,"lat":33.41813,"lng":126.26907},{"id":"0cb174d9c2cc","name":"제주의료원부속요양병원","clCd":"28","clCdNm":"요양병원","sidoCd":"390000","sidoCdNm":"제주","sgguCdNm":"제주시","addr":"제주특별자치도 제주시 산천단남길 10, (아라일동, 제주의료원)","phone":"064-720-2222","hospUrl":"","estbDd":"20161118","drTotCnt":5,"mdeptSdrCnt":5,"lat":33.44494,"lng":126.56083},{"id":"eab112c2dacb","name":"제주제일요양병원","clCd":"28","clCdNm":"요양병원","sidoCd":"390000","sidoCdNm":"제주","sgguCdNm":"제주시","addr":"제주특별자치도 제주시 연삼로 16, (연동)","phone":"064-711-2210","hospUrl":"","estbDd":"20150305","drTotCnt":4,"mdeptSdrCnt":4,"lat":33.4934,"lng":126.494},{"id":"0de974fa9fe2","name":"제주하늘의료소비자생활협동조합하나요양병원","clCd":"28","clCdNm":"요양병원","sidoCd":"390000","sidoCdNm":"제주","sgguCdNm":"제주시","addr":"제주특별자치도 제주시 서사로 40, 3,5,6층,7층의 일부 (삼도일동)","phone":"064-723-0955","hospUrl":"","estbDd":"20220328","drTotCnt":3,"mdeptSdrCnt":1,"lat":33.50869,"lng":126.51966},{"id":"89df4b42f100","name":"지오요양병원","clCd":"28","clCdNm":"요양병원","sidoCd":"390000","sidoCdNm":"제주","sgguCdNm":"제주시","addr":"제주특별자치도 제주시 서광로 222, (삼도일동)","phone":"064-759-5080","hospUrl":"","estbDd":"20190214","drTotCnt":2,"mdeptSdrCnt":"","lat":33.49956,"lng":126.52032},{"id":"87a226ebca9a","name":"토마토요양병원","clCd":"28","clCdNm":"요양병원","sidoCd":"390000","sidoCdNm":"제주","sgguCdNm":"제주시","addr":"제주특별자치도 제주시 동광로 42, (이도이동)","phone":"064-729-5000","hospUrl":"","estbDd":"20130131","drTotCnt":3,"mdeptSdrCnt":2,"lat":33.50227,"lng":126.53332},{"id":"3b2e218e3878","name":"의료법인 연강의료재단 연강병원","clCd":"29","clCdNm":"정신병원","sidoCd":"390000","sidoCdNm":"제주","sgguCdNm":"제주시","addr":"제주특별자치도 제주시 죽성서길 6, (오등동)","phone":"064-726-7900","hospUrl":"","estbDd":"20070912","drTotCnt":2,"mdeptSdrCnt":2,"lat":33.46122,"lng":126.53324},{"id":"40e270f60cb2","name":"의료법인 연강의료재단 연강참병원","clCd":"29","clCdNm":"정신병원","sidoCd":"390000","sidoCdNm":"제주","sgguCdNm":"제주시","addr":"제주특별자치도 제주시 서광로 175, 아세아빌딩  B-101,301,401,501호 (용담일동)","phone":"064-759-9641","hospUrl":"","estbDd":"20221028","drTotCnt":2,"mdeptSdrCnt":2,"lat":33.50032,"lng":126.51519},{"id":"c34a2deae76b","name":"(사)한국한센복지협회제주특별자치도지부부설복지피부과의원","clCd":"31","clCdNm":"의원","sidoCd":"390000","sidoCdNm":"제주","sgguCdNm":"제주시","addr":"제주특별자치도 제주시 신대로 128, (연동)","phone":"064-747-2559","hospUrl":"","estbDd":"19870824","drTotCnt":1,"mdeptSdrCnt":1,"lat":33.48585,"lng":126.49606},{"id":"32be82db9372","name":"(재)서울의과학연구소에스씨엘(SCL)제주의원","clCd":"31","clCdNm":"의원","sidoCd":"390000","sidoCdNm":"제주","sgguCdNm":"제주시","addr":"제주특별자치도 제주시 도근내길 57-11, (내도동)","phone":"064-749-9711","hospUrl":"","estbDd":"20211222","drTotCnt":1,"mdeptSdrCnt":1,"lat":33.49266,"lng":126.43722},{"id":"12a465eafbe5","name":"(재)한국의학연구소 제주의원","clCd":"31","clCdNm":"의원","sidoCd":"390000","sidoCdNm":"제주","sgguCdNm":"서귀포시","addr":"제주특별자치도 서귀포시 솔오름로 61, 제주헬스케어타운 의료서비스센터 1~2층 (동홍동)","phone":"064-729-6500","hospUrl":"","estbDd":"20230213","drTotCnt":7,"mdeptSdrCnt":7,"lat":33.28365,"lng":126.55977},{"id":"9003821bff64","name":"365서귀포삼성정형외과의원","clCd":"31","clCdNm":"의원","sidoCd":"390000","sidoCdNm":"제주","sgguCdNm":"서귀포시","addr":"제주특별자치도 서귀포시 일주동로 9159, 3층 (법환동)","phone":"064-739-7000","hospUrl":"","estbDd":"20260113","drTotCnt":1,"mdeptSdrCnt":1,"lat":33.2477,"lng":126.51433},{"id":"c6c312bc6d21","name":"365제주의원","clCd":"31","clCdNm":"의원","sidoCd":"390000","sidoCdNm":"제주","sgguCdNm":"제주시","addr":"제주특별자치도 제주시 서광로 302, 2, 6층 (이도이동)","phone":"064-753-4645","hospUrl":"","estbDd":"19930831","drTotCnt":1,"mdeptSdrCnt":1,"lat":33.50032,"lng":126.52885},{"id":"b8537989f888","name":"365플러스내과의원","clCd":"31","clCdNm":"의원","sidoCd":"390000","sidoCdNm":"제주","sgguCdNm":"서귀포시","addr":"제주특별자치도 서귀포시 일주동로 9159, 4층 (법환동)","phone":"064-767-3650","hospUrl":"","estbDd":"20240719","drTotCnt":4,"mdeptSdrCnt":4,"lat":33.2477,"lng":126.51433},{"id":"7359e257a514","name":"911 매일의원","clCd":"31","clCdNm":"의원","sidoCd":"390000","sidoCdNm":"제주","sgguCdNm":"제주시","addr":"제주특별자치도 제주시 아연로 603, 2층 (아라일동)","phone":"064-724-0911","hospUrl":"","estbDd":"19920306","drTotCnt":2,"mdeptSdrCnt":2,"lat":33.47775,"lng":126.54359},{"id":"22b23c91ec46","name":"가톨릭안과의원","clCd":"31","clCdNm":"의원","sidoCd":"390000","sidoCdNm":"제주","sgguCdNm":"제주시","addr":"제주특별자치도 제주시 도령로 1, 3층 (노형동)","phone":"064-749-7008","hospUrl":"","estbDd":"20080103","drTotCnt":1,"mdeptSdrCnt":1,"lat":33.4868,"lng":126.4793},{"id":"f4e41baf3b8d","name":"가톨릭정신건강의학과의원","clCd":"31","clCdNm":"의원","sidoCd":"390000","sidoCdNm":"제주","sgguCdNm":"제주시","addr":"제주특별자치도 제주시 도령로 1, (노형동)","phone":"064-746-7355","hospUrl":"","estbDd":"19980908","drTotCnt":1,"mdeptSdrCnt":1,"lat":33.4868,"lng":126.4793},{"id":"5ec0959397f1","name":"강골정형외과의원","clCd":"31","clCdNm":"의원","sidoCd":"390000","sidoCdNm":"제주","sgguCdNm":"제주시","addr":"제주특별자치도 제주시 서광로 272, 3,4층 (도남동)","phone":"064-755-7300","hospUrl":"","estbDd":"20220615","drTotCnt":1,"mdeptSdrCnt":1,"lat":33.4998,"lng":126.52542},{"id":"4b639279882f","name":"강남마디척의원","clCd":"31","clCdNm":"의원","sidoCd":"390000","sidoCdNm":"제주","sgguCdNm":"서귀포시","addr":"제주특별자치도 서귀포시 신서로48번길 52, 4층 (법환동)","phone":"064-751-7582","hospUrl":"","estbDd":"20210720","drTotCnt":1,"mdeptSdrCnt":"","lat":33.25279,"lng":126.51036},{"id":"83b27ada111a","name":"강남새힘마취통증의학과의원","clCd":"31","clCdNm":"의원","sidoCd":"390000","sidoCdNm":"제주","sgguCdNm":"서귀포시","addr":"제주특별자치도 서귀포시 동문로 8, 제주감귤농협 2층 (서귀동)","phone":"064-732-7588","hospUrl":"","estbDd":"20150701","drTotCnt":1,"mdeptSdrCnt":1,"lat":33.25199,"lng":126.56202},{"id":"751db21eb21e","name":"강남성모안과의원","clCd":"31","clCdNm":"의원","sidoCd":"390000","sidoCdNm":"제주","sgguCdNm":"제주시","addr":"제주특별자치도 제주시 수덕1길 3, (노형동,4,5층)","phone":"064-745-7100","hospUrl":"","estbDd":"20050602","drTotCnt":1,"mdeptSdrCnt":1,"lat":33.48622,"lng":126.47823},{"id":"ccf80fd1e7fd","name":"강남스타성형외과의원","clCd":"31","clCdNm":"의원","sidoCd":"390000","sidoCdNm":"제주","sgguCdNm":"제주시","addr":"제주특별자치도 제주시 신형로 14, 2,3층 (노형동)","phone":"064-745-7456","hospUrl":"","estbDd":"20160708","drTotCnt":1,"mdeptSdrCnt":1,"lat":33.48226,"lng":126.47664},{"id":"918f15ab81b8","name":"강남의원","clCd":"31","clCdNm":"의원","sidoCd":"390000","sidoCdNm":"제주","sgguCdNm":"제주시","addr":"제주특별자치도 제주시 서광로 302, 3층 (이도이동)","phone":"755-1008","hospUrl":"","estbDd":"20010608","drTotCnt":1,"mdeptSdrCnt":1,"lat":33.50032,"lng":126.52885},{"id":"522cc4d3c8a3","name":"강남정형외과의원","clCd":"31","clCdNm":"의원","sidoCd":"390000","sidoCdNm":"제주","sgguCdNm":"서귀포시","addr":"제주특별자치도 서귀포시 대정읍 신영로 75, 3층","phone":"064-792-3001","hospUrl":"","estbDd":"20221018","drTotCnt":2,"mdeptSdrCnt":2,"lat":33.22095,"lng":126.25089},{"id":"94298dd16374","name":"강남케이뷰티성형외과의원","clCd":"31","clCdNm":"의원","sidoCd":"390000","sidoCdNm":"제주","sgguCdNm":"제주시","addr":"제주특별자치도 제주시 중앙로 371-1, 3, 5층 (이도이동)","phone":"064-758-1800","hospUrl":"","estbDd":"20160308","drTotCnt":1,"mdeptSdrCnt":1,"lat":33.48908,"lng":126.53955},{"id":"78db62987580","name":"강문보내과의원","clCd":"31","clCdNm":"의원","sidoCd":"390000","sidoCdNm":"제주","sgguCdNm":"서귀포시","addr":"제주특별자치도 서귀포시 대정읍 하모상가로 27, (대정읍)","phone":"064-794-7085","hospUrl":"","estbDd":"20010317","drTotCnt":1,"mdeptSdrCnt":1,"lat":33.22167,"lng":126.25172},{"id":"1cfa4f844d6d","name":"강미정소아청소년과의원","clCd":"31","clCdNm":"의원","sidoCd":"390000","sidoCdNm":"제주","sgguCdNm":"제주시","addr":"제주특별자치도 제주시 연오로 59, 3층 (오라삼동)","phone":"064-743-8080","hospUrl":"","estbDd":"20190222","drTotCnt":1,"mdeptSdrCnt":1,"lat":33.48793,"lng":126.50206},{"id":"e00636ed1e3b","name":"강윤종소아청소년과의원","clCd":"31","clCdNm":"의원","sidoCd":"390000","sidoCdNm":"제주","sgguCdNm":"제주시","addr":"제주특별자치도 제주시 일주동로 255, 3층 (화북일동)","phone":"064-745-1881","hospUrl":"","estbDd":"20070315","drTotCnt":1,"mdeptSdrCnt":1,"lat":33.52063,"lng":126.57221},{"id":"d95a7739b858","name":"강정형외과의원","clCd":"31","clCdNm":"의원","sidoCd":"390000","sidoCdNm":"제주","sgguCdNm":"제주시","addr":"제주특별자치도 제주시 서광로 262, 1~2층 (삼도일동)","phone":"064-753-8711","hospUrl":"","estbDd":"19871028","drTotCnt":1,"mdeptSdrCnt":1,"lat":33.49966,"lng":126.5245},{"id":"705fb6b6fbd2","name":"강주현피부과의원","clCd":"31","clCdNm":"의원","sidoCd":"390000","sidoCdNm":"제주","sgguCdNm":"제주시","addr":"제주특별자치도 제주시 건주로 27, 3층 (도련일동)","phone":"064-805-0079","hospUrl":"","estbDd":"20220106","drTotCnt":1,"mdeptSdrCnt":1,"lat":33.51709,"lng":126.58114},{"id":"f6a7b6fb1327","name":"강형길유외과의원","clCd":"31","clCdNm":"의원","sidoCd":"390000","sidoCdNm":"제주","sgguCdNm":"제주시","addr":"제주특별자치도 제주시 서광로 220, 서광빌딩 4층 402호 (삼도일동)","phone":"064-725-7007","hospUrl":"","estbDd":"20240319","drTotCnt":1,"mdeptSdrCnt":1,"lat":33.49957,"lng":126.52008},{"id":"afa5272aa243","name":"강형윤가정의학과의원","clCd":"31","clCdNm":"의원","sidoCd":"390000","sidoCdNm":"제주","sgguCdNm":"제주시","addr":"제주특별자치도 제주시 우정로 59, (외도일동)","phone":"064-713-0332","hospUrl":"","estbDd":"20030218","drTotCnt":1,"mdeptSdrCnt":1,"lat":33.48744,"lng":126.43114},{"id":"1b447ec03f19","name":"건강100세의원","clCd":"31","clCdNm":"의원","sidoCd":"390000","sidoCdNm":"제주","sgguCdNm":"제주시","addr":"제주특별자치도 제주시 서광로 273, 2층 (이도일동)","phone":"064-751-8222","hospUrl":"","estbDd":"20170327","drTotCnt":1,"mdeptSdrCnt":1,"lat":33.50042,"lng":126.52565},{"id":"c6f19c7d1f3a","name":"건강369의원","clCd":"31","clCdNm":"의원","sidoCd":"390000","sidoCdNm":"제주","sgguCdNm":"제주시","addr":"제주특별자치도 제주시 일주동로 227, 3층 (화북일동)","phone":"064-722-3698","hospUrl":"","estbDd":"20050808","drTotCnt":1,"mdeptSdrCnt":1,"lat":33.51942,"lng":126.56978},{"id":"c8fa472898af","name":"건강한한림연합내과의원","clCd":"31","clCdNm":"의원","sidoCd":"390000","sidoCdNm":"제주","sgguCdNm":"제주시","addr":"제주특별자치도 제주시 한림읍 한림중앙로 71, 2층","phone":"064-900-1017","hospUrl":"","estbDd":"20210823","drTotCnt":2,"mdeptSdrCnt":2,"lat":33.40873,"lng":126.26669},{"id":"b83fb4221213","name":"건강해소아청소년과의원","clCd":"31","clCdNm":"의원","sidoCd":"390000","sidoCdNm":"제주","sgguCdNm":"제주시","addr":"제주특별자치도 제주시 연북로 517, 2층 (아라일동)","phone":"064-759-6658","hospUrl":"https://thewellness.modoo.at/?link=de5vhlaz","estbDd":"20240405","drTotCnt":1,"mdeptSdrCnt":1,"lat":33.48472,"lng":126.53512},{"id":"7937a84462d1","name":"고든비뇨의학과의원","clCd":"31","clCdNm":"의원","sidoCd":"390000","sidoCdNm":"제주","sgguCdNm":"제주시","addr":"제주특별자치도 제주시 도령로 76, 5층 (연동)","phone":"064-711-2678","hospUrl":"","estbDd":"20200915","drTotCnt":1,"mdeptSdrCnt":1,"lat":33.48987,"lng":126.48659},{"id":"fcc05623144f","name":"고려삼성의원","clCd":"31","clCdNm":"의원","sidoCd":"390000","sidoCdNm":"제주","sgguCdNm":"서귀포시","addr":"제주특별자치도 서귀포시 중앙로 44, (서귀동)","phone":"064-762-7524","hospUrl":"","estbDd":"20120416","drTotCnt":1,"mdeptSdrCnt":1,"lat":33.24855,"lng":126.5619},{"id":"4494d5eb3ca2","name":"고려의원","clCd":"31","clCdNm":"의원","sidoCd":"390000","sidoCdNm":"제주","sgguCdNm":"제주시","addr":"제주특별자치도 제주시 구좌읍 세화10길 1, 2층","phone":"064-784-7002","hospUrl":"","estbDd":"20170331","drTotCnt":1,"mdeptSdrCnt":1,"lat":33.52084,"lng":126.8588},{"id":"50ef2fbc3b90","name":"고려이비인후과의원","clCd":"31","clCdNm":"의원","sidoCd":"390000","sidoCdNm":"제주","sgguCdNm":"제주시","addr":"제주특별자치도 제주시 중앙로 366, (이도이동)","phone":"064-726-5630","hospUrl":"","estbDd":"20170109","drTotCnt":1,"mdeptSdrCnt":1,"lat":33.4892,"lng":126.53848},{"id":"131ab27ba408","name":"고산사랑의원","clCd":"31","clCdNm":"의원","sidoCd":"390000","sidoCdNm":"제주","sgguCdNm":"제주시","addr":"제주특별자치도 제주시 한경면 고산로 15, (한경면)","phone":"064-772-2891","hospUrl":"","estbDd":"20060504","drTotCnt":1,"mdeptSdrCnt":1,"lat":33.30242,"lng":126.17939},{"id":"8ef279f32f27","name":"고산의원","clCd":"31","clCdNm":"의원","sidoCd":"390000","sidoCdNm":"제주","sgguCdNm":"제주시","addr":"제주특별자치도 제주시 한경면 고산로 8, (한경면)","phone":"064-773-1963","hospUrl":"","estbDd":"20170206","drTotCnt":1,"mdeptSdrCnt":1,"lat":33.30167,"lng":126.17981},{"id":"2a0be47db679","name":"고순희내과의원","clCd":"31","clCdNm":"의원","sidoCd":"390000","sidoCdNm":"제주","sgguCdNm":"제주시","addr":"제주특별자치도 제주시 서사로 155, (삼도일동)","phone":"064-721-1789","hospUrl":"","estbDd":"19970422","drTotCnt":5,"mdeptSdrCnt":5,"lat":33.49845,"lng":126.52003},{"id":"a6949ba96e1f","name":"고신경정신과의원","clCd":"31","clCdNm":"의원","sidoCd":"390000","sidoCdNm":"제주","sgguCdNm":"제주시","addr":"제주특별자치도 제주시 서광로 203, (삼도일동)","phone":"722-3185","hospUrl":"","estbDd":"19830303","drTotCnt":1,"mdeptSdrCnt":1,"lat":33.50018,"lng":126.51813},{"id":"a9aeafbe2caf","name":"고영관신경외과의원","clCd":"31","clCdNm":"의원","sidoCd":"390000","sidoCdNm":"제주","sgguCdNm":"제주시","addr":"제주특별자치도 제주시 연삼로 342, 2층 (도남동)","phone":"064-742-7572","hospUrl":"","estbDd":"20070418","drTotCnt":1,"mdeptSdrCnt":1,"lat":33.49197,"lng":126.52908},{"id":"2d857dc0125c","name":"고영호재활의학과의원","clCd":"31","clCdNm":"의원","sidoCd":"390000","sidoCdNm":"제주","sgguCdNm":"제주시","addr":"제주특별자치도 제주시 서광로 175, (용담일동)","phone":"064-721-8275","hospUrl":"","estbDd":"19950605","drTotCnt":1,"mdeptSdrCnt":1,"lat":33.50032,"lng":126.51519},{"id":"33cc6075eab4","name":"고은미(美)의원","clCd":"31","clCdNm":"의원","sidoCd":"390000","sidoCdNm":"제주","sgguCdNm":"서귀포시","addr":"제주특별자치도 서귀포시 일주동로 8707, 위너스빌딩 2층 (서귀동)","phone":"064-763-1231","hospUrl":"","estbDd":"20191223","drTotCnt":1,"mdeptSdrCnt":1,"lat":33.25247,"lng":126.55826},{"id":"a03f6a8fc89d","name":"고은의원","clCd":"31","clCdNm":"의원","sidoCd":"390000","sidoCdNm":"제주","sgguCdNm":"서귀포시","addr":"제주특별자치도 서귀포시 대정읍 상모로 323, 2층(고은의원)","phone":"064-794-7565","hospUrl":"","estbDd":"20010602","drTotCnt":1,"mdeptSdrCnt":"","lat":33.22218,"lng":126.25497},{"id":"9144179f3798","name":"고은희산부인과의원","clCd":"31","clCdNm":"의원","sidoCd":"390000","sidoCdNm":"제주","sgguCdNm":"서귀포시","addr":"제주특별자치도 서귀포시 중정로 78, (서귀동)","phone":"064-762-2266","hospUrl":"http://kohehobgy.co.kr","estbDd":"19741202","drTotCnt":1,"mdeptSdrCnt":1,"lat":33.24799,"lng":126.56468},{"id":"ed8e9a439535","name":"공감성형외과의원","clCd":"31","clCdNm":"의원","sidoCd":"390000","sidoCdNm":"제주","sgguCdNm":"제주시","addr":"제주특별자치도 제주시 중앙로 310, 1,2층 (이도이동)","phone":"064-702-0310","hospUrl":"","estbDd":"20170804","drTotCnt":1,"mdeptSdrCnt":1,"lat":33.49316,"lng":126.53478},{"id":"7662dadca7ca","name":"구구정형외과의원","clCd":"31","clCdNm":"의원","sidoCd":"390000","sidoCdNm":"제주","sgguCdNm":"제주시","addr":"제주특별자치도 제주시 우정로 55, 2, 3층 (외도일동)","phone":"064-747-0199","hospUrl":"","estbDd":"20181211","drTotCnt":1,"mdeptSdrCnt":1,"lat":33.48797,"lng":126.43112},{"id":"3352c95196a1","name":"구좌의원","clCd":"31","clCdNm":"의원","sidoCd":"390000","sidoCdNm":"제주","sgguCdNm":"제주시","addr":"제주특별자치도 제주시 구좌읍 세화12길 1, (구좌읍)","phone":"064-782-9282","hospUrl":"","estbDd":"19950704","drTotCnt":1,"mdeptSdrCnt":"","lat":33.52084,"lng":126.85927},{"id":"2ba4fd3630c9","name":"국가대표정형외과의원","clCd":"31","clCdNm":"의원","sidoCd":"390000","sidoCdNm":"제주","sgguCdNm":"제주시","addr":"제주특별자치도 제주시 연북로 90, 2, 3층 (연동)","phone":"064-745-5566","hospUrl":"","estbDd":"20210825","drTotCnt":3,"mdeptSdrCnt":3,"lat":33.48151,"lng":126.49083},{"id":"9538fea0fbce","name":"권대헌내과의원","clCd":"31","clCdNm":"의원","sidoCd":"390000","sidoCdNm":"제주","sgguCdNm":"제주시","addr":"제주특별자치도 제주시 노형로 386, 4층 (노형동)","phone":"064-742-5575","hospUrl":"","estbDd":"20220324","drTotCnt":1,"mdeptSdrCnt":1,"lat":33.48414,"lng":126.47692},{"id":"b637c9be1c11","name":"그린서울내과의원","clCd":"31","clCdNm":"의원","sidoCd":"390000","sidoCdNm":"제주","sgguCdNm":"제주시","addr":"제주특별자치도 제주시 1100로 3333, 5층 (노형동)","phone":"064-749-7770","hospUrl":"","estbDd":"20110128","drTotCnt":1,"mdeptSdrCnt":1,"lat":33.48361,"lng":126.48014},{"id":"bfb434cc75d7","name":"그린정형외과의원","clCd":"31","clCdNm":"의원","sidoCd":"390000","sidoCdNm":"제주","sgguCdNm":"서귀포시","addr":"제주특별자치도 서귀포시 일주동로 8544, 2층 (동홍동)","phone":"064-763-7582","hospUrl":"","estbDd":"20100629","drTotCnt":1,"mdeptSdrCnt":1,"lat":33.25506,"lng":126.57554},{"id":"b07b7894bcb2","name":"김광정정형외과의원","clCd":"31","clCdNm":"의원","sidoCd":"390000","sidoCdNm":"제주","sgguCdNm":"제주시","addr":"제주특별자치도 제주시 월랑로8길 1, 아란야플라자 2층 202호 (노형동)","phone":"064-742-7588","hospUrl":"","estbDd":"20180726","drTotCnt":1,"mdeptSdrCnt":1,"lat":33.48882,"lng":126.47667},{"id":"3741c6a7cd45","name":"김기준이비인후과의원","clCd":"31","clCdNm":"의원","sidoCd":"390000","sidoCdNm":"제주","sgguCdNm":"제주시","addr":"제주특별자치도 제주시 승천로 75, (아라이동)","phone":"756-8900","hospUrl":"","estbDd":"20130821","drTotCnt":1,"mdeptSdrCnt":1,"lat":33.49223,"lng":126.54317},{"id":"ccfe9b2c257f","name":"김래상신경외과의원","clCd":"31","clCdNm":"의원","sidoCd":"390000","sidoCdNm":"제주","sgguCdNm":"제주시","addr":"제주특별자치도 제주시 중앙로 366, 2층 (이도이동)","phone":"064-725-8275","hospUrl":"","estbDd":"20140703","drTotCnt":1,"mdeptSdrCnt":1,"lat":33.4892,"lng":126.53848},{"id":"2a5c818a744e","name":"김명식내과의원","clCd":"31","clCdNm":"의원","sidoCd":"390000","sidoCdNm":"제주","sgguCdNm":"제주시","addr":"제주특별자치도 제주시 용문로 163, (용담이동)","phone":"758-0008","hospUrl":"","estbDd":"20000914","drTotCnt":1,"mdeptSdrCnt":1,"lat":33.50928,"lng":126.5108},{"id":"a45711dd0b40","name":"김병훈정형외과의원","clCd":"31","clCdNm":"의원","sidoCd":"390000","sidoCdNm":"제주","sgguCdNm":"제주시","addr":"제주특별자치도 제주시 도령로 7, (노형동)","phone":"064-744-0700","hospUrl":"","estbDd":"20030410","drTotCnt":1,"mdeptSdrCnt":1,"lat":33.48666,"lng":126.48009},{"id":"6d40e45a4616","name":"김상훈비뇨기과의원","clCd":"31","clCdNm":"의원","sidoCd":"390000","sidoCdNm":"제주","sgguCdNm":"서귀포시","addr":"제주특별자치도 서귀포시 중앙로42번길 9, (서귀동)","phone":"064-762-7888","hospUrl":"","estbDd":"19880206","drTotCnt":1,"mdeptSdrCnt":1,"lat":33.24855,"lng":126.56275},{"id":"bd09dcdde29a","name":"김석홍마취통증의학과의원","clCd":"31","clCdNm":"의원","sidoCd":"390000","sidoCdNm":"제주","sgguCdNm":"서귀포시","addr":"제주특별자치도 서귀포시 중정로 56-1, (서귀동)","phone":"064-763-7575","hospUrl":"","estbDd":"20090622","drTotCnt":1,"mdeptSdrCnt":1,"lat":33.24749,"lng":126.56246},{"id":"901105f57ae3","name":"김세희소아과의원","clCd":"31","clCdNm":"의원","sidoCd":"390000","sidoCdNm":"제주","sgguCdNm":"제주시","addr":"제주특별자치도 제주시 동광로 110, 2층 (일도이동)","phone":"726-5275","hospUrl":"","estbDd":"20050216","drTotCnt":1,"mdeptSdrCnt":1,"lat":33.50613,"lng":126.53924},{"id":"fb5e53bb9be2","name":"김수로의원","clCd":"31","clCdNm":"의원","sidoCd":"390000","sidoCdNm":"제주","sgguCdNm":"제주시","addr":"제주특별자치도 제주시 한림읍 한림로 672, 2층","phone":"064-796-8011","hospUrl":"","estbDd":"19970506","drTotCnt":1,"mdeptSdrCnt":1,"lat":33.41466,"lng":126.26498},{"id":"ea683d0a8758","name":"김수상내과의원","clCd":"31","clCdNm":"의원","sidoCd":"390000","sidoCdNm":"제주","sgguCdNm":"제주시","addr":"제주특별자치도 제주시 동광로 100, (일도이동)","phone":"064-753-0996","hospUrl":"","estbDd":"19890123","drTotCnt":1,"mdeptSdrCnt":1,"lat":33.5055,"lng":126.53846},{"id":"3c52267e335d","name":"김앤김신경외과의원","clCd":"31","clCdNm":"의원","sidoCd":"390000","sidoCdNm":"제주","sgguCdNm":"제주시","addr":"제주특별자치도 제주시 1100로 3324, 6층 (노형동)","phone":"064-713-2500","hospUrl":"","estbDd":"20120627","drTotCnt":2,"mdeptSdrCnt":2,"lat":33.48302,"lng":126.48121},{"id":"325fc44f3132","name":"김영석성형외과의원","clCd":"31","clCdNm":"의원","sidoCd":"390000","sidoCdNm":"제주","sgguCdNm":"제주시","addr":"제주특별자치도 제주시 도령로 1, 5층 (노형동)","phone":"064-711-7533","hospUrl":"","estbDd":"19970415","drTotCnt":1,"mdeptSdrCnt":1,"lat":33.4868,"lng":126.4793},{"id":"b81d6b853753","name":"김영중의원","clCd":"31","clCdNm":"의원","sidoCd":"390000","sidoCdNm":"제주","sgguCdNm":"제주시","addr":"제주특별자치도 제주시 노형로 386, 2층 (노형동)","phone":"064-744-1175","hospUrl":"","estbDd":"20150806","drTotCnt":1,"mdeptSdrCnt":1,"lat":33.48414,"lng":126.47692},{"id":"5688a1ac2cef","name":"김판규외과의원","clCd":"31","clCdNm":"의원","sidoCd":"390000","sidoCdNm":"제주","sgguCdNm":"제주시","addr":"제주특별자치도 제주시 무근성7길 2, (삼도이동)","phone":"722-2852","hospUrl":"","estbDd":"19810413","drTotCnt":1,"mdeptSdrCnt":1,"lat":33.51314,"lng":126.52},{"id":"b00c43718975","name":"김헌지정형외과의원","clCd":"31","clCdNm":"의원","sidoCd":"390000","sidoCdNm":"제주","sgguCdNm":"제주시","addr":"제주특별자치도 제주시 동광로15길 4, (일도이동)","phone":"064-755-1081","hospUrl":"","estbDd":"19880316","drTotCnt":1,"mdeptSdrCnt":1,"lat":33.50606,"lng":126.53787},{"id":"e58201ebe635","name":"꾸러기소아청소년과의원","clCd":"31","clCdNm":"의원","sidoCd":"390000","sidoCdNm":"제주","sgguCdNm":"제주시","addr":"제주특별자치도 제주시 우정로 63, 1층 (외도일동)","phone":"064-713-7500","hospUrl":"","estbDd":"20120330","drTotCnt":1,"mdeptSdrCnt":1,"lat":33.48712,"lng":126.43111},{"id":"955e9f7ba9f3","name":"꿀의원","clCd":"31","clCdNm":"의원","sidoCd":"390000","sidoCdNm":"제주","sgguCdNm":"제주시","addr":"제주특별자치도 제주시 동화로 28, 4층 (화북일동)","phone":"064-759-7595","hospUrl":"","estbDd":"20180105","drTotCnt":1,"mdeptSdrCnt":1,"lat":33.51783,"lng":126.57281},{"id":"f9c072ef11d3","name":"나우리제통의원","clCd":"31","clCdNm":"의원","sidoCd":"390000","sidoCdNm":"제주","sgguCdNm":"제주시","addr":"제주특별자치도 제주시 한림읍 한림북동길 7, 한림중앙상가 2층 202호","phone":"064-796-0995","hospUrl":"","estbDd":"20030227","drTotCnt":1,"mdeptSdrCnt":1,"lat":33.41592,"lng":126.26361},{"id":"82bbfa737932","name":"나우메디의원","clCd":"31","clCdNm":"의원","sidoCd":"390000","sidoCdNm":"제주","sgguCdNm":"제주시","addr":"제주특별자치도 제주시 연북로 511, 에이플렉스 3층 (아라일동)","phone":"064-727-1339","hospUrl":"","estbDd":"20220621","drTotCnt":3,"mdeptSdrCnt":3,"lat":33.48434,"lng":126.53464},{"id":"4d5352543e74","name":"나의원","clCd":"31","clCdNm":"의원","sidoCd":"390000","sidoCdNm":"제주","sgguCdNm":"제주시","addr":"제주특별자치도 제주시 관덕로 64, 3층 (일도일동)","phone":"064-756-2581","hospUrl":"","estbDd":"19940501","drTotCnt":1,"mdeptSdrCnt":1,"lat":33.5129,"lng":126.52603},{"id":"3e617f42b5e8","name":"날씬의원","clCd":"31","clCdNm":"의원","sidoCd":"390000","sidoCdNm":"제주","sgguCdNm":"제주시","addr":"제주특별자치도 제주시 도령로 5, (노형동)","phone":"744-0570","hospUrl":"","estbDd":"20030808","drTotCnt":1,"mdeptSdrCnt":1,"lat":33.48677,"lng":126.47992},{"id":"cf3a7c638587","name":"남도의원","clCd":"31","clCdNm":"의원","sidoCd":"390000","sidoCdNm":"제주","sgguCdNm":"제주시","addr":"제주특별자치도 제주시 우정로 65, (외도일동)","phone":"064-712-7127","hospUrl":"","estbDd":"20010205","drTotCnt":1,"mdeptSdrCnt":"","lat":33.48689,"lng":126.43112},{"id":"4f1cd90ab244","name":"남원고려의원","clCd":"31","clCdNm":"의원","sidoCd":"390000","sidoCdNm":"제주","sgguCdNm":"서귀포시","addr":"제주특별자치도 서귀포시 남원읍 태위로 691, 691","phone":"064-764-6988","hospUrl":"","estbDd":"20111216","drTotCnt":1,"mdeptSdrCnt":1,"lat":33.27961,"lng":126.72029},{"id":"70fd46e1b1d6","name":"남원의원","clCd":"31","clCdNm":"의원","sidoCd":"390000","sidoCdNm":"제주","sgguCdNm":"서귀포시","addr":"제주특별자치도 서귀포시 남원읍 태위로 636, (남원읍)","phone":"064-764-4156","hospUrl":"","estbDd":"19900307","drTotCnt":1,"mdeptSdrCnt":"","lat":33.27784,"lng":126.71457},{"id":"ef7ec90e0c2d","name":"남재희삼성피부과의원","clCd":"31","clCdNm":"의원","sidoCd":"390000","sidoCdNm":"제주","sgguCdNm":"제주시","addr":"제주특별자치도 제주시 관덕로 5, 호재빌딩 2·3층 (삼도이동)","phone":"064-757-1117","hospUrl":"","estbDd":"20231122","drTotCnt":3,"mdeptSdrCnt":3,"lat":33.51294,"lng":126.51969},{"id":"90712b959064","name":"노동의원","clCd":"31","clCdNm":"의원","sidoCd":"390000","sidoCdNm":"제주","sgguCdNm":"제주시","addr":"제주특별자치도 제주시 만덕로3길 2, 1층 (건입동)","phone":"064-722-5802","hospUrl":"","estbDd":"20190731","drTotCnt":1,"mdeptSdrCnt":1,"lat":33.5148,"lng":126.53216},{"id":"91d459895ed4","name":"노형365준의원","clCd":"31","clCdNm":"의원","sidoCd":"390000","sidoCdNm":"제주","sgguCdNm":"제주시","addr":"제주특별자치도 제주시 수덕로 41, 2층 (노형동)","phone":"064-746-9977","hospUrl":"","estbDd":"20250903","drTotCnt":1,"mdeptSdrCnt":"","lat":33.48615,"lng":126.47276},{"id":"11e0d891aae7","name":"노형오거리재활의학과의원","clCd":"31","clCdNm":"의원","sidoCd":"390000","sidoCdNm":"제주","sgguCdNm":"제주시","addr":"제주특별자치도 제주시 1100로 3347, 5,6층 (노형동)","phone":"064-749-9115","hospUrl":"","estbDd":"20170728","drTotCnt":1,"mdeptSdrCnt":1,"lat":33.48484,"lng":126.47963},{"id":"13e4ba3e8839","name":"노형이비인후과의원","clCd":"31","clCdNm":"의원","sidoCd":"390000","sidoCdNm":"제주","sgguCdNm":"제주시","addr":"제주특별자치도 제주시 월랑로 1, 6층 (노형동)","phone":"064-748-5075","hospUrl":"","estbDd":"19910307","drTotCnt":1,"mdeptSdrCnt":1,"lat":33.48637,"lng":126.47856},{"id":"204d65c40518","name":"녹십자정형외과의원","clCd":"31","clCdNm":"의원","sidoCd":"390000","sidoCdNm":"제주","sgguCdNm":"제주시","addr":"제주특별자치도 제주시 도령로 9, (노형동)","phone":"746-9507","hospUrl":"","estbDd":"19900223","drTotCnt":1,"mdeptSdrCnt":1,"lat":33.48678,"lng":126.48038},{"id":"e006db9b0e62","name":"누가제통마취통증의학과의원","clCd":"31","clCdNm":"의원","sidoCd":"390000","sidoCdNm":"제주","sgguCdNm":"제주시","addr":"제주특별자치도 제주시 청풍남8길 73, 3층 (화북이동)","phone":"064-752-5758","hospUrl":"","estbDd":"19990319","drTotCnt":1,"mdeptSdrCnt":1,"lat":33.51318,"lng":126.57247},{"id":"79b6e0098574","name":"눈사랑안과의원","clCd":"31","clCdNm":"의원","sidoCd":"390000","sidoCdNm":"제주","sgguCdNm":"제주시","addr":"제주특별자치도 제주시 노형8길 2, 4층 (노형동)","phone":"064-746-0048","hospUrl":"","estbDd":"20150413","drTotCnt":1,"mdeptSdrCnt":1,"lat":33.48434,"lng":126.47732},{"id":"f3d2b002ceb9","name":"늘봄미아름의원","clCd":"31","clCdNm":"의원","sidoCd":"390000","sidoCdNm":"제주","sgguCdNm":"제주시","addr":"제주특별자치도 제주시 월랑로 33, 한라빌딩 3층 (노형동)","phone":"064-747-5200","hospUrl":"","estbDd":"20160427","drTotCnt":1,"mdeptSdrCnt":1,"lat":33.48857,"lng":126.4761},{"id":"eef5ab72ade1","name":"늘푸른가정의학과의원","clCd":"31","clCdNm":"의원","sidoCd":"390000","sidoCdNm":"제주","sgguCdNm":"제주시","addr":"제주특별자치도 제주시 중앙로 175, 4층 (이도일동)","phone":"064-752-9696","hospUrl":"http://evergreenfm.co.kr","estbDd":"20171201","drTotCnt":1,"mdeptSdrCnt":1,"lat":33.50357,"lng":126.52737},{"id":"66d2fffa4586","name":"늘푸른내과의원","clCd":"31","clCdNm":"의원","sidoCd":"390000","sidoCdNm":"제주","sgguCdNm":"제주시","addr":"제주특별자치도 제주시 과원북4길 35, (노형동)","phone":"746-7337","hospUrl":"","estbDd":"19910731","drTotCnt":1,"mdeptSdrCnt":1,"lat":33.48125,"lng":126.48636},{"id":"cffa295ee555","name":"다나산부인과의원","clCd":"31","clCdNm":"의원","sidoCd":"390000","sidoCdNm":"제주","sgguCdNm":"제주시","addr":"제주특별자치도 제주시 고마로 47, (일도이동)","phone":"064-702-1186","hospUrl":"","estbDd":"20020128","drTotCnt":3,"mdeptSdrCnt":3,"lat":33.51004,"lng":126.53947},{"id":"9c0630139ba2","name":"다사랑가정의학과의원","clCd":"31","clCdNm":"의원","sidoCd":"390000","sidoCdNm":"제주","sgguCdNm":"제주시","addr":"제주특별자치도 제주시 신대로 128, (연동)","phone":"064-745-7582","hospUrl":"","estbDd":"20061017","drTotCnt":1,"mdeptSdrCnt":1,"lat":33.48585,"lng":126.49606},{"id":"37a331c74cf9","name":"다정금이비인후과의원","clCd":"31","clCdNm":"의원","sidoCd":"390000","sidoCdNm":"제주","sgguCdNm":"서귀포시","addr":"제주특별자치도 서귀포시 일주동로 8673, (서귀동)","phone":"064-767-9289","hospUrl":"","estbDd":"20070702","drTotCnt":1,"mdeptSdrCnt":1,"lat":33.25304,"lng":126.56183},{"id":"49ed16dce861","name":"닥터문의원","clCd":"31","clCdNm":"의원","sidoCd":"390000","sidoCdNm":"제주","sgguCdNm":"제주시","addr":"제주특별자치도 제주시 애월읍 애조로 236, (애월읍)","phone":"064-756-2900","hospUrl":"http://","estbDd":"20140620","drTotCnt":1,"mdeptSdrCnt":1,"lat":33.47292,"lng":126.40874},{"id":"2b188d0ab123","name":"닥터양내과의원","clCd":"31","clCdNm":"의원","sidoCd":"390000","sidoCdNm":"제주","sgguCdNm":"제주시","addr":"제주특별자치도 제주시 관덕로 18, (삼도이동)","phone":"064-752-3312","hospUrl":"","estbDd":"20130123","drTotCnt":1,"mdeptSdrCnt":1,"lat":33.51288,"lng":126.52126},{"id":"e52a35140956","name":"단단한정형외과의원","clCd":"31","clCdNm":"의원","sidoCd":"390000","sidoCdNm":"제주","sgguCdNm":"제주시","addr":"제주특별자치도 제주시 연북로 76, 한성빌딩 3층 (연동)","phone":"064-749-7577","hospUrl":"","estbDd":"20180822","drTotCnt":1,"mdeptSdrCnt":1,"lat":33.48153,"lng":126.48939},{"id":"1b11119c12f3","name":"대림외과의원","clCd":"31","clCdNm":"의원","sidoCd":"390000","sidoCdNm":"제주","sgguCdNm":"서귀포시","addr":"제주특별자치도 서귀포시 중앙로 25-3, (서귀동)","phone":"","hospUrl":"","estbDd":"20170925","drTotCnt":1,"mdeptSdrCnt":1,"lat":33.24708,"lng":126.56154},{"id":"44a80a3b91cf","name":"대정안과의원","clCd":"31","clCdNm":"의원","sidoCd":"390000","sidoCdNm":"제주","sgguCdNm":"서귀포시","addr":"제주특별자치도 서귀포시 대정읍 하모상가로 38-2, 101,201호","phone":"064-794-9900","hospUrl":"https://24eye.modoo.at/","estbDd":"20241125","drTotCnt":1,"mdeptSdrCnt":1,"lat":33.2214,"lng":126.25297},{"id":"1837adea8a85","name":"대정연합의원","clCd":"31","clCdNm":"의원","sidoCd":"390000","sidoCdNm":"제주","sgguCdNm":"서귀포시","addr":"제주특별자치도 서귀포시 대정읍 하모상가로 46, 5층","phone":"064-792-3238","hospUrl":"","estbDd":"20140827","drTotCnt":1,"mdeptSdrCnt":1,"lat":33.22161,"lng":126.25371},{"id":"ea856dc57ce9","name":"대정의원","clCd":"31","clCdNm":"의원","sidoCd":"390000","sidoCdNm":"제주","sgguCdNm":"서귀포시","addr":"제주특별자치도 서귀포시 대정읍 하모상가로 46, 4층","phone":"064-792-7588","hospUrl":"","estbDd":"20150602","drTotCnt":1,"mdeptSdrCnt":1,"lat":33.22161,"lng":126.25371},{"id":"1fc6504d7d91","name":"대한내과의원","clCd":"31","clCdNm":"의원","sidoCd":"390000","sidoCdNm":"제주","sgguCdNm":"제주시","addr":"제주특별자치도 제주시 노형11길 25, 2층 (노형동)","phone":"064-746-9661","hospUrl":"","estbDd":"20160819","drTotCnt":1,"mdeptSdrCnt":1,"lat":33.48278,"lng":126.47771},{"id":"92e6847c7558","name":"더고운의원","clCd":"31","clCdNm":"의원","sidoCd":"390000","sidoCdNm":"제주","sgguCdNm":"제주시","addr":"제주특별자치도 제주시 중앙로 371, (이도이동)","phone":"064-727-9919","hospUrl":"","estbDd":"20130315","drTotCnt":2,"mdeptSdrCnt":"","lat":33.4892,"lng":126.53946},{"id":"9591cab8a925","name":"더나음이비인후과의원","clCd":"31","clCdNm":"의원","sidoCd":"390000","sidoCdNm":"제주","sgguCdNm":"제주시","addr":"제주특별자치도 제주시 서광로 267, 1층 (삼도일동)","phone":"064-755-8383","hospUrl":"","estbDd":"19990324","drTotCnt":2,"mdeptSdrCnt":2,"lat":33.50023,"lng":126.52494},{"id":"724661fe288c","name":"더리프트의원","clCd":"31","clCdNm":"의원","sidoCd":"390000","sidoCdNm":"제주","sgguCdNm":"제주시","addr":"제주특별자치도 제주시 과원로 110, 2층 201호 (연동)","phone":"064-747-2302","hospUrl":"","estbDd":"20230207","drTotCnt":2,"mdeptSdrCnt":1,"lat":33.47936,"lng":126.49348},{"id":"ed36c7ed5bdf","name":"더맑은이비인후과의원","clCd":"31","clCdNm":"의원","sidoCd":"390000","sidoCdNm":"제주","sgguCdNm":"제주시","addr":"제주특별자치도 제주시 동화로 28, 2층 (화북일동)","phone":"064-755-7588","hospUrl":"","estbDd":"20160725","drTotCnt":1,"mdeptSdrCnt":1,"lat":33.51783,"lng":126.57281},{"id":"0be04de4ae66","name":"더미인의원","clCd":"31","clCdNm":"의원","sidoCd":"390000","sidoCdNm":"제주","sgguCdNm":"제주시","addr":"제주특별자치도 제주시 도령로 25, 2~3층 (노형동)","phone":"064-749-5222","hospUrl":"","estbDd":"20150603","drTotCnt":6,"mdeptSdrCnt":3,"lat":33.48762,"lng":126.48136},{"id":"04c71eeeeecf","name":"더유니콘의원","clCd":"31","clCdNm":"의원","sidoCd":"390000","sidoCdNm":"제주","sgguCdNm":"제주시","addr":"제주특별자치도 제주시 1100로 3323, 4층 (노형동)","phone":"064-746-1773","hospUrl":"","estbDd":"20230425","drTotCnt":2,"mdeptSdrCnt":2,"lat":33.483,"lng":126.4804},{"id":"61021145ccac","name":"더이음정신건강의학과의원","clCd":"31","clCdNm":"의원","sidoCd":"390000","sidoCdNm":"제주","sgguCdNm":"제주시","addr":"제주특별자치도 제주시 중앙로 299, 402호 (이도이동)","phone":"064-805-7755","hospUrl":"","estbDd":"20230501","drTotCnt":1,"mdeptSdrCnt":1,"lat":33.4944,"lng":126.53464},{"id":"df8fa1d39a98","name":"더자란 소아청소년과의원","clCd":"31","clCdNm":"의원","sidoCd":"390000","sidoCdNm":"제주","sgguCdNm":"제주시","addr":"제주특별자치도 제주시 연북로 556, 2층 (아라일동)","phone":"064-755-5279","hospUrl":"","estbDd":"20221028","drTotCnt":1,"mdeptSdrCnt":1,"lat":33.4864,"lng":126.53908},{"id":"3b06c3214c7d","name":"더좋은이비인후과의원","clCd":"31","clCdNm":"의원","sidoCd":"390000","sidoCdNm":"제주","sgguCdNm":"제주시","addr":"제주특별자치도 제주시 중앙로 337, 2층 (이도이동)","phone":"064-702-8820","hospUrl":"","estbDd":"20171011","drTotCnt":1,"mdeptSdrCnt":1,"lat":33.49149,"lng":126.53725},{"id":"c3f573550cdd","name":"더편한오동훈내과의원","clCd":"31","clCdNm":"의원","sidoCd":"390000","sidoCdNm":"제주","sgguCdNm":"제주시","addr":"제주특별자치도 제주시 서광로 294, 3층 (이도이동)","phone":"064-759-8575","hospUrl":"","estbDd":"20180910","drTotCnt":1,"mdeptSdrCnt":1,"lat":33.50019,"lng":126.52789},{"id":"ca700a349aaa","name":"동남의원","clCd":"31","clCdNm":"의원","sidoCd":"390000","sidoCdNm":"제주","sgguCdNm":"서귀포시","addr":"제주특별자치도 서귀포시 성산읍 서성일로 1177, (성산읍)","phone":"064-784-9400","hospUrl":"","estbDd":"19990526","drTotCnt":1,"mdeptSdrCnt":1,"lat":33.44633,"lng":126.90417},{"id":"94ec730050da","name":"동산내과의원","clCd":"31","clCdNm":"의원","sidoCd":"390000","sidoCdNm":"제주","sgguCdNm":"제주시","addr":"제주특별자치도 제주시 중앙로 337, 3,5층 (이도이동)","phone":"064-723-0865","hospUrl":"","estbDd":"20180515","drTotCnt":2,"mdeptSdrCnt":2,"lat":33.49149,"lng":126.53725},{"id":"d509a1cb8bca","name":"동일내과의원","clCd":"31","clCdNm":"의원","sidoCd":"390000","sidoCdNm":"제주","sgguCdNm":"제주시","addr":"제주특별자치도 제주시 동광로 131, (일도이동)","phone":"753-2311","hospUrl":"http://www.dmclinic.co.kr","estbDd":"19771102","drTotCnt":1,"mdeptSdrCnt":1,"lat":33.50794,"lng":126.54047},{"id":"8d9e9d6842dc","name":"두리이비인후과의원","clCd":"31","clCdNm":"의원","sidoCd":"390000","sidoCdNm":"제주","sgguCdNm":"제주시","addr":"제주특별자치도 제주시 연삼로 414, 2층 (이도이동)","phone":"064-702-8275","hospUrl":"","estbDd":"20120131","drTotCnt":1,"mdeptSdrCnt":1,"lat":33.49568,"lng":126.53545},{"id":"f1c8fbe5967a","name":"두유외과의원","clCd":"31","clCdNm":"의원","sidoCd":"390000","sidoCdNm":"제주","sgguCdNm":"제주시","addr":"제주특별자치도 제주시 노형로 362, 2층 (노형동)","phone":"064-747-2675","hospUrl":"https://do-you.co.kr","estbDd":"20240909","drTotCnt":1,"mdeptSdrCnt":1,"lat":33.48262,"lng":126.47504},{"id":"86935f97d207","name":"드림미성형외과의원","clCd":"31","clCdNm":"의원","sidoCd":"390000","sidoCdNm":"제주","sgguCdNm":"제주시","addr":"제주특별자치도 제주시 1100로 3347, 4층 (노형동, 세기빌딩)","phone":"064-749-9400","hospUrl":"","estbDd":"20171116","drTotCnt":1,"mdeptSdrCnt":1,"lat":33.48484,"lng":126.47963},{"id":"b644c54c3e26","name":"드림통증의원","clCd":"31","clCdNm":"의원","sidoCd":"390000","sidoCdNm":"제주","sgguCdNm":"서귀포시","addr":"제주특별자치도 서귀포시 남원읍 태위로 629, 참사랑의원","phone":"064-764-7227","hospUrl":"","estbDd":"20220719","drTotCnt":1,"mdeptSdrCnt":1,"lat":33.27805,"lng":126.71407},{"id":"664982d2673e","name":"드림포레산부인과의원","clCd":"31","clCdNm":"의원","sidoCd":"390000","sidoCdNm":"제주","sgguCdNm":"제주시","addr":"제주특별자치도 제주시 서사로 136, 3,4,5층 (삼도일동)","phone":"064-759-7838","hospUrl":"","estbDd":"20190816","drTotCnt":2,"mdeptSdrCnt":2,"lat":33.5003,"lng":126.51958},{"id":"d9cbed346008","name":"땡큐베리마취통증의학과의원","clCd":"31","clCdNm":"의원","sidoCd":"390000","sidoCdNm":"제주","sgguCdNm":"제주시","addr":"제주특별자치도 제주시 중앙로 352, 오현타워 2층 (이도이동)","phone":"064-722-2833","hospUrl":"","estbDd":"20230224","drTotCnt":1,"mdeptSdrCnt":1,"lat":33.49016,"lng":126.53751},{"id":"7cc0dd1e312c","name":"로즈마리의원","clCd":"31","clCdNm":"의원","sidoCd":"390000","sidoCdNm":"제주","sgguCdNm":"제주시","addr":"제주특별자치도 제주시 건주로4길 6-8, 3층 301호 (도련일동)","phone":"064-727-3010","hospUrl":"","estbDd":"20190508","drTotCnt":1,"mdeptSdrCnt":"","lat":33.51676,"lng":126.58029},{"id":"0d6555a41ed4","name":"로즈앤의원","clCd":"31","clCdNm":"의원","sidoCd":"390000","sidoCdNm":"제주","sgguCdNm":"제주시","addr":"제주특별자치도 제주시 1100로 3333, 4층 (노형동)","phone":"064-803-3723","hospUrl":"","estbDd":"20190619","drTotCnt":2,"mdeptSdrCnt":2,"lat":33.48361,"lng":126.48014},{"id":"a00a0754eb5e","name":"로하스의원","clCd":"31","clCdNm":"의원","sidoCd":"390000","sidoCdNm":"제주","sgguCdNm":"제주시","addr":"제주특별자치도 제주시 연북로 527, 301호 (아라일동)","phone":"064-756-7582","hospUrl":"","estbDd":"19980522","drTotCnt":1,"mdeptSdrCnt":1,"lat":33.48518,"lng":126.53615},{"id":"99623c70fde8","name":"루카산부인과의원","clCd":"31","clCdNm":"의원","sidoCd":"390000","sidoCdNm":"제주","sgguCdNm":"서귀포시","addr":"제주특별자치도 서귀포시 월드컵로 8, 3층 304호 (강정동)","phone":"","hospUrl":"","estbDd":"20240126","drTotCnt":2,"mdeptSdrCnt":2,"lat":33.249,"lng":126.50732},{"id":"27e0bb758dd4","name":"류정신건강의학과의원","clCd":"31","clCdNm":"의원","sidoCd":"390000","sidoCdNm":"제주","sgguCdNm":"제주시","addr":"제주특별자치도 제주시 건주로 22, 3층 (삼양이동)","phone":"064-751-0901","hospUrl":"","estbDd":"20180814","drTotCnt":1,"mdeptSdrCnt":1,"lat":33.51751,"lng":126.58045},{"id":"930351bd8a98","name":"마디의원","clCd":"31","clCdNm":"의원","sidoCd":"390000","sidoCdNm":"제주","sgguCdNm":"서귀포시","addr":"제주특별자치도 서귀포시 성산읍 일출로 4, 케이빌딩","phone":"064-782-7582","hospUrl":"http://www.madiclinic.com","estbDd":"20080227","drTotCnt":3,"mdeptSdrCnt":3,"lat":33.44711,"lng":126.9133},{"id":"b72784f1d17c","name":"마리산부인과의원","clCd":"31","clCdNm":"의원","sidoCd":"390000","sidoCdNm":"제주","sgguCdNm":"제주시","addr":"제주특별자치도 제주시 고마로 146, (이도이동)","phone":"064-755-2544","hospUrl":"http://www.mariejeju.com/","estbDd":"20130226","drTotCnt":1,"mdeptSdrCnt":1,"lat":33.50164,"lng":126.54296},{"id":"89906190bf2b","name":"마릴린제이의원","clCd":"31","clCdNm":"의원","sidoCd":"390000","sidoCdNm":"제주","sgguCdNm":"제주시","addr":"제주특별자치도 제주시 월랑로 5, 2층 (노형동)","phone":"064-747-2008","hospUrl":"www.marilynj.co.kr/","estbDd":"20180531","drTotCnt":1,"mdeptSdrCnt":1,"lat":33.48669,"lng":126.47826},{"id":"c89038b446b4","name":"맑은수면이비인후과의원","clCd":"31","clCdNm":"의원","sidoCd":"390000","sidoCdNm":"제주","sgguCdNm":"제주시","addr":"제주특별자치도 제주시 원노형남1길 1, 더현빌딩 2,3층 (노형동)","phone":"064-747-0595","hospUrl":"","estbDd":"20180308","drTotCnt":2,"mdeptSdrCnt":2,"lat":33.484,"lng":126.48072},{"id":"dff421c879d0","name":"맘편한산부인과의원","clCd":"31","clCdNm":"의원","sidoCd":"390000","sidoCdNm":"제주","sgguCdNm":"제주시","addr":"제주특별자치도 제주시 광평동로 9, B1,3,4층 (노형동)","phone":"064-711-3080","hospUrl":"","estbDd":"20160302","drTotCnt":3,"mdeptSdrCnt":3,"lat":33.4812,"lng":126.47126},{"id":"84d8e5fde75e","name":"맨투맨남성의원","clCd":"31","clCdNm":"의원","sidoCd":"390000","sidoCdNm":"제주","sgguCdNm":"제주시","addr":"제주특별자치도 제주시 도령로 7, 금성빌딩 3층 (노형동)","phone":"064-749-7775","hospUrl":"","estbDd":"20221011","drTotCnt":1,"mdeptSdrCnt":1,"lat":33.48666,"lng":126.48009},{"id":"30dc3dcc5760","name":"메디오름가정의학과의원","clCd":"31","clCdNm":"의원","sidoCd":"390000","sidoCdNm":"제주","sgguCdNm":"제주시","addr":"제주특별자치도 제주시 선덕로 18, 진일빌딩 1층 (연동)","phone":"064-757-5080","hospUrl":"","estbDd":"20240202","drTotCnt":1,"mdeptSdrCnt":1,"lat":33.48543,"lng":126.49845},{"id":"1028e7509b77","name":"메디필산부인과의원","clCd":"31","clCdNm":"의원","sidoCd":"390000","sidoCdNm":"제주","sgguCdNm":"제주시","addr":"제주특별자치도 제주시 중앙로 308, (이도이동)","phone":"064-725-3575","hospUrl":"","estbDd":"19960216","drTotCnt":1,"mdeptSdrCnt":1,"lat":33.49324,"lng":126.53469},{"id":"89bced2a6dca","name":"메이리의원","clCd":"31","clCdNm":"의원","sidoCd":"390000","sidoCdNm":"제주","sgguCdNm":"제주시","addr":"제주특별자치도 제주시 노연로 34, 202호 (노형동)","phone":"064-747-3401","hospUrl":"","estbDd":"20250702","drTotCnt":1,"mdeptSdrCnt":1,"lat":33.48576,"lng":126.48377},{"id":"12388d5f2a66","name":"멘파워비뇨기과의원","clCd":"31","clCdNm":"의원","sidoCd":"390000","sidoCdNm":"제주","sgguCdNm":"제주시","addr":"제주특별자치도 제주시 노연로 94, (연동)","phone":"746-8701","hospUrl":"http://www.man-power.co.kr/sub01/sub01_0414.php","estbDd":"20070409","drTotCnt":1,"mdeptSdrCnt":1,"lat":33.4857,"lng":126.49019},{"id":"1781df3b1d01","name":"명이비인후과의원","clCd":"31","clCdNm":"의원","sidoCd":"390000","sidoCdNm":"제주","sgguCdNm":"제주시","addr":"제주특별자치도 제주시 서광로 215, (삼도일동)","phone":"064-727-7582","hospUrl":"","estbDd":"20050422","drTotCnt":1,"mdeptSdrCnt":1,"lat":33.50012,"lng":126.51951},{"id":"3a2ed9eb7c16","name":"명인플러스의원","clCd":"31","clCdNm":"의원","sidoCd":"390000","sidoCdNm":"제주","sgguCdNm":"제주시","addr":"제주특별자치도 제주시 동화로 30, 2,3층 (화북일동)","phone":"064-723-7575","hospUrl":"","estbDd":"20000210","drTotCnt":"","mdeptSdrCnt":"","lat":33.51759,"lng":126.57281},{"id":"9e71a675dc85","name":"모딜리아니의원","clCd":"31","clCdNm":"의원","sidoCd":"390000","sidoCdNm":"제주","sgguCdNm":"제주시","addr":"제주특별자치도 제주시 서광로 278, (이도이동)","phone":"064-727-3652","hospUrl":"www.modiglianislineclinic.com","estbDd":"20140730","drTotCnt":1,"mdeptSdrCnt":1,"lat":33.49998,"lng":126.52621},{"id":"e6a8036321af","name":"모아의원","clCd":"31","clCdNm":"의원","sidoCd":"390000","sidoCdNm":"제주","sgguCdNm":"제주시","addr":"제주특별자치도 제주시 과원북4길 5, (노형동)","phone":"064-742-7586","hospUrl":"","estbDd":"20000506","drTotCnt":1,"mdeptSdrCnt":1,"lat":33.48136,"lng":126.48251},{"id":"df3403268647","name":"문내과의원","clCd":"31","clCdNm":"의원","sidoCd":"390000","sidoCdNm":"제주","sgguCdNm":"제주시","addr":"제주특별자치도 제주시 동광로 86, 7·8층 (이도이동)","phone":"064-901-9901","hospUrl":"","estbDd":"20240408","drTotCnt":1,"mdeptSdrCnt":1,"lat":33.5046,"lng":126.53753},{"id":"ce178abe5a00","name":"문성철정형외과의원","clCd":"31","clCdNm":"의원","sidoCd":"390000","sidoCdNm":"제주","sgguCdNm":"제주시","addr":"제주특별자치도 제주시 일주동로 241, 2층 (화북일동)","phone":"064-758-1155","hospUrl":"","estbDd":"20020607","drTotCnt":1,"mdeptSdrCnt":1,"lat":33.51983,"lng":126.57094},{"id":"226aaa509fb5","name":"문앤송소아청소년과의원","clCd":"31","clCdNm":"의원","sidoCd":"390000","sidoCdNm":"제주","sgguCdNm":"제주시","addr":"제주특별자치도 제주시 서광로 220, 3층 (삼도일동, 서광빌딩)","phone":"752-5275","hospUrl":"","estbDd":"20030115","drTotCnt":2,"mdeptSdrCnt":2,"lat":33.49957,"lng":126.52008},{"id":"6aa9ccbd7b8b","name":"문이비인후과의원","clCd":"31","clCdNm":"의원","sidoCd":"390000","sidoCdNm":"제주","sgguCdNm":"제주시","addr":"제주특별자치도 제주시 서광로 268, (도남동)","phone":"721-2240","hospUrl":"","estbDd":"19940322","drTotCnt":1,"mdeptSdrCnt":1,"lat":33.49975,"lng":126.52518},{"id":"f981ace84d96","name":"미래가정의학과의원","clCd":"31","clCdNm":"의원","sidoCd":"390000","sidoCdNm":"제주","sgguCdNm":"서귀포시","addr":"제주특별자치도 서귀포시 대청로25번길 4, (강정동)","phone":"064-738-5335","hospUrl":"","estbDd":"20170622","drTotCnt":1,"mdeptSdrCnt":1,"lat":33.2528,"lng":126.50266},{"id":"c78fa65bab4e","name":"미래산부인과의원","clCd":"31","clCdNm":"의원","sidoCd":"390000","sidoCdNm":"제주","sgguCdNm":"제주시","addr":"제주특별자치도 제주시 연북로 28, 1층 (노형동)","phone":"064-712-2882","hospUrl":"","estbDd":"20180619","drTotCnt":1,"mdeptSdrCnt":1,"lat":33.48169,"lng":126.48435},{"id":"e8537e76d802","name":"미모피부과의원","clCd":"31","clCdNm":"의원","sidoCd":"390000","sidoCdNm":"제주","sgguCdNm":"제주시","addr":"제주특별자치도 제주시 1100로 3347, 8층 (노형동)","phone":"712-2555","hospUrl":"www.hayanmimo.co.kr/","estbDd":"20090407","drTotCnt":1,"mdeptSdrCnt":1,"lat":33.48484,"lng":126.47963},{"id":"3a03f909c783","name":"미사랑의원","clCd":"31","clCdNm":"의원","sidoCd":"390000","sidoCdNm":"제주","sgguCdNm":"제주시","addr":"제주특별자치도 제주시 중앙로 286, (이도이동)","phone":"064-725-7727","hospUrl":"http://www.melove99.com/new2012/index.html?","estbDd":"20120308","drTotCnt":1,"mdeptSdrCnt":1,"lat":33.49476,"lng":126.53299},{"id":"e75f7823f43d","name":"미소의원","clCd":"31","clCdNm":"의원","sidoCd":"390000","sidoCdNm":"제주","sgguCdNm":"제주시","addr":"제주특별자치도 제주시 노연로 29, 2층 (노형동)","phone":"064-751-7373","hospUrl":"","estbDd":"20040317","drTotCnt":1,"mdeptSdrCnt":"","lat":33.48623,"lng":126.48323},{"id":"dd72cfb0b478","name":"미우성형외과의원","clCd":"31","clCdNm":"의원","sidoCd":"390000","sidoCdNm":"제주","sgguCdNm":"제주시","addr":"제주특별자치도 제주시 노형로 407, (노형동)","phone":"064-773-8888","hospUrl":"","estbDd":"20110408","drTotCnt":1,"mdeptSdrCnt":1,"lat":33.48582,"lng":126.47828},{"id":"4093e07516b1","name":"민마취통증의학과의원","clCd":"31","clCdNm":"의원","sidoCd":"390000","sidoCdNm":"제주","sgguCdNm":"제주시","addr":"제주특별자치도 제주시 동문로 76, 혜강빌딩 4층 (일도이동)","phone":"064-752-7775","hospUrl":"","estbDd":"20171213","drTotCnt":1,"mdeptSdrCnt":1,"lat":33.51347,"lng":126.53481},{"id":"7c2909b49b32","name":"민소아청소년과의원","clCd":"31","clCdNm":"의원","sidoCd":"390000","sidoCdNm":"제주","sgguCdNm":"제주시","addr":"제주특별자치도 제주시 인다10길 35, 2층 (아라일동)","phone":"722-5300","hospUrl":"","estbDd":"20020514","drTotCnt":1,"mdeptSdrCnt":1,"lat":33.47462,"lng":126.54939},{"id":"abd158d6a623","name":"바로내과의원","clCd":"31","clCdNm":"의원","sidoCd":"390000","sidoCdNm":"제주","sgguCdNm":"서귀포시","addr":"제주특별자치도 서귀포시 월드컵로 8, 3층 (강정동)","phone":"064-738-8877","hospUrl":"","estbDd":"20191107","drTotCnt":1,"mdeptSdrCnt":1,"lat":33.249,"lng":126.50732},{"id":"f5a24875dd68","name":"바루나마취통증의학과의원","clCd":"31","clCdNm":"의원","sidoCd":"390000","sidoCdNm":"제주","sgguCdNm":"제주시","addr":"제주특별자치도 제주시 동광로 131, (일도이동)","phone":"753-8800","hospUrl":"","estbDd":"20020315","drTotCnt":1,"mdeptSdrCnt":1,"lat":33.50794,"lng":126.54047},{"id":"0deb92e54eba","name":"바른삼성마취통증의학과의원","clCd":"31","clCdNm":"의원","sidoCd":"390000","sidoCdNm":"제주","sgguCdNm":"서귀포시","addr":"제주특별자치도 서귀포시 월드컵로 14, 4층 402호 (강정동)","phone":"064-738-7533","hospUrl":"","estbDd":"20260220","drTotCnt":1,"mdeptSdrCnt":1,"lat":33.2485,"lng":126.50714},{"id":"46bc97d50702","name":"바른정의원","clCd":"31","clCdNm":"의원","sidoCd":"390000","sidoCdNm":"제주","sgguCdNm":"제주시","addr":"제주특별자치도 제주시 성지로 76-1, (일도이동)","phone":"723-3355","hospUrl":"","estbDd":"20060824","drTotCnt":1,"mdeptSdrCnt":"","lat":33.51152,"lng":126.53135},{"id":"af5e97ee0ec7","name":"바움소아청소년과의원","clCd":"31","clCdNm":"의원","sidoCd":"390000","sidoCdNm":"제주","sgguCdNm":"서귀포시","addr":"제주특별자치도 서귀포시 월드컵로 8, 4층 401호 (강정동)","phone":"064-738-0027","hospUrl":"","estbDd":"20230517","drTotCnt":1,"mdeptSdrCnt":1,"lat":33.249,"lng":126.50732},{"id":"20a46867c34f","name":"바툼낭의원","clCd":"31","clCdNm":"의원","sidoCd":"390000","sidoCdNm":"제주","sgguCdNm":"제주시","addr":"제주특별자치도 제주시 1100로 3213-27, (노형동)","phone":"064-743-8575","hospUrl":"batumnang.com","estbDd":"20131023","drTotCnt":1,"mdeptSdrCnt":"","lat":33.47595,"lng":126.48155},{"id":"028e3aa34ecf","name":"박경식신경외과의원","clCd":"31","clCdNm":"의원","sidoCd":"390000","sidoCdNm":"제주","sgguCdNm":"제주시","addr":"제주특별자치도 제주시 서광로 263, (삼도일동)","phone":"064-755-1155","hospUrl":"","estbDd":"19880307","drTotCnt":1,"mdeptSdrCnt":1,"lat":33.50022,"lng":126.52459},{"id":"afa6efe6f351","name":"박내과의원","clCd":"31","clCdNm":"의원","sidoCd":"390000","sidoCdNm":"제주","sgguCdNm":"제주시","addr":"제주특별자치도 제주시 월랑로 3, (노형동)","phone":"743-6161","hospUrl":"","estbDd":"19980501","drTotCnt":1,"mdeptSdrCnt":1,"lat":33.48648,"lng":126.47848},{"id":"487f78d6e0ba","name":"박봉철내과의원","clCd":"31","clCdNm":"의원","sidoCd":"390000","sidoCdNm":"제주","sgguCdNm":"제주시","addr":"제주특별자치도 제주시 일주동로 197, 지하1층,2층 (화북일동)","phone":"064-724-0075","hospUrl":"","estbDd":"19990926","drTotCnt":1,"mdeptSdrCnt":1,"lat":33.51895,"lng":126.56657},{"id":"2e09c578b66f","name":"박상욱 휴 정신건강의학과의원","clCd":"31","clCdNm":"의원","sidoCd":"390000","sidoCdNm":"제주","sgguCdNm":"제주시","addr":"제주특별자치도 제주시 중앙로 337, 3층 301호 (이도이동)","phone":"064-725-2500","hospUrl":"","estbDd":"20171011","drTotCnt":1,"mdeptSdrCnt":1,"lat":33.49149,"lng":126.53725},{"id":"55f4d951149f","name":"박재홍내과의원","clCd":"31","clCdNm":"의원","sidoCd":"390000","sidoCdNm":"제주","sgguCdNm":"제주시","addr":"제주특별자치도 제주시 고마로 149, 2층 (일도이동)","phone":"757-7579","hospUrl":"","estbDd":"19980507","drTotCnt":1,"mdeptSdrCnt":1,"lat":33.50151,"lng":126.54357},{"id":"2657f53f5689","name":"박정신건강의학과의원","clCd":"31","clCdNm":"의원","sidoCd":"390000","sidoCdNm":"제주","sgguCdNm":"서귀포시","addr":"제주특별자치도 서귀포시 중정로 53, (서귀동)","phone":"064-762-0946","hospUrl":"","estbDd":"19940325","drTotCnt":1,"mdeptSdrCnt":1,"lat":33.24781,"lng":126.56202},{"id":"5297bbed1bf7","name":"박지욱신경과의원","clCd":"31","clCdNm":"의원","sidoCd":"390000","sidoCdNm":"제주","sgguCdNm":"제주시","addr":"제주특별자치도 제주시 월랑로 3, (노형동)","phone":"747-6119","hospUrl":"","estbDd":"20010410","drTotCnt":1,"mdeptSdrCnt":1,"lat":33.48648,"lng":126.47848},{"id":"78ac4600e8bc","name":"반딧불의원","clCd":"31","clCdNm":"의원","sidoCd":"390000","sidoCdNm":"제주","sgguCdNm":"제주시","addr":"제주특별자치도 제주시 건주로6길 62, 백송빌딩 2층 (도련일동)","phone":"064-805-7582","hospUrl":"","estbDd":"20171215","drTotCnt":1,"mdeptSdrCnt":1,"lat":33.51489,"lng":126.58034},{"id":"c1d82d83345c","name":"밝은안과의원","clCd":"31","clCdNm":"의원","sidoCd":"390000","sidoCdNm":"제주","sgguCdNm":"제주시","addr":"제주특별자치도 제주시 동광로 131, (일도이동)","phone":"722-0025","hospUrl":"","estbDd":"20100618","drTotCnt":1,"mdeptSdrCnt":1,"lat":33.50794,"lng":126.54047},{"id":"7fd6080ce4b0","name":"밝은정신건강의학과의원","clCd":"31","clCdNm":"의원","sidoCd":"390000","sidoCdNm":"제주","sgguCdNm":"서귀포시","addr":"제주특별자치도 서귀포시 중앙로 91, (서귀동)","phone":"064-733-0434","hospUrl":"","estbDd":"20020403","drTotCnt":1,"mdeptSdrCnt":1,"lat":33.25277,"lng":126.5604},{"id":"fc27a4d53753","name":"배정형외과내과의원","clCd":"31","clCdNm":"의원","sidoCd":"390000","sidoCdNm":"제주","sgguCdNm":"제주시","addr":"제주특별자치도 제주시 건주로 27- , 2층 201호 (도련일동)","phone":"064-722-1200","hospUrl":"","estbDd":"20180628","drTotCnt":2,"mdeptSdrCnt":2,"lat":33.51709,"lng":126.58114},{"id":"a96925e23bcc","name":"배진성마취통증의학과의원","clCd":"31","clCdNm":"의원","sidoCd":"390000","sidoCdNm":"제주","sgguCdNm":"제주시","addr":"제주특별자치도 제주시 우정로15길 5, 5층 (외도일동)","phone":"064-749-6335","hospUrl":"","estbDd":"20200131","drTotCnt":1,"mdeptSdrCnt":1,"lat":33.48607,"lng":126.43172},{"id":"a5aafc37b85e","name":"밴스의원","clCd":"31","clCdNm":"의원","sidoCd":"390000","sidoCdNm":"제주","sgguCdNm":"제주시","addr":"제주특별자치도 제주시 노연로 49, 201호 (노형동)","phone":"064-803-0024","hospUrl":"","estbDd":"20250313","drTotCnt":10,"mdeptSdrCnt":2,"lat":33.4862,"lng":126.48558},{"id":"7ee813e4f07f","name":"베스트비뇨기과의원","clCd":"31","clCdNm":"의원","sidoCd":"390000","sidoCdNm":"제주","sgguCdNm":"서귀포시","addr":"제주특별자치도 서귀포시 동문로 5, 201호 (서귀동)","phone":"064-732-3939","hospUrl":"","estbDd":"20160104","drTotCnt":1,"mdeptSdrCnt":1,"lat":33.25235,"lng":126.56205},{"id":"0838bdeececb","name":"벨르몬성형외과의원","clCd":"31","clCdNm":"의원","sidoCd":"390000","sidoCdNm":"제주","sgguCdNm":"서귀포시","addr":"제주특별자치도 서귀포시 안덕면 신화역사로304번길 38, B1층 50호,52호","phone":"064-901-0101","hospUrl":"","estbDd":"20190404","drTotCnt":1,"mdeptSdrCnt":1,"lat":33.30538,"lng":126.31739},{"id":"f3ba3c3d4d5a","name":"봄길의원","clCd":"31","clCdNm":"의원","sidoCd":"390000","sidoCdNm":"제주","sgguCdNm":"제주시","addr":"제주특별자치도 제주시 삼무로 18, 제주연동 하우스디어반 2층 201~205호 (연동)","phone":"064-712-8448","hospUrl":"","estbDd":"20151218","drTotCnt":1,"mdeptSdrCnt":1,"lat":33.4896,"lng":126.48866},{"id":"045218264bb0","name":"봄정신건강의학과의원","clCd":"31","clCdNm":"의원","sidoCd":"390000","sidoCdNm":"제주","sgguCdNm":"제주시","addr":"제주특별자치도 제주시 서광로 297, (이도일동)","phone":"064-725-3500","hospUrl":"","estbDd":"20120831","drTotCnt":1,"mdeptSdrCnt":1,"lat":33.50072,"lng":126.5282},{"id":"fba1d0f18767","name":"봉개영웅의원","clCd":"31","clCdNm":"의원","sidoCd":"390000","sidoCdNm":"제주","sgguCdNm":"제주시","addr":"제주특별자치도 제주시 번영로 500, 2층 (봉개동)","phone":"064-757-2217","hospUrl":"","estbDd":"20220125","drTotCnt":1,"mdeptSdrCnt":1,"lat":33.49013,"lng":126.59479},{"id":"ba334a0037dc","name":"봉개의원","clCd":"31","clCdNm":"의원","sidoCd":"390000","sidoCdNm":"제주","sgguCdNm":"제주시","addr":"제주특별자치도 제주시 삼봉로 327-2, B 102호 (봉개동, 봉개 미소담)","phone":"064-721-4275","hospUrl":"","estbDd":"20070823","drTotCnt":1,"mdeptSdrCnt":"","lat":33.49389,"lng":126.59421},{"id":"defe12d9510a","name":"뷰앤미의원","clCd":"31","clCdNm":"의원","sidoCd":"390000","sidoCdNm":"제주","sgguCdNm":"제주시","addr":"제주특별자치도 제주시 노연로 118-1, (연동)","phone":"064-743-0075","hospUrl":"http://www.vnmclinic.com","estbDd":"20130404","drTotCnt":1,"mdeptSdrCnt":1,"lat":33.48557,"lng":126.49288},{"id":"da1a1363cb0a","name":"브이아이피(VIP)성형외과의원","clCd":"31","clCdNm":"의원","sidoCd":"390000","sidoCdNm":"제주","sgguCdNm":"제주시","addr":"제주특별자치도 제주시 은남1길 46, 3~4층 (연동)","phone":"064-713-1007","hospUrl":"","estbDd":"20190926","drTotCnt":2,"mdeptSdrCnt":2,"lat":33.48944,"lng":126.49098},{"id":"aa5a29af95d3","name":"블리비의원","clCd":"31","clCdNm":"의원","sidoCd":"390000","sidoCdNm":"제주","sgguCdNm":"제주시","addr":"제주특별자치도 제주시 노형로 407, 노형타워 2층 201호 (노형동)","phone":"1833-6988","hospUrl":"","estbDd":"20230925","drTotCnt":2,"mdeptSdrCnt":1,"lat":33.48582,"lng":126.47828},{"id":"bb0f41ca8145","name":"비바체성형외과의원","clCd":"31","clCdNm":"의원","sidoCd":"390000","sidoCdNm":"제주","sgguCdNm":"제주시","addr":"제주특별자치도 제주시 중앙로 302, 더스프링빌딩 2층 (이도이동)","phone":"064-755-1945","hospUrl":"","estbDd":"20200820","drTotCnt":1,"mdeptSdrCnt":1,"lat":33.4938,"lng":126.53403},{"id":"7247ee36adcc","name":"쁨글로벌의원","clCd":"31","clCdNm":"의원","sidoCd":"390000","sidoCdNm":"제주","sgguCdNm":"제주시","addr":"제주특별자치도 제주시 1100로 3324, 3층, 4층, 5층 일부 502호 (노형동)","phone":"064-900-2600","hospUrl":"","estbDd":"20160527","drTotCnt":14,"mdeptSdrCnt":3,"lat":33.48302,"lng":126.48121},{"id":"ae381cb05b72","name":"사회복지법인제주공생부설임마누엘의원","clCd":"31","clCdNm":"의원","sidoCd":"390000","sidoCdNm":"제주","sgguCdNm":"제주시","addr":"제주특별자치도 제주시 아봉로 449-1, 2호동 2층 (월평동, 시립요양원)","phone":"064-706-4723","hospUrl":"","estbDd":"20050309","drTotCnt":"","mdeptSdrCnt":"","lat":33.47094,"lng":126.58184},{"id":"bbabe2c6dfca","name":"사회복지법인춘강부설제주춘강의원","clCd":"31","clCdNm":"의원","sidoCd":"390000","sidoCdNm":"제주","sgguCdNm":"제주시","addr":"제주특별자치도 제주시 월구1길 73, (오라삼동)","phone":"064-754-7400","hospUrl":"jejurmc.com","estbDd":"19940429","drTotCnt":1,"mdeptSdrCnt":1,"lat":33.49382,"lng":126.50165},{"id":"cdd26e8f6470","name":"삼다중앙의원","clCd":"31","clCdNm":"의원","sidoCd":"390000","sidoCdNm":"제주","sgguCdNm":"제주시","addr":"제주특별자치도 제주시 애월읍 하귀로 37, 2층","phone":"064-742-7517","hospUrl":"","estbDd":"20031002","drTotCnt":1,"mdeptSdrCnt":1,"lat":33.48031,"lng":126.40114},{"id":"4d579d7c1f72","name":"삼도의원","clCd":"31","clCdNm":"의원","sidoCd":"390000","sidoCdNm":"제주","sgguCdNm":"제주시","addr":"제주특별자치도 제주시 중앙로 132, 2층 (삼도이동)","phone":"064-727-9696","hospUrl":"","estbDd":"20050510","drTotCnt":1,"mdeptSdrCnt":1,"lat":33.50686,"lng":126.52467},{"id":"88800b10f8c4","name":"삼사오성형외과제주의원","clCd":"31","clCdNm":"의원","sidoCd":"390000","sidoCdNm":"제주","sgguCdNm":"서귀포시","addr":"제주특별자치도 서귀포시 월드컵로 8, 송산플라자 2층 202호 (강정동)","phone":"064-738-7538","hospUrl":"","estbDd":"20200220","drTotCnt":2,"mdeptSdrCnt":2,"lat":33.249,"lng":126.50732},{"id":"64fcc36fde3c","name":"삼성드림소아청소년과의원","clCd":"31","clCdNm":"의원","sidoCd":"390000","sidoCdNm":"제주","sgguCdNm":"제주시","addr":"제주특별자치도 제주시 동광로 120, 3층층 (일도이동)","phone":"064-702-7582","hospUrl":"","estbDd":"20200916","drTotCnt":1,"mdeptSdrCnt":1,"lat":33.50665,"lng":126.53989},{"id":"da898a78e1f2","name":"삼성맘편한신경과의원","clCd":"31","clCdNm":"의원","sidoCd":"390000","sidoCdNm":"제주","sgguCdNm":"서귀포시","addr":"제주특별자치도 서귀포시 중앙로 113, 2층 (서홍동)","phone":"064-733-9119","hospUrl":"","estbDd":"20190705","drTotCnt":1,"mdeptSdrCnt":1,"lat":33.25479,"lng":126.56046},{"id":"9b5ceffa7365","name":"삼성서울정형외과의원","clCd":"31","clCdNm":"의원","sidoCd":"390000","sidoCdNm":"제주","sgguCdNm":"제주시","addr":"제주특별자치도 제주시 노형로 386, 3층 (노형동)","phone":"064-713-3522","hospUrl":"","estbDd":"20211018","drTotCnt":1,"mdeptSdrCnt":1,"lat":33.48414,"lng":126.47692},{"id":"4d11710d3389","name":"삼성신경외과의원","clCd":"31","clCdNm":"의원","sidoCd":"390000","sidoCdNm":"제주","sgguCdNm":"서귀포시","addr":"제주특별자치도 서귀포시 중앙로 86, (서귀동, 동산프라자약국)","phone":"064-732-8575","hospUrl":"","estbDd":"20160427","drTotCnt":1,"mdeptSdrCnt":1,"lat":33.25226,"lng":126.56132},{"id":"a23182507545","name":"삼성올레마취통증의학과의원","clCd":"31","clCdNm":"의원","sidoCd":"390000","sidoCdNm":"제주","sgguCdNm":"서귀포시","addr":"제주특별자치도 서귀포시 중정로 69, 2층 (서귀동)","phone":"064-732-7575","hospUrl":"https://www.삼성올레.kr","estbDd":"20240416","drTotCnt":2,"mdeptSdrCnt":2,"lat":33.24827,"lng":126.56374},{"id":"6578dd6d6fbc","name":"삼성정형외과의원","clCd":"31","clCdNm":"의원","sidoCd":"390000","sidoCdNm":"제주","sgguCdNm":"제주시","addr":"제주특별자치도 제주시 동광로 124, 2,3층 (일도이동)","phone":"064-752-7582","hospUrl":"","estbDd":"20041129","drTotCnt":1,"mdeptSdrCnt":1,"lat":33.50698,"lng":126.54029},{"id":"d5d4cbd727ef","name":"삼성탑내과의원","clCd":"31","clCdNm":"의원","sidoCd":"390000","sidoCdNm":"제주","sgguCdNm":"서귀포시","addr":"제주특별자치도 서귀포시 중정로61번길 1, 2층 (서귀동)","phone":"064-762-3662","hospUrl":"","estbDd":"19900528","drTotCnt":1,"mdeptSdrCnt":1,"lat":33.24803,"lng":126.5628},{"id":"eae5a70c11ef","name":"삼양가정의원","clCd":"31","clCdNm":"의원","sidoCd":"390000","sidoCdNm":"제주","sgguCdNm":"제주시","addr":"제주특별자치도 제주시 일주동로 366, (삼양이동)","phone":"064-755-0841","hospUrl":"","estbDd":"19970906","drTotCnt":1,"mdeptSdrCnt":1,"lat":33.52088,"lng":126.58408},{"id":"02ab1d818997","name":"삼화365플러스의원","clCd":"31","clCdNm":"의원","sidoCd":"390000","sidoCdNm":"제주","sgguCdNm":"제주시","addr":"제주특별자치도 제주시 건주로 43, 2층 (도련일동)","phone":"064-723-3650","hospUrl":"","estbDd":"20161025","drTotCnt":2,"mdeptSdrCnt":2,"lat":33.51558,"lng":126.58097},{"id":"8cf25ef4a5cc","name":"삼화내과의원","clCd":"31","clCdNm":"의원","sidoCd":"390000","sidoCdNm":"제주","sgguCdNm":"제주시","addr":"제주특별자치도 제주시 건주로 33, 5층 (도련일동)","phone":"064-755-3306","hospUrl":"","estbDd":"20160725","drTotCnt":1,"mdeptSdrCnt":1,"lat":33.51643,"lng":126.58099},{"id":"2ec67615ca47","name":"삼화상쾌한의원","clCd":"31","clCdNm":"의원","sidoCd":"390000","sidoCdNm":"제주","sgguCdNm":"제주시","addr":"제주특별자치도 제주시 화삼북로 68, 삼화지구 신형빌딩 3층 (도련일동)","phone":"064-721-5553","hospUrl":"","estbDd":"20171229","drTotCnt":1,"mdeptSdrCnt":1,"lat":33.51706,"lng":126.58029},{"id":"b5fb85858ea1","name":"상쾌한속내과의원","clCd":"31","clCdNm":"의원","sidoCd":"390000","sidoCdNm":"제주","sgguCdNm":"제주시","addr":"제주특별자치도 제주시 연북로 38, (노형동)","phone":"064-743-6798","hospUrl":"","estbDd":"20100323","drTotCnt":2,"mdeptSdrCnt":2,"lat":33.48163,"lng":126.4854},{"id":"3d6524bc0cd8","name":"새김녕의원","clCd":"31","clCdNm":"의원","sidoCd":"390000","sidoCdNm":"제주","sgguCdNm":"제주시","addr":"제주특별자치도 제주시 구좌읍 김녕로 116, (구좌읍)","phone":"064-782-8020","hospUrl":"","estbDd":"19990212","drTotCnt":1,"mdeptSdrCnt":"","lat":33.55456,"lng":126.75044},{"id":"53a3132b8866","name":"새론의원","clCd":"31","clCdNm":"의원","sidoCd":"390000","sidoCdNm":"제주","sgguCdNm":"서귀포시","addr":"제주특별자치도 서귀포시 신서로48번길 31, (강정동)","phone":"064-738-8119","hospUrl":"","estbDd":"20150304","drTotCnt":1,"mdeptSdrCnt":1,"lat":33.25358,"lng":126.50863},{"id":"e4e5e8bd8265","name":"새봄비뇨기과의원","clCd":"31","clCdNm":"의원","sidoCd":"390000","sidoCdNm":"제주","sgguCdNm":"제주시","addr":"제주특별자치도 제주시 동광로 131, 5층 (일도이동)","phone":"064-724-8307","hospUrl":"","estbDd":"20050303","drTotCnt":1,"mdeptSdrCnt":1,"lat":33.50794,"lng":126.54047},{"id":"5495f07de5f6","name":"생생가정의학과의원","clCd":"31","clCdNm":"의원","sidoCd":"390000","sidoCdNm":"제주","sgguCdNm":"서귀포시","addr":"제주특별자치도 서귀포시 안덕면 화순로 132, 3층","phone":"064-794-1007","hospUrl":"","estbDd":"20230126","drTotCnt":1,"mdeptSdrCnt":1,"lat":33.24654,"lng":126.33225},{"id":"c0e43d7f92b5","name":"서귀포365일의원","clCd":"31","clCdNm":"의원","sidoCd":"390000","sidoCdNm":"제주","sgguCdNm":"서귀포시","addr":"제주특별자치도 서귀포시 서문로 2, 지하1층 1층 (서귀동)","phone":"064-733-3650","hospUrl":"","estbDd":"20120906","drTotCnt":4,"mdeptSdrCnt":1,"lat":33.25238,"lng":126.56039},{"id":"e8d1e8a8d246","name":"서귀포공공협력의원","clCd":"31","clCdNm":"의원","sidoCd":"390000","sidoCdNm":"제주","sgguCdNm":"서귀포시","addr":"제주특별자치도 서귀포시 대정읍 일주서로 2512-14, (대정읍)","phone":"070-4523-6190","hospUrl":"","estbDd":"20241212","drTotCnt":2,"mdeptSdrCnt":2,"lat":33.23026,"lng":126.26023},{"id":"6ea1136f3b91","name":"서귀포내과의원","clCd":"31","clCdNm":"의원","sidoCd":"390000","sidoCdNm":"제주","sgguCdNm":"서귀포시","addr":"제주특별자치도 서귀포시 중앙로 89, 2층 (서귀동)","phone":"064-763-4053","hospUrl":"","estbDd":"19980121","drTotCnt":1,"mdeptSdrCnt":1,"lat":33.25259,"lng":126.56043},{"id":"f08c8c6263fd","name":"서귀포빛사랑안과의원","clCd":"31","clCdNm":"의원","sidoCd":"390000","sidoCdNm":"제주","sgguCdNm":"서귀포시","addr":"제주특별자치도 서귀포시 동문로 2, (서귀동)","phone":"064-763-3030","hospUrl":"","estbDd":"20010215","drTotCnt":1,"mdeptSdrCnt":1,"lat":33.25232,"lng":126.5615},{"id":"e8ccb4f674db","name":"서귀포유신경외과의원","clCd":"31","clCdNm":"의원","sidoCd":"390000","sidoCdNm":"제주","sgguCdNm":"서귀포시","addr":"제주특별자치도 서귀포시 중앙로 43, (서귀동)","phone":"064-763-1175","hospUrl":"","estbDd":"20140922","drTotCnt":1,"mdeptSdrCnt":1,"lat":33.24839,"lng":126.56149},{"id":"c1273d95a586","name":"서귀포재활의학과의원","clCd":"31","clCdNm":"의원","sidoCd":"390000","sidoCdNm":"제주","sgguCdNm":"서귀포시","addr":"제주특별자치도 서귀포시 중앙로 93, 1층 (서귀동)","phone":"064-762-8867","hospUrl":"","estbDd":"20020325","drTotCnt":1,"mdeptSdrCnt":1,"lat":33.25283,"lng":126.56038},{"id":"9b6061cbeb8f","name":"서귀포제일속내과의원","clCd":"31","clCdNm":"의원","sidoCd":"390000","sidoCdNm":"제주","sgguCdNm":"서귀포시","addr":"제주특별자치도 서귀포시 중정로 109, 2층 (서귀동)","phone":"064-767-2992","hospUrl":"","estbDd":"20140903","drTotCnt":1,"mdeptSdrCnt":1,"lat":33.24883,"lng":126.56816},{"id":"843a237f765e","name":"서귀포중앙정형외과의원","clCd":"31","clCdNm":"의원","sidoCd":"390000","sidoCdNm":"제주","sgguCdNm":"서귀포시","addr":"제주특별자치도 서귀포시 일주동로 8666, 삼강빌딩 2층 (동홍동)","phone":"064-764-8279","hospUrl":"","estbDd":"20220311","drTotCnt":1,"mdeptSdrCnt":1,"lat":33.25369,"lng":126.56236},{"id":"940a6122df95","name":"서문의원","clCd":"31","clCdNm":"의원","sidoCd":"390000","sidoCdNm":"제주","sgguCdNm":"제주시","addr":"제주특별자치도 제주시 서문로 68, (용담일동)","phone":"064-722-7574","hospUrl":"","estbDd":"20070413","drTotCnt":1,"mdeptSdrCnt":"","lat":33.51174,"lng":126.51839},{"id":"68122fbca2c0","name":"서상원정신건강의학과의원","clCd":"31","clCdNm":"의원","sidoCd":"390000","sidoCdNm":"제주","sgguCdNm":"제주시","addr":"제주특별자치도 제주시 도령로 7, (노형동)","phone":"747-6060","hospUrl":"","estbDd":"20010418","drTotCnt":1,"mdeptSdrCnt":1,"lat":33.48666,"lng":126.48009},{"id":"06dd96998f7c","name":"서울가정의학과의원","clCd":"31","clCdNm":"의원","sidoCd":"390000","sidoCdNm":"제주","sgguCdNm":"제주시","addr":"제주특별자치도 제주시 조천읍 신촌4길 2, 201동 101호 (에스디빌3차)","phone":"064-783-0369","hospUrl":"","estbDd":"20171228","drTotCnt":1,"mdeptSdrCnt":1,"lat":33.53294,"lng":126.61937},{"id":"d82fe7a9d279","name":"서울나눔마취통증의학과의원","clCd":"31","clCdNm":"의원","sidoCd":"390000","sidoCdNm":"제주","sgguCdNm":"제주시","addr":"제주특별자치도 제주시 고사마루길 2, 2층 (노형동)","phone":"064-711-1258","hospUrl":"","estbDd":"20190903","drTotCnt":1,"mdeptSdrCnt":1,"lat":33.48029,"lng":126.47225},{"id":"1342a7dcf0e3","name":"서울내과의원","clCd":"31","clCdNm":"의원","sidoCd":"390000","sidoCdNm":"제주","sgguCdNm":"제주시","addr":"제주특별자치도 제주시 도령로 1, (노형동)","phone":"749-7570","hospUrl":"","estbDd":"20020426","drTotCnt":1,"mdeptSdrCnt":1,"lat":33.4868,"lng":126.4793},{"id":"677a8f98a5c5","name":"서울뉴라인의원","clCd":"31","clCdNm":"의원","sidoCd":"390000","sidoCdNm":"제주","sgguCdNm":"제주시","addr":"제주특별자치도 제주시 노형로 380, 6층 (노형동)","phone":"064-744-7570","hospUrl":"","estbDd":"20230727","drTotCnt":2,"mdeptSdrCnt":"","lat":33.4838,"lng":126.4766},{"id":"ee950e10cb0d","name":"서울삼성내과의원","clCd":"31","clCdNm":"의원","sidoCd":"390000","sidoCdNm":"제주","sgguCdNm":"제주시","addr":"제주특별자치도 제주시 애월읍 하광로 12, 2층 201~204호","phone":"064-805-8333","hospUrl":"","estbDd":"20230608","drTotCnt":2,"mdeptSdrCnt":2,"lat":33.48419,"lng":126.41142},{"id":"f2d357b96b5b","name":"서울삼성이비인후과의원","clCd":"31","clCdNm":"의원","sidoCd":"390000","sidoCdNm":"제주","sgguCdNm":"서귀포시","addr":"제주특별자치도 서귀포시 월드컵로 8, (강정동)","phone":"064-739-1146","hospUrl":"","estbDd":"20170918","drTotCnt":1,"mdeptSdrCnt":1,"lat":33.249,"lng":126.50732},{"id":"6e317e595878","name":"서울삼성재활의학과의원","clCd":"31","clCdNm":"의원","sidoCd":"390000","sidoCdNm":"제주","sgguCdNm":"서귀포시","addr":"제주특별자치도 서귀포시 대정읍 하모상가로 49, (대정읍)","phone":"064-792-8887","hospUrl":"","estbDd":"20180703","drTotCnt":1,"mdeptSdrCnt":1,"lat":33.22211,"lng":126.25397},{"id":"6ef4e8356236","name":"서울성모재활의학과의원","clCd":"31","clCdNm":"의원","sidoCd":"390000","sidoCdNm":"제주","sgguCdNm":"서귀포시","addr":"제주특별자치도 서귀포시 동문로 5, 1층 (서귀동)","phone":"064-732-7773","hospUrl":"","estbDd":"20210826","drTotCnt":2,"mdeptSdrCnt":2,"lat":33.25235,"lng":126.56205},{"id":"f24552a96585","name":"서울아산내과의원","clCd":"31","clCdNm":"의원","sidoCd":"390000","sidoCdNm":"제주","sgguCdNm":"제주시","addr":"제주특별자치도 제주시 연북로 511, 에이플렉스 4층 (아라일동)","phone":"064-805-3100","hospUrl":"","estbDd":"20220919","drTotCnt":5,"mdeptSdrCnt":5,"lat":33.48434,"lng":126.53464},{"id":"0ef30ed3fc75","name":"서울아산신경외과의원","clCd":"31","clCdNm":"의원","sidoCd":"390000","sidoCdNm":"제주","sgguCdNm":"제주시","addr":"제주특별자치도 제주시 서광로 301, 2층 (이도일동)","phone":"064-755-3595","hospUrl":"","estbDd":"20210426","drTotCnt":1,"mdeptSdrCnt":1,"lat":33.50083,"lng":126.52844},{"id":"d1bba9f1f62e","name":"서울아산이비인후과의원","clCd":"31","clCdNm":"의원","sidoCd":"390000","sidoCdNm":"제주","sgguCdNm":"서귀포시","addr":"제주특별자치도 서귀포시 일주동로 8694, 2,3층 (서홍동)","phone":"064-767-7582","hospUrl":"","estbDd":"20150608","drTotCnt":4,"mdeptSdrCnt":4,"lat":33.25319,"lng":126.55954},{"id":"67b1ebec04fe","name":"서울아산정형외과의원","clCd":"31","clCdNm":"의원","sidoCd":"390000","sidoCdNm":"제주","sgguCdNm":"제주시","addr":"제주특별자치도 제주시 조천읍 함덕13길 1, 2~4층","phone":"064-782-8275","hospUrl":"","estbDd":"20220224","drTotCnt":1,"mdeptSdrCnt":1,"lat":33.54155,"lng":126.66749},{"id":"dbd5b0274eed","name":"서울안과의원","clCd":"31","clCdNm":"의원","sidoCd":"390000","sidoCdNm":"제주","sgguCdNm":"제주시","addr":"제주특별자치도 제주시 1100로 3333, 3층 (노형동)","phone":"745-0500","hospUrl":"http://","estbDd":"20010227","drTotCnt":1,"mdeptSdrCnt":1,"lat":33.48361,"lng":126.48014},{"id":"abd99322c1bd","name":"서울의원","clCd":"31","clCdNm":"의원","sidoCd":"390000","sidoCdNm":"제주","sgguCdNm":"서귀포시","addr":"제주특별자치도 서귀포시 일주동로 8610, 3층 (동홍동)","phone":"064-767-4607","hospUrl":"","estbDd":"20240206","drTotCnt":1,"mdeptSdrCnt":1,"lat":33.2549,"lng":126.56845},{"id":"42541d1d14e3","name":"서울정형외과의원","clCd":"31","clCdNm":"의원","sidoCd":"390000","sidoCdNm":"제주","sgguCdNm":"제주시","addr":"제주특별자치도 제주시 중앙로 354, 3층 (이도이동)","phone":"752-8818","hospUrl":"","estbDd":"20030305","drTotCnt":1,"mdeptSdrCnt":1,"lat":33.49008,"lng":126.53772},{"id":"7c132bf615fd","name":"서울정형외과의원","clCd":"31","clCdNm":"의원","sidoCd":"390000","sidoCdNm":"제주","sgguCdNm":"서귀포시","addr":"제주특별자치도 서귀포시 월드컵로 8, (강정동, 서울정형외과의원)","phone":"064-763-4973","hospUrl":"","estbDd":"20080205","drTotCnt":1,"mdeptSdrCnt":1,"lat":33.249,"lng":126.50732},{"id":"1e6c5c7b2413","name":"서울준마취통증의학과의원","clCd":"31","clCdNm":"의원","sidoCd":"390000","sidoCdNm":"제주","sgguCdNm":"제주시","addr":"제주특별자치도 제주시 관덕로 67, 2층 (일도일동)","phone":"064-723-7511","hospUrl":"","estbDd":"20180307","drTotCnt":1,"mdeptSdrCnt":1,"lat":33.51331,"lng":126.52656},{"id":"586fda2c49b0","name":"서울탑외과의원","clCd":"31","clCdNm":"의원","sidoCd":"390000","sidoCdNm":"제주","sgguCdNm":"제주시","addr":"제주특별자치도 제주시 1100로 3321, 다솜빌딩 301호 (노형동)","phone":"064-745-7282","hospUrl":"","estbDd":"20180105","drTotCnt":1,"mdeptSdrCnt":1,"lat":33.48283,"lng":126.48056},{"id":"6f0515ce03af","name":"서울탑정신건강의학과의원","clCd":"31","clCdNm":"의원","sidoCd":"390000","sidoCdNm":"제주","sgguCdNm":"제주시","addr":"제주특별자치도 제주시 1100로 3321, 303호 (노형동)","phone":"064-746-7282","hospUrl":"","estbDd":"20180105","drTotCnt":1,"mdeptSdrCnt":1,"lat":33.48283,"lng":126.48056},{"id":"23b1141a3e35","name":"서울푸른정신건강의학과의원","clCd":"31","clCdNm":"의원","sidoCd":"390000","sidoCdNm":"제주","sgguCdNm":"제주시","addr":"제주특별자치도 제주시 노형로 407, 노형타워 4층 404호 (노형동)","phone":"064-901-0177","hospUrl":"","estbDd":"20220826","drTotCnt":1,"mdeptSdrCnt":1,"lat":33.48582,"lng":126.47828},{"id":"3223cdf62710","name":"서정소아청소년과의원","clCd":"31","clCdNm":"의원","sidoCd":"390000","sidoCdNm":"제주","sgguCdNm":"제주시","addr":"제주특별자치도 제주시 수덕로 69, 2층 (노형동)","phone":"064-746-8077","hospUrl":"","estbDd":"20221116","drTotCnt":1,"mdeptSdrCnt":1,"lat":33.48441,"lng":126.47058},{"id":"9fb15c2ed11a","name":"서해산부인과의원","clCd":"31","clCdNm":"의원","sidoCd":"390000","sidoCdNm":"제주","sgguCdNm":"제주시","addr":"제주특별자치도 제주시 동광로 131, (일도이동)","phone":"064-758-8866","hospUrl":"","estbDd":"19990401","drTotCnt":3,"mdeptSdrCnt":3,"lat":33.50794,"lng":126.54047},{"id":"c1d42edad66f","name":"선유외과의원","clCd":"31","clCdNm":"의원","sidoCd":"390000","sidoCdNm":"제주","sgguCdNm":"제주시","addr":"제주특별자치도 제주시 중앙로 299, 401호 (이도이동)","phone":"064-803-0311","hospUrl":"","estbDd":"20230315","drTotCnt":1,"mdeptSdrCnt":1,"lat":33.4944,"lng":126.53464},{"id":"704381c02936","name":"선한드림의원","clCd":"31","clCdNm":"의원","sidoCd":"390000","sidoCdNm":"제주","sgguCdNm":"제주시","addr":"제주특별자치도 제주시 조천읍 신북로 241, 2층 (영재아트빌)","phone":"064-782-0100","hospUrl":"","estbDd":"20250429","drTotCnt":1,"mdeptSdrCnt":1,"lat":33.53713,"lng":126.6381},{"id":"2ccd060c6790","name":"성모자인내과의원","clCd":"31","clCdNm":"의원","sidoCd":"390000","sidoCdNm":"제주","sgguCdNm":"제주시","addr":"제주특별자치도 제주시 노형로 380, 202호 (노형동)","phone":"064-900-1616","hospUrl":"","estbDd":"20241114","drTotCnt":1,"mdeptSdrCnt":1,"lat":33.4838,"lng":126.4766},{"id":"5f9e95ac7cc8","name":"성모정신건강의학과의원","clCd":"31","clCdNm":"의원","sidoCd":"390000","sidoCdNm":"제주","sgguCdNm":"제주시","addr":"제주특별자치도 제주시 노형로 388, 2층 (노형동)","phone":"064-742-5539","hospUrl":"","estbDd":"20230321","drTotCnt":1,"mdeptSdrCnt":1,"lat":33.48422,"lng":126.47704},{"id":"bf756bad9219","name":"성산의원","clCd":"31","clCdNm":"의원","sidoCd":"390000","sidoCdNm":"제주","sgguCdNm":"서귀포시","addr":"제주특별자치도 서귀포시 성산읍 고성동서로56번길 16, (성산읍)","phone":"064-782-4472","hospUrl":"","estbDd":"19970225","drTotCnt":1,"mdeptSdrCnt":"","lat":33.44977,"lng":126.9145},{"id":"96acd93b97e1","name":"성산제일정형외과의원","clCd":"31","clCdNm":"의원","sidoCd":"390000","sidoCdNm":"제주","sgguCdNm":"서귀포시","addr":"제주특별자치도 서귀포시 성산읍 동류암로36번길 16, (성산읍)","phone":"064-900-2456","hospUrl":"","estbDd":"20150416","drTotCnt":1,"mdeptSdrCnt":1,"lat":33.44991,"lng":126.91575},{"id":"1dbcc7c93dba","name":"성연내과의원","clCd":"31","clCdNm":"의원","sidoCd":"390000","sidoCdNm":"제주","sgguCdNm":"제주시","addr":"제주특별자치도 제주시 월랑로 39, 동마빌딩 501호 (노형동)","phone":"064-749-7227","hospUrl":"","estbDd":"20021211","drTotCnt":1,"mdeptSdrCnt":1,"lat":33.48893,"lng":126.47561},{"id":"bd5075d660ae","name":"성이시돌복지의원","clCd":"31","clCdNm":"의원","sidoCd":"390000","sidoCdNm":"제주","sgguCdNm":"제주시","addr":"제주특별자치도 제주시 한림읍 산록남로 50, 50","phone":"064-796-2244","hospUrl":"www.isidorehospice.kr/","estbDd":"19811105","drTotCnt":1,"mdeptSdrCnt":1,"lat":33.3442,"lng":126.3211},{"id":"dedac344db4c","name":"세화의원","clCd":"31","clCdNm":"의원","sidoCd":"390000","sidoCdNm":"제주","sgguCdNm":"제주시","addr":"제주특별자치도 제주시 구좌읍 세화5길 2, (구좌읍)","phone":"064-783-3196","hospUrl":"","estbDd":"19890710","drTotCnt":1,"mdeptSdrCnt":1,"lat":33.52343,"lng":126.85668},{"id":"286050bc3d7c","name":"세화정형외과의원","clCd":"31","clCdNm":"의원","sidoCd":"390000","sidoCdNm":"제주","sgguCdNm":"제주시","addr":"제주특별자치도 제주시 구좌읍 구좌로 40, (구좌읍)","phone":"064-782-2473","hospUrl":"","estbDd":"20230314","drTotCnt":1,"mdeptSdrCnt":1,"lat":33.52329,"lng":126.85567},{"id":"e63b5226d4a7","name":"센트럴스타의원","clCd":"31","clCdNm":"의원","sidoCd":"390000","sidoCdNm":"제주","sgguCdNm":"서귀포시","addr":"제주특별자치도 서귀포시 대정읍 영어도시로 44, 1~3층","phone":"064-792-1155","hospUrl":"","estbDd":"20240105","drTotCnt":1,"mdeptSdrCnt":1,"lat":33.27625,"lng":126.27923},{"id":"4cf13f0d6b09","name":"센트럴아이안과의원","clCd":"31","clCdNm":"의원","sidoCd":"390000","sidoCdNm":"제주","sgguCdNm":"제주시","addr":"제주특별자치도 제주시 일주서로 7356, 3층 (외도이동)","phone":"064-742-7112","hospUrl":"","estbDd":"20240516","drTotCnt":1,"mdeptSdrCnt":1,"lat":33.49327,"lng":126.43305},{"id":"ca10fde05182","name":"소길의원","clCd":"31","clCdNm":"의원","sidoCd":"390000","sidoCdNm":"제주","sgguCdNm":"제주시","addr":"제주특별자치도 제주시 애월읍 평화로 2072, (애월읍)","phone":"064-799-5606","hospUrl":"","estbDd":"19900308","drTotCnt":1,"mdeptSdrCnt":1,"lat":33.40635,"lng":126.38806},{"id":"fb032e91cdd9","name":"소리나소아청소년과의원","clCd":"31","clCdNm":"의원","sidoCd":"390000","sidoCdNm":"제주","sgguCdNm":"제주시","addr":"제주특별자치도 제주시 중앙로 380, 2층 (이도이동)","phone":"064-752-7900","hospUrl":"","estbDd":"20190701","drTotCnt":1,"mdeptSdrCnt":1,"lat":33.48825,"lng":126.53939},{"id":"1d1576128754","name":"소리이비인후과의원","clCd":"31","clCdNm":"의원","sidoCd":"390000","sidoCdNm":"제주","sgguCdNm":"제주시","addr":"제주특별자치도 제주시 연북로 76, 4층 (연동, 한성빌딩)","phone":"744-4458","hospUrl":"http://www.soreeclinic.com/index.asp","estbDd":"19910315","drTotCnt":1,"mdeptSdrCnt":1,"lat":33.48153,"lng":126.48939},{"id":"3d45d8684bbf","name":"속편한내과의원","clCd":"31","clCdNm":"의원","sidoCd":"390000","sidoCdNm":"제주","sgguCdNm":"제주시","addr":"제주특별자치도 제주시 중앙로 359, 3층 (이도이동, 신해빌딩)","phone":"064-756-7500","hospUrl":"","estbDd":"20050203","drTotCnt":1,"mdeptSdrCnt":1,"lat":33.48998,"lng":126.53868},{"id":"813317ffb38f","name":"속편한드림내과의원","clCd":"31","clCdNm":"의원","sidoCd":"390000","sidoCdNm":"제주","sgguCdNm":"제주시","addr":"제주특별자치도 제주시 1100로 3323-1, 3·4·5층 (노형동)","phone":"064-712-8575","hospUrl":"","estbDd":"20220907","drTotCnt":3,"mdeptSdrCnt":2,"lat":33.48319,"lng":126.48036},{"id":"63a9b93d6449","name":"송악의원","clCd":"31","clCdNm":"의원","sidoCd":"390000","sidoCdNm":"제주","sgguCdNm":"서귀포시","addr":"제주특별자치도 서귀포시 태평로 508, 3층 (동홍동)","phone":"064-792-7585","hospUrl":"","estbDd":"20130307","drTotCnt":1,"mdeptSdrCnt":"","lat":33.25031,"lng":126.57217},{"id":"d0103473bab1","name":"수내과의원","clCd":"31","clCdNm":"의원","sidoCd":"390000","sidoCdNm":"제주","sgguCdNm":"서귀포시","addr":"제주특별자치도 서귀포시 일주동로 8675, (서귀동)","phone":"064-732-1211","hospUrl":"","estbDd":"20190412","drTotCnt":1,"mdeptSdrCnt":1,"lat":33.253,"lng":126.56169},{"id":"026c144c114c","name":"수마취통증의학과의원","clCd":"31","clCdNm":"의원","sidoCd":"390000","sidoCdNm":"제주","sgguCdNm":"서귀포시","addr":"제주특별자치도 서귀포시 중앙로 113, 4층 (서홍동)","phone":"064-901-1213","hospUrl":"","estbDd":"20190626","drTotCnt":1,"mdeptSdrCnt":1,"lat":33.25479,"lng":126.56046},{"id":"a7679a0374ac","name":"수목원정신건강의학과의원","clCd":"31","clCdNm":"의원","sidoCd":"390000","sidoCdNm":"제주","sgguCdNm":"제주시","addr":"제주특별자치도 제주시 1100로 3178, 지하 1층 (노형동)","phone":"064-747-4862","hospUrl":"","estbDd":"20230509","drTotCnt":1,"mdeptSdrCnt":1,"lat":33.46981,"lng":126.48533},{"id":"b9055ee28522","name":"수안과의원","clCd":"31","clCdNm":"의원","sidoCd":"390000","sidoCdNm":"제주","sgguCdNm":"제주시","addr":"제주특별자치도 제주시 중앙로 286, 3층 (이도이동, 김기수안과빌딩)","phone":"064-723-1516","hospUrl":"www.jejulasik.com/","estbDd":"20120126","drTotCnt":4,"mdeptSdrCnt":4,"lat":33.49476,"lng":126.53299},{"id":"a3277ccbb0a0","name":"슬림미의원","clCd":"31","clCdNm":"의원","sidoCd":"390000","sidoCdNm":"제주","sgguCdNm":"제주시","addr":"제주특별자치도 제주시 연북로 99, (연동)","phone":"064-747-3654","hospUrl":"","estbDd":"20070330","drTotCnt":1,"mdeptSdrCnt":"","lat":33.48208,"lng":126.49197},{"id":"42af01d49b50","name":"슬하정신건강의학과의원","clCd":"31","clCdNm":"의원","sidoCd":"390000","sidoCdNm":"제주","sgguCdNm":"제주시","addr":"제주특별자치도 제주시 노형8길 2, 4층 (노형동)","phone":"064-747-3217","hospUrl":"","estbDd":"20161021","drTotCnt":1,"mdeptSdrCnt":1,"lat":33.48434,"lng":126.47732},{"id":"3e4869bae4f3","name":"시울 정신건강의학과의원","clCd":"31","clCdNm":"의원","sidoCd":"390000","sidoCdNm":"제주","sgguCdNm":"서귀포시","addr":"제주특별자치도 서귀포시 일주동로 8675, (서귀동, 한라클리닉)","phone":"064-763-0780","hospUrl":"","estbDd":"20150806","drTotCnt":1,"mdeptSdrCnt":1,"lat":33.253,"lng":126.56169},{"id":"6bbed4d2d674","name":"시원의원","clCd":"31","clCdNm":"의원","sidoCd":"390000","sidoCdNm":"제주","sgguCdNm":"제주시","addr":"제주특별자치도 제주시 한림읍 한림중앙로 46, (한림읍)","phone":"064-796-1275","hospUrl":"","estbDd":"20160222","drTotCnt":1,"mdeptSdrCnt":1,"lat":33.41058,"lng":126.26511},{"id":"7e6a39736c48","name":"시원한이비인후과의원","clCd":"31","clCdNm":"의원","sidoCd":"390000","sidoCdNm":"제주","sgguCdNm":"서귀포시","addr":"제주특별자치도 서귀포시 중정로 65, 2층 (서귀동)","phone":"064-763-5075","hospUrl":"","estbDd":"20040305","drTotCnt":1,"mdeptSdrCnt":1,"lat":33.24805,"lng":126.56329},{"id":"470b1cd1ebb6","name":"신윤석외과의원","clCd":"31","clCdNm":"의원","sidoCd":"390000","sidoCdNm":"제주","sgguCdNm":"서귀포시","addr":"제주특별자치도 서귀포시 월드컵로 8, 201호 (강정동)","phone":"064-739-2772","hospUrl":"","estbDd":"20170421","drTotCnt":1,"mdeptSdrCnt":1,"lat":33.249,"lng":126.50732},{"id":"1e520201773f","name":"신윤호 베스트 내과의원","clCd":"31","clCdNm":"의원","sidoCd":"390000","sidoCdNm":"제주","sgguCdNm":"서귀포시","addr":"제주특별자치도 서귀포시 안덕면 화순로 157, (안덕면)","phone":"064-792-7571","hospUrl":"","estbDd":"20260225","drTotCnt":1,"mdeptSdrCnt":1,"lat":33.24631,"lng":126.32965},{"id":"187b1d8121e3","name":"신제주이비인후과의원","clCd":"31","clCdNm":"의원","sidoCd":"390000","sidoCdNm":"제주","sgguCdNm":"제주시","addr":"제주특별자치도 제주시 연북로 38, (노형동)","phone":"713-7512","hospUrl":"","estbDd":"20020223","drTotCnt":1,"mdeptSdrCnt":1,"lat":33.48163,"lng":126.4854},{"id":"6145042c7157","name":"신제주학문외과의원","clCd":"31","clCdNm":"의원","sidoCd":"390000","sidoCdNm":"제주","sgguCdNm":"제주시","addr":"제주특별자치도 제주시 노형8길 2, 5층일부, 6층층 (노형동)","phone":"064-748-7175","hospUrl":"http://shinjejuhakmun.drline.net","estbDd":"20020513","drTotCnt":1,"mdeptSdrCnt":1,"lat":33.48434,"lng":126.47732},{"id":"65d8791ac6ce","name":"심연정신건강의학과의원","clCd":"31","clCdNm":"의원","sidoCd":"390000","sidoCdNm":"제주","sgguCdNm":"제주시","addr":"제주특별자치도 제주시 중앙로 570, 2층 (아라일동)","phone":"064-753-9393","hospUrl":"","estbDd":"20170302","drTotCnt":1,"mdeptSdrCnt":1,"lat":33.47266,"lng":126.54526},{"id":"b94147c8c3c2","name":"심창은소아청소년과의원","clCd":"31","clCdNm":"의원","sidoCd":"390000","sidoCdNm":"제주","sgguCdNm":"제주시","addr":"제주특별자치도 제주시 화삼북로 139, 3층 (삼양이동)","phone":"064-759-8800","hospUrl":"","estbDd":"20100322","drTotCnt":1,"mdeptSdrCnt":1,"lat":33.51726,"lng":126.58798},{"id":"e79430401a47","name":"아나파마취통증의학과의원","clCd":"31","clCdNm":"의원","sidoCd":"390000","sidoCdNm":"제주","sgguCdNm":"제주시","addr":"제주특별자치도 제주시 노형로 407, 403호 (노형동, 노형타워)","phone":"064-745-1475","hospUrl":"","estbDd":"19970314","drTotCnt":1,"mdeptSdrCnt":1,"lat":33.48582,"lng":126.47828},{"id":"607c9f14712b","name":"아란의원","clCd":"31","clCdNm":"의원","sidoCd":"390000","sidoCdNm":"제주","sgguCdNm":"제주시","addr":"제주특별자치도 제주시 중앙로 546, 5층 (아라일동)","phone":"064-755-5999","hospUrl":"","estbDd":"20250428","drTotCnt":1,"mdeptSdrCnt":1,"lat":33.47475,"lng":126.5452},{"id":"8a10acd26b4c","name":"아름다운의원","clCd":"31","clCdNm":"의원","sidoCd":"390000","sidoCdNm":"제주","sgguCdNm":"서귀포시","addr":"제주특별자치도 서귀포시 일주동로 8671, (서귀동)","phone":"064-733-7975","hospUrl":"","estbDd":"20130226","drTotCnt":1,"mdeptSdrCnt":1,"lat":33.2531,"lng":126.56203},{"id":"5285f450332e","name":"아름다운피부과의원","clCd":"31","clCdNm":"의원","sidoCd":"390000","sidoCdNm":"제주","sgguCdNm":"제주시","addr":"제주특별자치도 제주시 도령로 5, 2,3,5,7층 (노형동, 명은빌딩)","phone":"064-746-7114","hospUrl":"","estbDd":"20010430","drTotCnt":3,"mdeptSdrCnt":3,"lat":33.48677,"lng":126.47992},{"id":"076869ab2148","name":"아미의원","clCd":"31","clCdNm":"의원","sidoCd":"390000","sidoCdNm":"제주","sgguCdNm":"제주시","addr":"제주특별자치도 제주시 1100로 3323, 3층 (노형동)","phone":"064-747-3778","hospUrl":"","estbDd":"20181114","drTotCnt":1,"mdeptSdrCnt":"","lat":33.483,"lng":126.4804},{"id":"480ba1811618","name":"아산본정형외과 의원","clCd":"31","clCdNm":"의원","sidoCd":"390000","sidoCdNm":"제주","sgguCdNm":"서귀포시","addr":"제주특별자치도 서귀포시 대정읍 중산간서로 2274, C동 2층","phone":"064-758-7582","hospUrl":"","estbDd":"20200826","drTotCnt":1,"mdeptSdrCnt":1,"lat":33.28079,"lng":126.28537},{"id":"d99a99a71a8d","name":"아산수의원","clCd":"31","clCdNm":"의원","sidoCd":"390000","sidoCdNm":"제주","sgguCdNm":"서귀포시","addr":"제주특별자치도 서귀포시 대정읍 에듀시티로239번길 16, 201호","phone":"064-792-1008","hospUrl":"","estbDd":"20220317","drTotCnt":1,"mdeptSdrCnt":1,"lat":33.27951,"lng":126.27526},{"id":"3fead4527a14","name":"아이쁨의원","clCd":"31","clCdNm":"의원","sidoCd":"390000","sidoCdNm":"제주","sgguCdNm":"제주시","addr":"제주특별자치도 제주시 일주서로 7356, 4층 (외도이동)","phone":"064-744-7112","hospUrl":"","estbDd":"20240516","drTotCnt":1,"mdeptSdrCnt":1,"lat":33.49327,"lng":126.43305},{"id":"931a30b70bc1","name":"아이사랑소아과의원","clCd":"31","clCdNm":"의원","sidoCd":"390000","sidoCdNm":"제주","sgguCdNm":"제주시","addr":"제주특별자치도 제주시 동광로 131, (일도이동)","phone":"751-8275","hospUrl":"","estbDd":"20020320","drTotCnt":1,"mdeptSdrCnt":1,"lat":33.50792,"lng":126.54044},{"id":"9171e96cf566","name":"아이세상소아청소년과의원","clCd":"31","clCdNm":"의원","sidoCd":"390000","sidoCdNm":"제주","sgguCdNm":"제주시","addr":"제주특별자치도 제주시 화삼로1길 14, 2층 (화북일동)","phone":"064-725-6047","hospUrl":"","estbDd":"19860430","drTotCnt":1,"mdeptSdrCnt":1,"lat":33.51473,"lng":126.57526},{"id":"d3b5588da933","name":"안덕의원","clCd":"31","clCdNm":"의원","sidoCd":"390000","sidoCdNm":"제주","sgguCdNm":"서귀포시","addr":"제주특별자치도 서귀포시 안덕면 화순로 112, (안덕면)","phone":"064-794-0906","hospUrl":"","estbDd":"20201007","drTotCnt":1,"mdeptSdrCnt":1,"lat":33.24661,"lng":126.33424},{"id":"0801cad905bd","name":"애월의원","clCd":"31","clCdNm":"의원","sidoCd":"390000","sidoCdNm":"제주","sgguCdNm":"제주시","addr":"제주특별자치도 제주시 애월읍 애월로11길 6-2, 2층","phone":"064-799-5400","hospUrl":"","estbDd":"19950712","drTotCnt":1,"mdeptSdrCnt":"","lat":33.46487,"lng":126.32062},{"id":"ee914a103eaf","name":"애월정의원","clCd":"31","clCdNm":"의원","sidoCd":"390000","sidoCdNm":"제주","sgguCdNm":"제주시","addr":"제주특별자치도 제주시 애월읍 애월로 109, (애월읍)","phone":"064-799-0097","hospUrl":"","estbDd":"20170228","drTotCnt":1,"mdeptSdrCnt":1,"lat":33.46487,"lng":126.3192},{"id":"ed2e738202bb","name":"애플정신건강의학과의원","clCd":"31","clCdNm":"의원","sidoCd":"390000","sidoCdNm":"제주","sgguCdNm":"제주시","addr":"제주특별자치도 제주시 연북로 38, 3층 (노형동, 연동타운)","phone":"064-744-9575","hospUrl":"","estbDd":"20190904","drTotCnt":1,"mdeptSdrCnt":1,"lat":33.48163,"lng":126.4854},{"id":"22b958360df6","name":"양승지외과의원","clCd":"31","clCdNm":"의원","sidoCd":"390000","sidoCdNm":"제주","sgguCdNm":"서귀포시","addr":"제주특별자치도 서귀포시 서문로 2, (서귀동)","phone":"064-762-8875","hospUrl":"","estbDd":"20151204","drTotCnt":1,"mdeptSdrCnt":1,"lat":33.25238,"lng":126.56039},{"id":"631babf26779","name":"양승철소아청소년과의원","clCd":"31","clCdNm":"의원","sidoCd":"390000","sidoCdNm":"제주","sgguCdNm":"서귀포시","addr":"제주특별자치도 서귀포시 중정로 50, 3,4층 (서귀동)","phone":"064-762-8275","hospUrl":"http://www.happyagi.com","estbDd":"19930429","drTotCnt":1,"mdeptSdrCnt":1,"lat":33.24738,"lng":126.56169},{"id":"a65ff062dc23","name":"양재식내과의원","clCd":"31","clCdNm":"의원","sidoCd":"390000","sidoCdNm":"제주","sgguCdNm":"서귀포시","addr":"제주특별자치도 서귀포시 동문로 2, 2층 (서귀동)","phone":"064-732-3800","hospUrl":"","estbDd":"20110216","drTotCnt":1,"mdeptSdrCnt":1,"lat":33.25232,"lng":126.5615},{"id":"0511428e11b2","name":"양준호정형외과의원","clCd":"31","clCdNm":"의원","sidoCd":"390000","sidoCdNm":"제주","sgguCdNm":"제주시","addr":"제주특별자치도 제주시 월랑로 39, 동마빌딩 3층 (노형동)","phone":"745-9114","hospUrl":"","estbDd":"20060523","drTotCnt":1,"mdeptSdrCnt":1,"lat":33.48893,"lng":126.47561},{"id":"d4cbd8da4e38","name":"어울림의원","clCd":"31","clCdNm":"의원","sidoCd":"390000","sidoCdNm":"제주","sgguCdNm":"제주시","addr":"제주특별자치도 제주시 노형로 362, 3층 (노형동)","phone":"064-747-0678","hospUrl":"","estbDd":"20221028","drTotCnt":1,"mdeptSdrCnt":1,"lat":33.48262,"lng":126.47504},{"id":"2f5b38cd51af","name":"에덴산부인과의원","clCd":"31","clCdNm":"의원","sidoCd":"390000","sidoCdNm":"제주","sgguCdNm":"제주시","addr":"제주특별자치도 제주시 수덕로 6, 4층 (노형동)","phone":"064-748-9400","hospUrl":"","estbDd":"20050920","drTotCnt":1,"mdeptSdrCnt":1,"lat":33.48864,"lng":126.47528},{"id":"ebac1f7de4ba","name":"에버그린의원","clCd":"31","clCdNm":"의원","sidoCd":"390000","sidoCdNm":"제주","sgguCdNm":"제주시","addr":"제주특별자치도 제주시 중앙로 371-1, 3,4,5층 (이도이동)","phone":"064-758-1807","hospUrl":"","estbDd":"20141216","drTotCnt":1,"mdeptSdrCnt":1,"lat":33.48908,"lng":126.53955},{"id":"690a61bb331a","name":"엔젤산부인과의원","clCd":"31","clCdNm":"의원","sidoCd":"390000","sidoCdNm":"제주","sgguCdNm":"서귀포시","addr":"제주특별자치도 서귀포시 대정읍 에듀시티로239번길 12, 2층","phone":"064-756-7575","hospUrl":"","estbDd":"20080910","drTotCnt":1,"mdeptSdrCnt":1,"lat":33.27926,"lng":126.2751},{"id":"20ac8e9a87ba","name":"엘라 여성의원","clCd":"31","clCdNm":"의원","sidoCd":"390000","sidoCdNm":"제주","sgguCdNm":"서귀포시","addr":"제주특별자치도 서귀포시 중앙로 89, 서귀포약국 3층 (서귀동)","phone":"064-767-8275","hospUrl":"","estbDd":"20220809","drTotCnt":1,"mdeptSdrCnt":1,"lat":33.25259,"lng":126.56043},{"id":"429b0afc5666","name":"엘산부인과의원","clCd":"31","clCdNm":"의원","sidoCd":"390000","sidoCdNm":"제주","sgguCdNm":"제주시","addr":"제주특별자치도 제주시 중앙로 352, 4층 (이도이동)","phone":"064-726-6555","hospUrl":"","estbDd":"20140603","drTotCnt":1,"mdeptSdrCnt":1,"lat":33.49016,"lng":126.53751},{"id":"ae3a0bb5b955","name":"연동365일의원","clCd":"31","clCdNm":"의원","sidoCd":"390000","sidoCdNm":"제주","sgguCdNm":"제주시","addr":"제주특별자치도 제주시 연북로 99, 2층 (연동, 365빌딩)","phone":"064-727-3651","hospUrl":"http://yd365.mdrline.net/","estbDd":"20110112","drTotCnt":4,"mdeptSdrCnt":3,"lat":33.48208,"lng":126.49197},{"id":"731297b3cee8","name":"연세가정의학과의원","clCd":"31","clCdNm":"의원","sidoCd":"390000","sidoCdNm":"제주","sgguCdNm":"제주시","addr":"제주특별자치도 제주시 일주동로 179, (화북일동)","phone":"064-756-7337","hospUrl":"","estbDd":"19980212","drTotCnt":1,"mdeptSdrCnt":1,"lat":33.51899,"lng":126.5645},{"id":"53d8d261c5dd","name":"연세내과의원","clCd":"31","clCdNm":"의원","sidoCd":"390000","sidoCdNm":"제주","sgguCdNm":"제주시","addr":"제주특별자치도 제주시 구좌읍 세화3길 2, 2","phone":"064-782-5119","hospUrl":"","estbDd":"20131025","drTotCnt":1,"mdeptSdrCnt":1,"lat":33.52364,"lng":126.85604},{"id":"a77d6d4f1bb6","name":"연세모벨르의원","clCd":"31","clCdNm":"의원","sidoCd":"390000","sidoCdNm":"제주","sgguCdNm":"제주시","addr":"제주특별자치도 제주시 노형로 407, 4층 401호 (노형동)","phone":"064-745-2784","hospUrl":"","estbDd":"20150213","drTotCnt":1,"mdeptSdrCnt":1,"lat":33.48582,"lng":126.47828},{"id":"8e3fa655d12a","name":"연세삼성의원","clCd":"31","clCdNm":"의원","sidoCd":"390000","sidoCdNm":"제주","sgguCdNm":"제주시","addr":"제주특별자치도 제주시 흥운길 8, (용담이동)","phone":"064-713-3454","hospUrl":"","estbDd":"20030226","drTotCnt":1,"mdeptSdrCnt":1,"lat":33.50978,"lng":126.51114},{"id":"54dc7a42b11f","name":"연세선린내과의원","clCd":"31","clCdNm":"의원","sidoCd":"390000","sidoCdNm":"제주","sgguCdNm":"서귀포시","addr":"제주특별자치도 서귀포시 동문로 64, 3, 4층 (서귀동)","phone":"064-901-7575","hospUrl":"","estbDd":"20220830","drTotCnt":1,"mdeptSdrCnt":1,"lat":33.24902,"lng":126.56688},{"id":"f8a7495aa602","name":"연세안과의원","clCd":"31","clCdNm":"의원","sidoCd":"390000","sidoCdNm":"제주","sgguCdNm":"제주시","addr":"제주특별자치도 제주시 서광로 220, (삼도일동)","phone":"064-755-0310","hospUrl":"","estbDd":"20060224","drTotCnt":1,"mdeptSdrCnt":1,"lat":33.49957,"lng":126.52008},{"id":"0f063eb9bebe","name":"연세안과의원","clCd":"31","clCdNm":"의원","sidoCd":"390000","sidoCdNm":"제주","sgguCdNm":"서귀포시","addr":"제주특별자치도 서귀포시 일주동로 8675, (서귀동)","phone":"064-762-0727","hospUrl":"","estbDd":"20070227","drTotCnt":1,"mdeptSdrCnt":1,"lat":33.253,"lng":126.56169},{"id":"8411e561f4e0","name":"연세예담의원","clCd":"31","clCdNm":"의원","sidoCd":"390000","sidoCdNm":"제주","sgguCdNm":"서귀포시","addr":"제주특별자치도 서귀포시 일주동로 8666, 2층 (동홍동)","phone":"064-763-3112","hospUrl":"","estbDd":"20220427","drTotCnt":1,"mdeptSdrCnt":1,"lat":33.25369,"lng":126.56236},{"id":"11390df44b96","name":"연세외도정형외과의원","clCd":"31","clCdNm":"의원","sidoCd":"390000","sidoCdNm":"제주","sgguCdNm":"제주시","addr":"제주특별자치도 제주시 절물1길 40, 1,2층 (외도일동)","phone":"064-746-8007","hospUrl":"","estbDd":"20160229","drTotCnt":1,"mdeptSdrCnt":1,"lat":33.48943,"lng":126.43143},{"id":"bb6635554e36","name":"연세위드신경과의원","clCd":"31","clCdNm":"의원","sidoCd":"390000","sidoCdNm":"제주","sgguCdNm":"제주시","addr":"제주특별자치도 제주시 노형8길 2, 2층 (노형동)","phone":"064-712-3379","hospUrl":"http://www.yswith1.com","estbDd":"20240319","drTotCnt":2,"mdeptSdrCnt":2,"lat":33.48434,"lng":126.47732},{"id":"a216696c58a3","name":"연세유엘르의원","clCd":"31","clCdNm":"의원","sidoCd":"390000","sidoCdNm":"제주","sgguCdNm":"제주시","addr":"제주특별자치도 제주시 탑동로 24, 3,4층 (삼도이동)","phone":"064-726-9500","hospUrl":"www.youelle.co.kr/","estbDd":"20091117","drTotCnt":1,"mdeptSdrCnt":1,"lat":33.51755,"lng":126.5225},{"id":"1ab9e8542771","name":"연세이비인후과의원","clCd":"31","clCdNm":"의원","sidoCd":"390000","sidoCdNm":"제주","sgguCdNm":"제주시","addr":"제주특별자치도 제주시 고마로 117, 수협중앙회 일도지점 (일도이동)","phone":"064-726-1919","hospUrl":"","estbDd":"20000121","drTotCnt":1,"mdeptSdrCnt":1,"lat":33.50403,"lng":126.54206},{"id":"a6084593c397","name":"연세제일안과의원","clCd":"31","clCdNm":"의원","sidoCd":"390000","sidoCdNm":"제주","sgguCdNm":"제주시","addr":"제주특별자치도 제주시 연북로 449, 2층 (도남동)","phone":"064-727-2700","hospUrl":"","estbDd":"20171011","drTotCnt":3,"mdeptSdrCnt":3,"lat":33.48144,"lng":126.52886},{"id":"d5c952f9a990","name":"연세차내과의원","clCd":"31","clCdNm":"의원","sidoCd":"390000","sidoCdNm":"제주","sgguCdNm":"제주시","addr":"제주특별자치도 제주시 우정로 12, 제이드메디빌딩 4,5,6층 (외도일동)","phone":"064-747-2375","hospUrl":"","estbDd":"20201209","drTotCnt":2,"mdeptSdrCnt":2,"lat":33.49184,"lng":126.43066},{"id":"e791bdd5cff0","name":"연세푸른숲이비인후과의원","clCd":"31","clCdNm":"의원","sidoCd":"390000","sidoCdNm":"제주","sgguCdNm":"서귀포시","addr":"제주특별자치도 서귀포시 대정읍 에듀시티로239번길 12, (대정읍)","phone":"064-792-2204","hospUrl":"","estbDd":"20240419","drTotCnt":1,"mdeptSdrCnt":1,"lat":33.27926,"lng":126.2751},{"id":"3b97ec6f74e5","name":"연세피부과의원","clCd":"31","clCdNm":"의원","sidoCd":"390000","sidoCdNm":"제주","sgguCdNm":"제주시","addr":"제주특별자치도 제주시 연북로 38, (노형동, 연동타운)","phone":"711-3679","hospUrl":"","estbDd":"19910520","drTotCnt":1,"mdeptSdrCnt":1,"lat":33.48163,"lng":126.4854},{"id":"2afc90a1cbb0","name":"연오름의원","clCd":"31","clCdNm":"의원","sidoCd":"390000","sidoCdNm":"제주","sgguCdNm":"제주시","addr":"제주특별자치도 제주시 연북로 34, 4층 (노형동)","phone":"064-745-7004","hospUrl":"","estbDd":"20250723","drTotCnt":1,"mdeptSdrCnt":1,"lat":33.48166,"lng":126.48495},{"id":"4866bb2e4055","name":"예나산부인과의원","clCd":"31","clCdNm":"의원","sidoCd":"390000","sidoCdNm":"제주","sgguCdNm":"제주시","addr":"제주특별자치도 제주시 서광로 83, (용담이동)","phone":"064-741-7000","hospUrl":"","estbDd":"20051004","drTotCnt":2,"mdeptSdrCnt":2,"lat":33.50061,"lng":126.50495},{"id":"cdddf89503ff","name":"오나정산부인과의원","clCd":"31","clCdNm":"의원","sidoCd":"390000","sidoCdNm":"제주","sgguCdNm":"제주시","addr":"제주특별자치도 제주시 건주로 31, 한라신협 삼화지점 2층 (도련일동)","phone":"064-755-1115","hospUrl":"","estbDd":"20180315","drTotCnt":1,"mdeptSdrCnt":1,"lat":33.51677,"lng":126.58099},{"id":"50c73cdd2142","name":"오늘봄성형외과의원","clCd":"31","clCdNm":"의원","sidoCd":"390000","sidoCdNm":"제주","sgguCdNm":"제주시","addr":"제주특별자치도 제주시 절물1길 39, 2층 (외도일동)","phone":"064-904-1258","hospUrl":"","estbDd":"20231121","drTotCnt":1,"mdeptSdrCnt":1,"lat":33.48939,"lng":126.4317},{"id":"d40c8fa9f7c2","name":"오정헌내과의원","clCd":"31","clCdNm":"의원","sidoCd":"390000","sidoCdNm":"제주","sgguCdNm":"제주시","addr":"제주특별자치도 제주시 우정로8길 2, 2층 (외도일동)","phone":"064-711-1116","hospUrl":"","estbDd":"20161206","drTotCnt":1,"mdeptSdrCnt":1,"lat":33.48937,"lng":126.43069},{"id":"bc879e4035d8","name":"오케이정형외과의원","clCd":"31","clCdNm":"의원","sidoCd":"390000","sidoCdNm":"제주","sgguCdNm":"제주시","addr":"제주특별자치도 제주시 동광로 108-1, (일도이동)","phone":"064-758-0575","hospUrl":"","estbDd":"20140410","drTotCnt":1,"mdeptSdrCnt":1,"lat":33.50605,"lng":126.53914},{"id":"5634c84227ec","name":"온마음의원","clCd":"31","clCdNm":"의원","sidoCd":"390000","sidoCdNm":"제주","sgguCdNm":"제주시","addr":"제주특별자치도 제주시 연삼로 548, (일도이동)","phone":"064-753-0075","hospUrl":"","estbDd":"20170925","drTotCnt":1,"mdeptSdrCnt":1,"lat":33.5024,"lng":126.54744},{"id":"d326c8d69bc4","name":"온정신건강의학과의원","clCd":"31","clCdNm":"의원","sidoCd":"390000","sidoCdNm":"제주","sgguCdNm":"제주시","addr":"제주특별자치도 제주시 동광로 122, 2층 201호 (일도이동)","phone":"064-759-1150","hospUrl":"","estbDd":"20180717","drTotCnt":1,"mdeptSdrCnt":1,"lat":33.50679,"lng":126.54015},{"id":"278880105def","name":"올레비뇨의학과의원","clCd":"31","clCdNm":"의원","sidoCd":"390000","sidoCdNm":"제주","sgguCdNm":"제주시","addr":"제주특별자치도 제주시 중앙로 366, 4층 (이도이동)","phone":"064-745-2800","hospUrl":"","estbDd":"20181106","drTotCnt":1,"mdeptSdrCnt":1,"lat":33.4892,"lng":126.53848},{"id":"9ea1e61d9d93","name":"와인피부과의원","clCd":"31","clCdNm":"의원","sidoCd":"390000","sidoCdNm":"제주","sgguCdNm":"제주시","addr":"제주특별자치도 제주시 1100로 3178, 3,4층 (노형동)","phone":"064-712-6200","hospUrl":"","estbDd":"20131212","drTotCnt":3,"mdeptSdrCnt":3,"lat":33.46981,"lng":126.48533},{"id":"5e06d7d612d4","name":"외도굿모닝이비인후과의원","clCd":"31","clCdNm":"의원","sidoCd":"390000","sidoCdNm":"제주","sgguCdNm":"제주시","addr":"제주특별자치도 제주시 우평로 338, 3층 (외도일동)","phone":"064-747-7553","hospUrl":"","estbDd":"20200116","drTotCnt":1,"mdeptSdrCnt":1,"lat":33.48419,"lng":126.43053},{"id":"7a2234cddb17","name":"외도하나의원","clCd":"31","clCdNm":"의원","sidoCd":"390000","sidoCdNm":"제주","sgguCdNm":"제주시","addr":"제주특별자치도 제주시 우정로 69, (외도일동)","phone":"064-759-1010","hospUrl":"","estbDd":"20140514","drTotCnt":1,"mdeptSdrCnt":1,"lat":33.48665,"lng":126.43111},{"id":"0d138945f9aa","name":"용담의원","clCd":"31","clCdNm":"의원","sidoCd":"390000","sidoCdNm":"제주","sgguCdNm":"제주시","addr":"제주특별자치도 제주시 용담로 92, 2층 (용담이동)","phone":"064-711-8511","hospUrl":"","estbDd":"20070323","drTotCnt":1,"mdeptSdrCnt":"","lat":33.51191,"lng":126.51234},{"id":"875c52558aed","name":"우리동홍의원","clCd":"31","clCdNm":"의원","sidoCd":"390000","sidoCdNm":"제주","sgguCdNm":"서귀포시","addr":"제주특별자치도 서귀포시 태평로 508, 2층 (동홍동)","phone":"064-732-7533","hospUrl":"","estbDd":"20060418","drTotCnt":1,"mdeptSdrCnt":1,"lat":33.25028,"lng":126.57218},{"id":"8b99d69d9335","name":"우리들소아과의원","clCd":"31","clCdNm":"의원","sidoCd":"390000","sidoCdNm":"제주","sgguCdNm":"서귀포시","addr":"제주특별자치도 서귀포시 중정로 70, (서귀동)","phone":"064-732-2323","hospUrl":"","estbDd":"20061030","drTotCnt":1,"mdeptSdrCnt":1,"lat":33.24778,"lng":126.56383},{"id":"45e2755444cd","name":"우리들소아청소년과의원","clCd":"31","clCdNm":"의원","sidoCd":"390000","sidoCdNm":"제주","sgguCdNm":"제주시","addr":"제주특별자치도 제주시 연북로 38, 5층 (노형동, 연동타운)","phone":"064-748-7775","hospUrl":"","estbDd":"20140514","drTotCnt":1,"mdeptSdrCnt":1,"lat":33.48163,"lng":126.4854},{"id":"1f5c5e60e034","name":"우리소아청소년과의원","clCd":"31","clCdNm":"의원","sidoCd":"390000","sidoCdNm":"제주","sgguCdNm":"제주시","addr":"제주특별자치도 제주시 우정로15길 5, 2층 (외도일동)","phone":"713-7553","hospUrl":"","estbDd":"20061026","drTotCnt":1,"mdeptSdrCnt":1,"lat":33.48607,"lng":126.43172},{"id":"92db6c7bfdcc","name":"우리안과의원","clCd":"31","clCdNm":"의원","sidoCd":"390000","sidoCdNm":"제주","sgguCdNm":"제주시","addr":"제주특별자치도 제주시 동광로 107, (일도이동)","phone":"723-8811","hospUrl":"","estbDd":"20020607","drTotCnt":1,"mdeptSdrCnt":1,"lat":33.50641,"lng":126.53873},{"id":"877cb881523c","name":"우리연세이비인후과의원","clCd":"31","clCdNm":"의원","sidoCd":"390000","sidoCdNm":"제주","sgguCdNm":"제주시","addr":"제주특별자치도 제주시 도령로 74, (연동)","phone":"747-3255","hospUrl":"","estbDd":"20021114","drTotCnt":1,"mdeptSdrCnt":1,"lat":33.48971,"lng":126.48631},{"id":"8f4cda6e25cf","name":"우리의원","clCd":"31","clCdNm":"의원","sidoCd":"390000","sidoCdNm":"제주","sgguCdNm":"서귀포시","addr":"제주특별자치도 서귀포시 성산읍 동류암로36번길 23, (우리의원)","phone":"064-784-5575","hospUrl":"","estbDd":"20050408","drTotCnt":1,"mdeptSdrCnt":1,"lat":33.4496,"lng":126.91509},{"id":"79a1e313406f","name":"우리정형외과의원","clCd":"31","clCdNm":"의원","sidoCd":"390000","sidoCdNm":"제주","sgguCdNm":"서귀포시","addr":"제주특별자치도 서귀포시 중앙로 106, (동홍동)","phone":"064-733-1418","hospUrl":"","estbDd":"19870307","drTotCnt":3,"mdeptSdrCnt":3,"lat":33.25409,"lng":126.56109},{"id":"c964bc077454","name":"위미의원","clCd":"31","clCdNm":"의원","sidoCd":"390000","sidoCdNm":"제주","sgguCdNm":"서귀포시","addr":"제주특별자치도 서귀포시 남원읍 태위로 123, 123","phone":"064-764-5510","hospUrl":"","estbDd":"20040915","drTotCnt":1,"mdeptSdrCnt":"","lat":33.27496,"lng":126.66071},{"id":"ce6124d2cb55","name":"위소아청소년과의원","clCd":"31","clCdNm":"의원","sidoCd":"390000","sidoCdNm":"제주","sgguCdNm":"제주시","addr":"제주특별자치도 제주시 월랑로 39, 동마빌딩 5층 (노형동)","phone":"064-746-1911","hospUrl":"","estbDd":"20190422","drTotCnt":1,"mdeptSdrCnt":1,"lat":33.48893,"lng":126.47561},{"id":"c7b2a850afd8","name":"위앤장기만덕내과의원","clCd":"31","clCdNm":"의원","sidoCd":"390000","sidoCdNm":"제주","sgguCdNm":"제주시","addr":"제주특별자치도 제주시 노형로 407, 302호 (노형동, 노형타워)","phone":"064-721-3117","hospUrl":"","estbDd":"19940623","drTotCnt":1,"mdeptSdrCnt":1,"lat":33.48582,"lng":126.47828},{"id":"348eea87234c","name":"유소아과의원","clCd":"31","clCdNm":"의원","sidoCd":"390000","sidoCdNm":"제주","sgguCdNm":"서귀포시","addr":"제주특별자치도 서귀포시 중앙로 93, (서귀동)","phone":"064-732-5418","hospUrl":"","estbDd":"19890509","drTotCnt":1,"mdeptSdrCnt":1,"lat":33.25283,"lng":126.56038},{"id":"1243bbabadca","name":"유진마취통증의학과의원","clCd":"31","clCdNm":"의원","sidoCd":"390000","sidoCdNm":"제주","sgguCdNm":"제주시","addr":"제주특별자치도 제주시 중앙로 286, 4층 (이도이동, 김기수안과빌딩)","phone":"064-755-6531","hospUrl":"","estbDd":"20160708","drTotCnt":1,"mdeptSdrCnt":1,"lat":33.49476,"lng":126.53299},{"id":"cd919bd09aa9","name":"유쾌한비뇨기과의원","clCd":"31","clCdNm":"의원","sidoCd":"390000","sidoCdNm":"제주","sgguCdNm":"제주시","addr":"제주특별자치도 제주시 1100로 3333, 2층 (노형동)","phone":"064-805-1151","hospUrl":"","estbDd":"20170608","drTotCnt":1,"mdeptSdrCnt":1,"lat":33.48361,"lng":126.48014},{"id":"82c35b943647","name":"윤비뇨의학과의원","clCd":"31","clCdNm":"의원","sidoCd":"390000","sidoCdNm":"제주","sgguCdNm":"제주시","addr":"제주특별자치도 제주시 고마로 149, 1층 북쪽 (일도이동)","phone":"064-724-7582","hospUrl":"","estbDd":"20030726","drTotCnt":1,"mdeptSdrCnt":1,"lat":33.50151,"lng":126.54357},{"id":"96a2caa2558b","name":"윤성현내과의원","clCd":"31","clCdNm":"의원","sidoCd":"390000","sidoCdNm":"제주","sgguCdNm":"서귀포시","addr":"제주특별자치도 서귀포시 중정로 38, (서귀동)","phone":"064-762-5651","hospUrl":"","estbDd":"19860418","drTotCnt":1,"mdeptSdrCnt":1,"lat":33.24736,"lng":126.56038},{"id":"475e3aecea7a","name":"윤진호정형외과의원","clCd":"31","clCdNm":"의원","sidoCd":"390000","sidoCdNm":"제주","sgguCdNm":"제주시","addr":"제주특별자치도 제주시 동광로 90, (이도이동)","phone":"064-727-8275","hospUrl":"","estbDd":"20080104","drTotCnt":1,"mdeptSdrCnt":1,"lat":33.50486,"lng":126.53773},{"id":"266544b92f0e","name":"의료법인 열린의료재단 서연의원","clCd":"31","clCdNm":"의원","sidoCd":"390000","sidoCdNm":"제주","sgguCdNm":"서귀포시","addr":"제주특별자치도 서귀포시 중정로 123, 3층 (서귀동)","phone":"064-763-4100","hospUrl":"","estbDd":"20000106","drTotCnt":1,"mdeptSdrCnt":1,"lat":33.24882,"lng":126.56948},{"id":"7aee26a1ad54","name":"의료법인녹십자의료재단제주녹십자의원","clCd":"31","clCdNm":"의원","sidoCd":"390000","sidoCdNm":"제주","sgguCdNm":"제주시","addr":"제주특별자치도 제주시 고전길 5, 1층 102호 (이도일동, 극동오벨리스크3차)","phone":"064-753-0748","hospUrl":"","estbDd":"20160517","drTotCnt":"","mdeptSdrCnt":"","lat":33.50646,"lng":126.52546},{"id":"f09ae8729bc3","name":"이경신이비인후과의원","clCd":"31","clCdNm":"의원","sidoCd":"390000","sidoCdNm":"제주","sgguCdNm":"제주시","addr":"제주특별자치도 제주시 중앙로 61, (이도일동)","phone":"756-2123","hospUrl":"","estbDd":"19880229","drTotCnt":1,"mdeptSdrCnt":1,"lat":33.51265,"lng":126.5248},{"id":"1851725aecfd","name":"이내과의원","clCd":"31","clCdNm":"의원","sidoCd":"390000","sidoCdNm":"제주","sgguCdNm":"서귀포시","addr":"제주특별자치도 서귀포시 중정로 68-1, (서귀동)","phone":"064-762-3872","hospUrl":"","estbDd":"19840327","drTotCnt":1,"mdeptSdrCnt":1,"lat":33.24783,"lng":126.56369},{"id":"c36dcd851d1f","name":"이동구내과의원","clCd":"31","clCdNm":"의원","sidoCd":"390000","sidoCdNm":"제주","sgguCdNm":"제주시","addr":"제주특별자치도 제주시 신광로 64, 2층 (연동)","phone":"064-746-4224","hospUrl":"","estbDd":"19750922","drTotCnt":1,"mdeptSdrCnt":1,"lat":33.48652,"lng":126.48974},